~VERSION INFORMATION SECTION
VERS. 2.0 : CWLS LAS-VERSION 2.0
WRAP. NO : One line per depth step
~WELL INFORMATION SECTION
# MNEM.UNIT VALUE/NAME DESCRIPTION
#-------- -------------- ---------------------
STRT.Metres 28 : Start
STOP.Metres 0.42 : Stop
STEP.Metres -0.01 : Step
NULL.  -999.25 :NULL VALUE
DATE. 2026-57-05 : DATE
~CURVE INFORMATION SECTION
DEPTH.Metres : 0 Depth
Depth. : 1 Depth
Tension. : 2 Tension
Time. : 3 Time
Speed. : 4 Speed
Voltage. : 5 Voltage
Current. : 6 Current
X1.mm : 7 X1
X2.mm : 8 X2
Y1.mm : 9 Y1
Y2.mm : 10 Y2
MotorCurrent.mA : 11 Motor Current
HeadVoltage.V : 12 Head Voltage
WET. : 13 WET
Sig. : 14 Sig
Vth. : 15 Vth
GR.CPS : 16 GR
Timebase.ms : 17 Timebase
HeadVoltage.V : 18 Head Voltage
API.API : 19 API
~PARAMETER INFORMATION SECTION
~OTHER
#-------------------------------------------------
#Produced By: GeoVista Logger - Version 7.1.107.0
Natural Gamma Sonde - 9515
WLIS - 9387
Caliper Sonde (4 Arm) - 6341
#-------------------------------------------------
~ASCII LOG DATA
# ...
16.49 16.5020 33170.0 194.60 7.991250 0.0970 0.1020 61.464030 67.721190 80.355990 72.752930 2.0 104.0 1.0 19.0 200.0 31.666670 300.0 198.0 31.666670
16.48 16.488650 33035.0 194.70 7.9850 0.0970 0.1020 61.463880 67.720690 80.356470 72.75230 2.0 104.0 1.0 19.0 200.0 30.0 300.0 198.0 30.0
16.47 16.47530 33228.0 194.80 7.978750 0.0970 0.1020 61.463720 67.720190 80.356950 72.751670 2.0 104.0 1.0 19.0 200.0 28.333330 300.0 198.0 28.333330
16.46 16.468620 33136.50 194.850 7.97250 0.0970 0.1020 61.463370 67.720120 80.35670 72.752270 2.0 104.0 1.0 19.0 200.0 26.666670 300.0 198.0 26.666670
16.45 16.461950 33045.0 194.90 7.966250 0.0970 0.1020 61.463030 67.720040 80.356440 72.752870 2.0 104.0 1.0 19.0 200.0 29.166670 300.0 198.0 29.166670
16.44 16.448590 32805.0 195.0 7.960 0.0970 0.1020 61.462680 67.719960 80.356190 72.753470 2.0 104.0 1.0 19.0 200.0 31.666670 300.0 198.0 31.666670
16.43 16.435240 32611.0 195.10 7.966250 0.0970 0.1020 61.462340 67.719880 80.355930 72.754070 2.0 104.0 1.0 19.0 200.0 34.166670 302.50 198.0 34.166670
16.42 16.428570 32559.50 195.150 7.97250 0.0970 0.1020 61.45360 67.708640 80.347280 72.763440 2.0 104.0 1.0 19.0 200.0 36.666670 305.0 198.0 36.666670
16.41 16.421890 32508.0 195.20 7.978750 0.0970 0.1020 61.444860 67.697390 80.338640 72.77280 2.0 104.0 1.0 19.0 200.0 34.166670 307.50 198.0 34.166670
16.40 16.408540 32733.0 195.30 7.9850 0.0970 0.1020 61.436120 67.686140 80.329990 72.782170 2.0 104.0 1.0 19.0 200.0 31.666670 310.0 198.0 31.666670
16.39 16.395190 33102.0 195.40 7.991250 0.0970 0.1020 61.427380 67.67490 80.321340 72.791540 2.0 104.0 1.0 19.0 200.0 29.166670 307.50 198.0 29.166670
16.38 16.388510 33080.50 195.450 7.99750 0.0970 0.1020 61.42650 67.674430 80.321530 72.791480 2.0 104.0 1.0 19.0 200.0 26.666670 305.0 198.0 26.666670
16.37 16.381830 33059.0 195.50 8.003750 0.0970 0.1020 61.425620 67.673970 80.321730 72.791420 2.0 104.0 1.0 19.0 200.0 33.333330 302.50 198.0 33.333330
16.36 16.368480 32992.0 195.60 8.010 0.0970 0.1020 61.424750 67.673510 80.321920 72.791360 2.0 104.0 1.0 19.0 200.0 40.0 300.0 198.0 40.0
16.35 16.355130 33035.0 195.70 8.003750 0.0970 0.1020 61.423870 67.673050 80.322110 72.791290 2.0 104.0 1.0 19.0 200.0 46.666670 300.0 198.0 46.666670
16.34 16.348460 33087.0 195.750 7.99750 0.0970 0.1020 61.423840 67.673930 80.321310 72.791510 2.0 104.0 1.0 19.0 200.0 53.333330 300.0 198.0 53.333330
16.33 16.341780 33139.0 195.80 7.991250 0.0970 0.1020 61.423810 67.674820 80.320510 72.791730 2.0 104.0 1.0 19.0 200.0 49.677420 300.0 198.0 49.677420
16.32 16.328430 33251.0 195.90 7.9850 0.0970 0.1020 61.423780 67.675710 80.319720 72.791950 2.0 104.0 1.0 19.0 200.0 46.021510 300.0 198.0 46.021510
16.31 16.315080 32934.0 196.0 7.978750 0.0970 0.10 61.423740 67.676590 80.318920 72.792180 2.0 104.0 1.0 19.0 200.0 42.365590 300.0 198.0 42.365590
16.30 16.30840 32844.50 196.050 7.97250 0.0970 0.1010 61.432990 67.686880 80.327880 72.782020 2.0 104.0 1.0 19.0 200.0 38.709680 300.0 198.0 38.709680
16.29 16.301720 32755.0 196.10 7.966250 0.0970 0.1020 61.442230 67.697160 80.336850 72.771860 2.0 104.0 1.0 19.0 200.0 34.032260 300.0 198.0 34.032260
16.28 16.289160 32941.0 196.20 7.960 0.0970 0.1020 61.451470 67.707440 80.345820 72.76170 2.0 104.0 1.0 19.0 200.0 29.354840 300.0 198.0 29.354840
16.27 16.275810 33272.0 196.30 7.960 0.0970 0.1020 61.460710 67.717730 80.354780 72.751540 2.0 104.0 1.0 19.0 200.0 24.677420 300.0 198.0 24.677420
16.26 16.269130 32985.0 196.350 7.960 0.0970 0.1020 61.451850 67.707370 80.346290 72.761760 2.0 104.0 1.0 19.0 200.0 20.0 300.0 198.0 20.0
16.25 16.262450 32698.0 196.40 7.960 0.0970 0.1020 61.442980 67.697010 80.337810 72.771980 2.0 104.0 1.0 19.0 200.0 24.166670 300.0 198.0 24.166670
16.24 16.24910 32811.0 196.50 7.960 0.0970 0.1020 61.434110 67.686640 80.329320 72.782210 2.0 104.0 1.0 19.0 200.0 28.333330 300.0 198.0 28.333330
16.23 16.235750 32727.0 196.60 7.960 0.0970 0.1020 61.425250 67.676280 80.320830 72.792430 2.0 104.0 1.0 19.0 200.0 32.50 300.0 198.0 32.50
16.22 16.229070 32844.0 196.650 7.960 0.0970 0.1020 61.424310 67.675170 80.320640 72.791990 2.0 104.0 1.0 19.0 200.0 36.666670 300.0 198.0 36.666670
16.21 16.22240 32961.0 196.70 7.960 0.0970 0.1020 61.423370 67.674050 80.320450 72.791540 2.0 104.0 1.0 19.0 200.0 35.833330 300.0 198.0 35.833330
16.20 16.209050 32962.0 196.80 7.960 0.0970 0.1020 61.422430 67.672930 80.320260 72.79110 2.0 104.0 1.0 19.0 200.0 35.0 300.0 198.0 35.0
16.19 16.194910 32797.0 196.90 7.971250 0.0970 0.1020 61.421490 67.671810 80.320070 72.790660 2.0 104.0 1.0 19.0 200.0 34.166670 300.0 198.0 34.166670
16.18 16.188230 32845.50 196.950 7.98250 0.0970 0.1020 61.431580 67.683680 80.328390 72.781390 2.0 104.0 1.0 19.0 200.0 33.333330 300.0 198.0 33.333330
16.17 16.181560 32894.0 197.0 7.993750 0.0970 0.1020 61.441660 67.695540 80.336720 72.772110 2.0 104.0 1.0 19.0 200.0 33.333330 300.0 198.0 33.333330
16.16 16.168210 32871.0 197.10 8.0050 0.0970 0.1020 61.451750 67.707410 80.345050 72.762840 2.0 104.0 1.0 19.0 200.0 33.333330 300.0 198.0 33.333330
16.15 16.155640 32466.0 197.20 8.016250 0.0970 0.1020 61.461840 67.719270 80.353380 72.753560 2.0 104.0 1.0 19.0 200.0 33.333330 300.0 198.0 33.333330
16.14 16.148960 32724.0 197.250 8.02750 0.0970 0.1020 61.453290 67.708210 80.345430 72.762770 2.0 104.0 1.0 19.0 200.0 33.333330 300.0 198.0 33.333330
16.13 16.142290 32982.0 197.30 8.038750 0.0970 0.1020 61.444730 67.697160 80.337490 72.771980 2.0 104.0 1.0 19.0 200.0 32.50 300.0 198.0 32.50
16.12 16.128150 33135.0 197.40 8.050 0.0970 0.1020 61.436180 67.68610 80.329540 72.78120 2.0 104.0 1.0 19.0 200.0 31.666670 300.0 198.0 31.666670
16.11 16.115580 32867.0 197.50 8.038750 0.0970 0.1020 61.427630 67.675050 80.32160 72.790410 2.0 104.0 1.0 19.0 200.0 30.833330 300.0 198.0 30.833330
16.10 16.108910 32844.50 197.550 8.02750 0.0970 0.1020 61.43640 67.68530 80.329540 72.780690 2.0 104.0 1.0 19.0 200.0 30.0 300.0 198.0 30.0
16.09 16.102230 32822.0 197.60 8.016250 0.0970 0.1020 61.445170 67.695540 80.337490 72.770980 2.0 104.0 1.0 19.0 200.0 30.833330 300.0 198.0 30.833330
16.08 16.088880 33083.0 197.70 8.0050 0.0970 0.1020 61.453940 67.705790 80.345430 72.761260 2.0 104.0 1.0 19.0 200.0 31.666670 300.0 198.0 31.666670
16.07 16.075530 33336.0 197.80 7.993750 0.0970 0.1020 61.462720 67.716030 80.353380 72.751540 2.0 104.0 1.0 19.0 200.0 32.50 300.0 198.0 32.50
16.06 16.068850 33307.50 197.850 7.98250 0.0970 0.1030 61.453470 67.705210 80.345180 72.761010 2.0 104.0 1.0 19.0 200.0 33.333330 300.0 198.0 33.333330
16.05 16.062180 33279.0 197.90 7.971250 0.0970 0.1040 61.444230 67.694390 80.336980 72.770470 2.0 104.0 1.0 19.0 200.0 35.0 300.0 198.0 35.0
16.04 16.048830 33145.0 198.0 7.960 0.0970 0.10 61.434990 67.683560 80.328780 72.779930 2.0 104.0 1.0 19.0 200.0 36.666670 300.0 198.0 36.666670
16.03 16.035470 32951.0 198.10 7.966250 0.0970 0.1020 61.425750 67.672740 80.320580 72.78940 2.0 104.0 1.0 19.0 200.0 38.333330 300.0 198.0 38.333330
16.02 16.02880 33020.0 198.150 7.97250 0.0970 0.1020 61.4250 67.672820 80.319940 72.78990 2.0 104.0 1.0 19.0 200.0 40.0 300.0 198.0 40.0
16.01 16.022120 33089.0 198.20 7.978750 0.0970 0.1020 61.424250 67.672890 80.31930 72.790410 2.0 104.0 1.0 19.0 200.0 35.0 300.0 198.0 35.0
16.00 16.008770 33121.0 198.30 7.9850 0.0970 0.1040 61.423490 67.672970 80.318660 72.790910 2.0 104.0 1.0 19.0 200.0 30.0 300.0 198.0 30.0
15.99 15.995420 32872.0 198.40 7.991250 0.0970 0.1020 61.422740 67.673050 80.318020 72.791420 2.0 104.0 1.0 19.0 200.0 25.0 300.0 198.0 25.0
15.98 15.989140 32880.0 198.450 7.99750 0.0970 0.1020 61.422620 67.672970 80.318220 72.790880 2.0 104.0 1.0 19.0 200.0 20.0 300.0 198.0 20.0
15.97 15.982850 32888.0 198.50 8.003750 0.0970 0.1020 61.422490 67.672890 80.318410 72.790350 2.0 104.0 1.0 19.0 200.0 20.0 300.0 198.0 20.0
15.96 15.968720 32945.0 198.60 8.010 0.0970 0.1020 61.422370 67.672820 80.31860 72.789810 2.0 104.0 1.0 19.0 200.0 20.0 300.0 198.0 20.0
15.95 15.956150 33075.0 198.70 8.003750 0.0970 0.1040 61.422240 67.672740 80.318790 72.789270 2.0 104.0 1.0 19.0 200.0 20.0 300.0 198.0 20.0
