~VERSION INFORMATION SECTION
VERS. 2.0 : CWLS LAS-VERSION 2.0
WRAP. NO : One line per depth step
~WELL INFORMATION SECTION
# MNEM.UNIT VALUE/NAME DESCRIPTION
#-------- -------------- ---------------------
STRT.Metres 28 : Start
STOP.Metres 0.42 : Stop
STEP.Metres -0.01 : Step
NULL.  -999.25 :NULL VALUE
DATE. 2026-57-05 : DATE
~CURVE INFORMATION SECTION
DEPTH.Metres : 0 Depth
Depth. : 1 Depth
Tension. : 2 Tension
Time. : 3 Time
Speed. : 4 Speed
Voltage. : 5 Voltage
Current. : 6 Current
X1.mm : 7 X1
X2.mm : 8 X2
Y1.mm : 9 Y1
Y2.mm : 10 Y2
MotorCurrent.mA : 11 Motor Current
HeadVoltage.V : 12 Head Voltage
WET. : 13 WET
Sig. : 14 Sig
Vth. : 15 Vth
GR.CPS : 16 GR
Timebase.ms : 17 Timebase
HeadVoltage.V : 18 Head Voltage
API.API : 19 API
~PARAMETER INFORMATION SECTION
~OTHER
#-------------------------------------------------
#Produced By: GeoVista Logger - Version 7.1.107.0
Natural Gamma Sonde - 9515
WLIS - 9387
Caliper Sonde (4 Arm) - 6341
#-------------------------------------------------
~ASCII LOG DATA
# ...
24.75 24.759280 33155.0 132.650 7.966250 0.0970 0.1020 38.690380 36.628710 48.362850 58.17110 2.0 104.0 1.0 0.250 200.0 22.50 300.0 198.0 22.50
24.74 24.752610 33287.0 132.70 7.97250 0.0970 0.1020 38.681850 36.62230 48.354510 58.180580 2.0 104.0 1.0 0.50 200.0 23.333330 300.0 198.0 23.333330
24.73 24.739260 33333.0 132.80 7.978750 0.0970 0.1020 38.673320 36.615890 48.346170 58.190050 2.0 104.0 1.0 0.750 200.0 19.919350 300.0 198.0 19.919350
24.72 24.72590 33173.0 132.90 7.9850 0.0970 0.1020 38.664780 36.609480 48.337840 58.199520 2.0 104.0 1.0 1.0 200.0 16.505380 300.0 198.0 16.505380
24.71 24.719230 33113.50 132.950 7.991250 0.0970 0.1020 38.656250 36.603070 48.32950 58.2090 2.0 104.0 1.0 0.750 200.0 13.09140 300.0 198.0 13.09140
24.70 24.712550 33054.0 133.0 7.99750 0.0970 0.1020 38.664430 36.616770 48.337480 58.199430 2.0 104.0 1.0 0.50 200.0 9.677420 300.0 198.0 9.677420
24.69 24.69920 32935.0 133.10 8.003750 0.0970 0.1020 38.672620 36.630460 48.345460 58.189860 2.0 104.0 1.0 0.250 200.0 10.59140 300.0 198.0 10.59140
24.68 24.685850 33022.0 133.20 8.010 0.0970 0.1020 38.68080 36.644160 48.353440 58.180290 2.0 104.0 1.0 0.0 200.0 11.505380 300.0 198.0 11.505380
24.67 24.679170 33031.50 133.250 8.010 0.0970 0.1020 38.688980 36.657850 48.361420 58.170720 2.0 104.0 1.0 0.250 200.0 12.419350 300.0 198.0 12.419350
24.66 24.67250 33041.0 133.30 8.010 0.0970 0.1020 38.681120 36.653710 48.353110 58.179210 2.0 104.0 1.0 0.50 200.0 13.333330 300.0 198.0 13.333330
24.65 24.659150 33165.0 133.40 8.010 0.0970 0.1020 38.673250 36.649570 48.344810 58.18770 2.0 104.0 1.0 0.750 200.0 13.333330 300.0 198.0 13.333330
24.64 24.645790 33279.0 133.50 8.010 0.0970 0.1020 38.665390 36.645430 48.33650 58.196190 2.0 104.0 1.0 1.0 200.0 13.333330 300.0 198.0 13.333330
24.63 24.639120 33314.0 133.550 8.010 0.0970 0.1020 38.657520 36.641290 48.32820 58.204670 2.0 104.0 1.0 0.750 200.0 13.333330 300.0 198.0 13.333330
24.62 24.632440 33349.0 133.60 8.010 0.0970 0.1020 38.665670 36.657540 48.336890 58.195740 2.0 104.0 1.0 0.50 200.0 13.333330 300.0 198.0 13.333330
24.61 24.619090 33274.0 133.70 8.010 0.0970 0.1020 38.673820 36.673780 48.345590 58.186810 2.0 104.0 1.0 0.250 200.0 15.833330 300.0 198.0 15.833330
24.60 24.605740 33357.0 133.80 8.010 0.0970 0.1020 38.681970 36.690020 48.354280 58.177870 2.0 104.0 1.0 0.0 200.0 18.333330 300.0 198.0 18.333330
24.59 24.599060 33254.0 133.850 8.003750 0.0970 0.1020 38.690130 36.706260 48.362980 58.168940 2.0 104.0 1.0 0.250 200.0 20.833330 300.0 198.0 20.833330
24.58 24.592390 33151.0 133.90 7.99750 0.0970 0.1020 38.690540 36.714660 48.362950 58.169320 2.0 104.0 1.0 0.50 200.0 23.333330 300.0 198.0 23.333330
24.57 24.579040 32933.0 134.0 7.991250 0.0970 0.1020 38.690950 36.723060 48.362910 58.16970 2.0 104.0 1.0 0.750 200.0 20.833330 300.0 198.0 20.833330
24.56 24.566470 33116.0 134.10 7.9850 0.0970 0.1020 38.691360 36.731460 48.362880 58.170090 2.0 104.0 1.0 1.0 200.0 18.333330 300.0 198.0 18.333330
24.55 24.55940 33307.0 134.150 7.978750 0.0970 0.1020 38.691780 36.739860 48.362850 58.170470 2.0 104.0 1.0 0.750 200.0 15.833330 300.0 198.0 15.833330
24.54 24.552330 33498.0 134.20 7.97250 0.0970 0.1020 38.68270 36.73640 48.355130 58.179240 2.0 104.0 1.0 0.50 200.0 13.333330 300.0 198.0 13.333330
24.53 24.539770 33200.0 134.30 7.966250 0.0970 0.1020 38.673630 36.732930 48.347410 58.188020 2.0 104.0 1.0 0.250 200.0 17.50 300.0 198.0 17.50
24.52 24.526410 33238.0 134.40 7.960 0.0970 0.1020 38.664560 36.729470 48.339690 58.196790 2.0 104.0 1.0 0.0 200.0 21.666670 300.0 198.0 21.666670
24.51 24.519740 33232.50 134.450 7.960 0.0970 0.1020 38.655490 36.726010 48.331980 58.205560 2.0 104.0 1.0 0.0 200.0 25.833330 300.0 198.0 25.833330
24.50 24.513060 33227.0 134.50 7.960 0.0970 0.1020 38.654660 36.732540 48.331290 58.205940 2.0 104.0 1.0 0.0 200.0 30.0 300.0 198.0 30.0
24.49 24.499710 33267.0 134.60 7.960 0.0970 0.1020 38.653840 36.739060 48.330610 58.206330 2.0 104.0 1.0 0.0 200.0 27.50 300.0 198.0 27.50
24.48 24.486360 33517.0 134.70 7.960 0.0970 0.1040 38.653010 36.745590 48.329920 58.206710 2.0 104.0 1.0 0.0 200.0 25.0 300.0 198.0 25.0
24.47 24.479680 33434.50 134.750 7.960 0.0970 0.1030 38.652190 36.752120 48.329240 58.207090 2.0 104.0 1.0 0.0 200.0 22.50 300.0 198.0 22.50
24.46 24.473010 33352.0 134.80 7.960 0.0970 0.1020 38.652730 36.754110 48.329440 58.206830 2.0 104.0 1.0 0.0 200.0 20.0 300.0 198.0 20.0
24.45 24.459660 33430.0 134.90 7.960 0.0970 0.1020 38.653270 36.75610 48.329630 58.206580 2.0 104.0 1.0 0.0 200.0 20.833330 300.0 198.0 20.833330
24.44 24.44630 33441.0 135.0 7.960 0.0970 0.1020 38.653810 36.758090 48.329830 58.206330 2.0 104.0 1.0 0.0 200.0 21.666670 300.0 198.0 21.666670
24.43 24.439630 33409.50 135.050 7.953750 0.0970 0.1020 38.654350 36.760080 48.330020 58.206070 2.0 104.0 1.0 0.0 200.0 22.50 300.0 198.0 22.50
24.42 24.432950 33378.0 135.10 7.94750 0.0970 0.1020 38.654160 36.760760 48.329630 58.205720 2.0 104.0 1.0 0.0 200.0 23.333330 300.0 198.0 23.333330
24.41 24.41960 33169.0 135.20 7.941250 0.0970 0.1020 38.653970 36.761440 48.329240 58.205370 2.0 104.0 1.0 0.0 200.0 20.0 300.0 198.0 20.0
24.40 24.406250 33256.0 135.30 7.9350 0.0970 0.1020 38.653780 36.762110 48.328850 58.205020 2.0 104.0 1.0 0.0 200.0 16.666670 300.0 198.0 16.666670
24.39 24.399180 33322.50 135.350 7.928750 0.0970 0.1020 38.653590 36.762790 48.328460 58.204670 2.0 104.0 1.0 0.0 200.0 13.333330 300.0 198.0 13.333330
24.38 24.392110 33389.0 135.40 7.92250 0.0970 0.1020 38.653270 36.766250 48.32810 58.20480 2.0 104.0 1.0 0.0 200.0 10.0 300.0 198.0 10.0
24.37 24.378760 33357.0 135.50 7.916250 0.0970 0.1020 38.652950 36.769710 48.327740 58.204930 2.0 104.0 1.0 0.0 200.0 13.333330 300.0 198.0 13.333330
24.36 24.365410 32785.0 135.60 7.910 0.0970 0.1020 38.652630 36.773180 48.327380 58.205050 2.0 104.0 1.0 0.0 200.0 16.666670 300.0 198.0 16.666670
24.35 24.359120 33007.0 135.650 7.92750 0.0970 0.1020 38.652320 36.776640 48.327030 58.205180 2.0 104.0 1.0 0.0 200.0 20.0 300.0 198.0 20.0
24.34 24.352840 33229.0 135.70 7.9450 0.0970 0.1020 38.661670 36.788780 48.335880 58.195770 2.0 104.0 1.0 0.0 200.0 23.333330 300.0 198.0 23.333330
24.33 24.339490 33278.0 135.80 7.96250 0.0970 0.1020 38.671030 36.800920 48.344740 58.186360 2.0 104.0 1.0 0.0 200.0 26.666670 300.0 198.0 26.666670
24.32 24.326140 33458.0 135.90 7.980 0.0970 0.1020 38.680390 36.813060 48.35360 58.176950 2.0 104.0 1.0 0.0 200.0 30.0 300.0 198.0 30.0
24.31 24.319460 33526.0 135.950 7.99750 0.0970 0.1020 38.689750 36.82520 48.362460 58.167540 2.0 104.0 1.0 0.0 200.0 33.333330 300.0 198.0 33.333330
24.30 24.312790 33594.0 136.0 8.0150 0.0970 0.1020 38.690250 36.826680 48.362750 58.167670 2.0 104.0 1.0 0.0 200.0 36.666670 300.0 198.0 36.666670
24.29 24.299430 33658.0 136.10 8.03250 0.0970 0.1020 38.690760 36.828150 48.363040 58.16780 2.0 104.0 1.0 0.0 200.0 30.833330 300.0 198.0 30.833330
24.28 24.286080 33348.0 136.20 8.050 0.0970 0.1020 38.691270 36.829620 48.363340 58.167920 2.0 104.0 1.0 0.0 200.0 25.0 300.0 198.0 25.0
24.27 24.279410 33231.50 136.250 8.038750 0.0970 0.1020 38.691780 36.831090 48.363630 58.168050 2.0 104.0 1.0 0.0 200.0 19.166670 300.0 198.0 19.166670
24.26 24.272730 33115.0 136.30 8.02750 0.0970 0.1020 38.691680 36.832840 48.36330 58.167730 2.0 104.0 1.0 0.0 200.0 13.333330 300.0 198.0 13.333330
24.25 24.259380 33351.0 136.40 8.016250 0.0970 0.1020 38.691590 36.83460 48.362980 58.167410 2.0 104.0 1.0 0.0 200.0 17.50 300.0 198.0 17.50
24.24 24.246030 33366.0 136.50 8.0050 0.0970 0.1020 38.691490 36.836350 48.362650 58.16710 2.0 104.0 1.0 0.0 200.0 21.666670 300.0 198.0 21.666670
24.23 24.239350 33266.50 136.550 7.993750 0.0970 0.1020 38.69140 36.83810 48.362330 58.166780 2.0 104.0 1.0 0.0 200.0 25.833330 300.0 198.0 25.833330
24.22 24.232670 33167.0 136.60 7.98250 0.0970 0.1020 38.682860 36.828030 48.354480 58.176440 2.0 104.0 1.0 0.0 200.0 30.0 300.0 198.0 30.0
24.21 24.219320 33470.0 136.70 7.971250 0.0970 0.1020 38.674330 36.817960 48.346630 58.186110 2.0 104.0 1.0 0.0 200.0 30.833330 300.0 198.0 30.833330
