~VERSION INFORMATION SECTION
VERS. 2.0 : CWLS LAS-VERSION 2.0
WRAP. NO : One line per depth step
~WELL INFORMATION SECTION
# MNEM.UNIT VALUE/NAME DESCRIPTION
#-------- -------------- ---------------------
STRT.Metres 28 : Start
STOP.Metres 0.42 : Stop
STEP.Metres -0.01 : Step
NULL.  -999.25 :NULL VALUE
DATE. 2026-57-05 : DATE
~CURVE INFORMATION SECTION
DEPTH.Metres : 0 Depth
Depth. : 1 Depth
Tension. : 2 Tension
Time. : 3 Time
Speed. : 4 Speed
Voltage. : 5 Voltage
Current. : 6 Current
X1.mm : 7 X1
X2.mm : 8 X2
Y1.mm : 9 Y1
Y2.mm : 10 Y2
MotorCurrent.mA : 11 Motor Current
HeadVoltage.V : 12 Head Voltage
WET. : 13 WET
Sig. : 14 Sig
Vth. : 15 Vth
GR.CPS : 16 GR
Timebase.ms : 17 Timebase
HeadVoltage.V : 18 Head Voltage
API.API : 19 API
~PARAMETER INFORMATION SECTION
~OTHER
#-------------------------------------------------
#Produced By: GeoVista Logger - Version 7.1.107.0
Natural Gamma Sonde - 9515
WLIS - 9387
Caliper Sonde (4 Arm) - 6341
#-------------------------------------------------
~ASCII LOG DATA
# ...
4.27 4.274140 32676.0 286.50 8.030 0.0970 0.1020 61.37910 67.656790 79.555810 72.792710 2.0 104.0 1.0 10.0 200.0 35.0 300.0 198.0 35.0
4.26 4.267460 32666.50 286.550 8.0250 0.0970 0.1020 61.379260 67.65610 79.555490 72.792680 2.0 104.0 1.0 10.0 200.0 32.50 300.0 198.0 32.50
4.25 4.260790 32657.0 286.60 8.020 0.0970 0.1020 61.388120 67.666920 79.564080 72.783060 2.0 104.0 1.0 10.0 200.0 30.0 303.333330 198.0 30.0
4.24 4.247430 32424.0 286.70 8.0150 0.0970 0.1020 61.396990 67.677750 79.572670 72.773440 2.0 104.0 1.0 10.0 200.0 35.0 306.666670 198.0 35.0
4.23 4.234080 32804.0 286.80 8.010 0.0970 0.1020 61.405860 67.688570 79.581250 72.763810 2.0 104.0 1.0 10.0 200.0 40.0 310.0 198.0 40.0
4.22 4.227410 32779.50 286.850 8.0150 0.0970 0.1020 61.414720 67.699390 79.589840 72.754190 2.0 104.0 1.0 10.0 200.0 45.0 308.0 198.0 45.0
4.21 4.220730 32755.0 286.90 8.020 0.0970 0.1020 61.406580 67.689690 79.582080 72.764190 2.0 104.0 1.0 10.0 200.0 50.0 306.0 198.0 50.0
4.20 4.206590 32941.0 287.0 8.0250 0.0970 0.1020 61.398430 67.679980 79.574330 72.774190 2.0 104.0 1.0 10.0 200.0 50.0 304.0 198.0 50.0
4.19 4.194030 33027.0 287.10 8.030 0.0970 0.1020 61.390290 67.670270 79.566570 72.784190 2.0 104.0 1.0 10.0 200.0 50.0 302.0 198.0 50.0
4.18 4.187350 33046.50 287.150 8.0350 0.0970 0.1020 61.382140 67.660570 79.558810 72.794190 2.0 104.0 1.0 10.0 200.0 50.0 300.0 198.0 50.0
4.17 4.180670 33066.0 287.20 8.040 0.0970 0.1020 61.381040 67.659950 79.558360 72.793880 2.0 104.0 1.0 10.0 200.0 50.0 300.0 198.0 50.0
4.16 4.167320 33064.0 287.30 8.0450 0.0970 0.1020 61.379950 67.659330 79.557920 72.793560 2.0 104.0 1.0 10.0 200.0 44.758060 300.0 198.0 44.758060
4.15 4.153970 32676.0 287.40 8.050 0.0970 0.1020 61.378850 67.658720 79.557470 72.793250 2.0 104.0 1.0 10.0 200.0 39.516130 300.0 198.0 39.516130
4.14 4.147690 32675.0 287.450 8.03250 0.0970 0.1020 61.377750 67.65810 79.557020 72.792930 2.0 104.0 1.0 10.0 200.0 34.274190 300.0 198.0 34.274190
4.13 4.14140 32674.0 287.50 8.0150 0.0970 0.1020 61.387060 67.668230 79.565320 72.783470 2.0 104.0 1.0 10.0 200.0 29.032260 300.0 198.0 29.032260
4.12 4.127270 32658.0 287.60 7.99750 0.0970 0.1020 61.396360 67.678360 79.573620 72.7740 2.0 104.0 1.0 10.0 200.0 35.107530 300.0 198.0 35.107530
4.11 4.113920 32992.0 287.70 7.980 0.0970 0.1020 61.405670 67.688490 79.581920 72.764540 2.0 104.0 1.0 10.0 200.0 41.18280 300.0 198.0 41.18280
4.10 4.107240 32999.50 287.750 7.96250 0.0970 0.1020 61.414970 67.698620 79.590220 72.755080 2.0 104.0 1.0 10.0 200.0 47.258060 300.0 198.0 47.258060
4.09 4.100560 33007.0 287.80 7.9450 0.0970 0.1020 61.415220 67.699280 79.590610 72.755260 2.0 104.0 1.0 10.0 200.0 53.333330 300.0 198.0 53.333330
4.08 4.087210 33044.0 287.90 7.92750 0.0970 0.1020 61.415470 67.699930 79.590990 72.755450 2.0 104.0 1.0 10.0 200.0 50.0 300.0 198.0 50.0
4.07 4.073860 32458.0 288.0 7.910 0.0970 0.1020 61.415720 67.700590 79.591370 72.755640 2.0 104.0 1.0 10.0 200.0 46.666670 300.0 198.0 46.666670
4.06 4.067180 32542.50 288.050 7.916250 0.0970 0.1020 61.415980 67.701240 79.591760 72.755830 2.0 104.0 1.0 20.750 200.0 43.333330 300.0 198.0 43.333330
4.05 4.060510 32627.0 288.10 7.92250 0.0970 0.1020 61.407610 67.690570 79.582820 72.764950 2.0 104.0 1.0 31.50 200.0 40.0 300.0 198.0 40.0
4.04 4.047160 32514.0 288.20 7.928750 0.0970 0.1020 61.399250 67.67990 79.573880 72.774070 2.0 104.0 1.0 42.250 200.0 35.833330 300.0 198.0 35.833330
4.03 4.034590 32530.0 288.30 7.9350 0.0970 0.1020 61.390880 67.669230 79.564940 72.783180 2.0 104.0 1.0 53.0 200.0 31.666670 300.0 198.0 31.666670
4.02 4.027520 32677.0 288.350 7.941250 0.0970 0.1020 61.382520 67.658560 79.5560 72.79230 2.0 104.0 0.750 285.750 200.0 27.50 300.0 198.0 27.50
4.01 4.020450 32824.0 288.40 7.94750 0.0970 0.1020 61.381230 67.657990 79.555870 72.792740 2.0 104.0 0.50 518.50 200.0 23.333330 300.0 198.0 23.333330
4.00 4.00710 32930.0 288.50 7.953750 0.0970 0.1020 61.379950 67.657410 79.555750 72.793180 2.0 104.0 0.250 751.250 200.0 29.166670 300.0 198.0 29.166670
3.99 3.994540 32721.0 288.60 7.960 0.0970 0.1040 61.378660 67.656830 79.555620 72.793630 2.0 104.0 0.0 984.0 200.0 35.0 300.0 198.0 35.0
3.98 3.987470 32722.0 288.650 7.960 0.0970 0.1020 61.377380 67.656250 79.555490 72.794070 2.0 104.0 0.0 984.50 200.0 40.833330 300.0 198.0 40.833330
3.97 3.98040 32723.0 288.70 7.960 0.0970 0.10 61.386340 67.667150 79.563540 72.784070 2.0 104.0 0.0 985.0 200.0 46.666670 300.0 198.0 46.666670
3.96 3.967050 32887.0 288.80 7.960 0.0970 0.1020 61.39530 67.678050 79.571580 72.774070 2.0 104.0 0.0 985.50 200.0 40.833330 300.0 198.0 40.833330
3.95 3.954480 32880.0 288.90 7.960 0.0970 0.1020 61.404260 67.688960 79.579630 72.764070 2.0 104.0 0.0 986.0 200.0 35.0 300.0 198.0 35.0
3.94 3.947410 32846.50 288.950 7.960 0.0970 0.1020 61.413220 67.699860 79.587670 72.754070 2.0 104.0 0.0 985.50 200.0 29.166670 300.0 198.0 29.166670
3.93 3.940340 32813.0 289.0 7.960 0.0970 0.1020 61.405450 67.688990 79.579880 72.764160 2.0 104.0 0.0 985.0 200.0 23.333330 300.0 198.0 23.333330
3.92 3.926990 32524.0 289.10 7.960 0.0970 0.1020 61.397680 67.678130 79.572090 72.774260 2.0 104.0 0.0 984.50 200.0 24.166670 300.0 198.0 24.166670
3.91 3.914420 32796.0 289.20 7.960 0.0970 0.1020 61.389910 67.667270 79.56430 72.784350 2.0 104.0 0.0 984.0 200.0 25.0 300.0 198.0 25.0
3.90 3.907750 32829.50 289.250 7.960 0.0970 0.1020 61.382140 67.656410 79.556510 72.794450 2.0 104.0 0.0 984.50 200.0 25.833330 300.0 198.0 25.833330
3.89 3.901070 32863.0 289.30 7.960 0.0970 0.1020 61.380920 67.656410 79.556030 72.793940 2.0 104.0 0.0 985.0 200.0 26.666670 300.0 198.0 26.666670
3.88 3.886940 32444.0 289.40 7.960 0.0970 0.1020 61.37970 67.656410 79.555560 72.793440 2.0 104.0 0.0 985.50 200.0 25.833330 300.0 198.0 25.833330
3.87 3.874370 32375.0 289.50 7.960 0.0970 0.1020 61.378470 67.656410 79.555080 72.792930 2.0 104.0 0.0 986.0 200.0 25.0 300.0 198.0 25.0
3.86 3.86730 32631.0 289.550 7.960 0.0970 0.1020 61.377250 67.656410 79.55460 72.792430 2.0 104.0 0.0 985.750 200.0 24.166670 300.0 198.0 24.166670
3.85 3.860230 32887.0 289.60 7.960 0.0970 0.1020 61.386680 67.667040 79.563090 72.783150 2.0 104.0 0.0 985.50 200.0 23.333330 300.0 198.0 23.333330
3.84 3.846880 32511.0 289.70 7.960 0.0970 0.1020 61.396110 67.677670 79.571580 72.773880 2.0 104.0 0.0 985.250 200.0 32.50 300.0 198.0 32.50
3.83 3.834310 32371.0 289.80 7.960 0.0970 0.1020 61.405540 67.68830 79.580070 72.76460 2.0 104.0 0.0 985.0 200.0 41.666670 300.0 198.0 41.666670
3.82 3.827640 32519.50 289.850 7.966250 0.0970 0.1020 61.414970 67.698930 79.588560 72.755330 2.0 104.0 0.0 985.250 200.0 50.833330 300.0 198.0 50.833330
3.81 3.820960 32668.0 289.90 7.97250 0.0970 0.1020 61.406170 67.689420 79.580520 72.764350 2.0 104.0 0.0 985.50 200.0 60.0 300.0 198.0 60.0
3.80 3.806820 32640.0 290.0 7.978750 0.0970 0.1020 61.397370 67.67990 79.572470 72.773370 2.0 104.0 0.0 985.750 200.0 54.166670 300.0 198.0 54.166670
3.79 3.794260 33006.0 290.10 7.9850 0.0970 0.1020 61.388560 67.670390 79.564430 72.78240 2.0 104.0 0.0 986.0 200.0 48.333330 300.0 198.0 48.333330
3.78 3.787580 32924.0 290.150 7.991250 0.0970 0.1020 61.379760 67.660880 79.556390 72.791420 2.0 104.0 0.0 986.250 200.0 42.50 300.0 198.0 42.50
3.77 3.780910 32842.0 290.20 7.99750 0.0970 0.1020 61.388530 67.670620 79.564210 72.781920 2.0 104.0 0.0 986.50 200.0 36.666670 300.0 198.0 36.666670
3.76 3.767550 32579.0 290.30 8.003750 0.0970 0.1020 61.39730 67.680370 79.572030 72.772430 2.0 104.0 0.0 986.750 200.0 35.833330 300.0 198.0 35.833330
3.75 3.75420 32579.0 290.40 8.010 0.0970 0.1020 61.406080 67.690110 79.579850 72.762930 2.0 104.0 0.0 987.0 200.0 35.0 300.0 198.0 35.0
3.74 3.747530 32592.0 290.450 8.003750 0.0970 0.1020 61.414850 67.699860 79.587670 72.753430 2.0 104.0 0.0 986.750 200.0 34.166670 300.0 198.0 34.166670
3.73 3.740850 32605.0 290.50 7.99750 0.0970 0.1020 61.415220 67.699860 79.588630 72.75350 2.0 104.0 0.0 986.50 200.0 33.333330 300.0 198.0 33.333330
3.72 3.72750 33038.0 290.60 7.991250 0.0970 0.10 61.41560 67.699860 79.589590 72.753560 2.0 104.0 0.0 986.250 200.0 38.333330 300.0 198.0 38.333330
