~VERSION INFORMATION SECTION
VERS. 2.0 : CWLS LAS-VERSION 2.0
WRAP. NO : One line per depth step
~WELL INFORMATION SECTION
# MNEM.UNIT VALUE/NAME DESCRIPTION
#-------- -------------- ---------------------
STRT.Metres 28 : Start
STOP.Metres 0.42 : Stop
STEP.Metres -0.01 : Step
NULL.  -999.25 :NULL VALUE
DATE. 2026-57-05 : DATE
~CURVE INFORMATION SECTION
DEPTH.Metres : 0 Depth
Depth. : 1 Depth
Tension. : 2 Tension
Time. : 3 Time
Speed. : 4 Speed
Voltage. : 5 Voltage
Current. : 6 Current
X1.mm : 7 X1
X2.mm : 8 X2
Y1.mm : 9 Y1
Y2.mm : 10 Y2
MotorCurrent.mA : 11 Motor Current
HeadVoltage.V : 12 Head Voltage
WET. : 13 WET
Sig. : 14 Sig
Vth. : 15 Vth
GR.CPS : 16 GR
Timebase.ms : 17 Timebase
HeadVoltage.V : 18 Head Voltage
API.API : 19 API
~PARAMETER INFORMATION SECTION
~OTHER
#-------------------------------------------------
#Produced By: GeoVista Logger - Version 7.1.107.0
Natural Gamma Sonde - 9515
WLIS - 9387
Caliper Sonde (4 Arm) - 6341
#-------------------------------------------------
~ASCII LOG DATA
# ...
2.61 2.620870 33014.0 298.90 7.960 0.0970 0.1020 61.404920 67.686720 79.578640 72.761480 2.0 104.0 0.0 986.0 200.0 35.483870 300.0 198.0 35.483870
2.60 2.606740 32842.0 299.0 7.960 0.0970 0.1020 61.396490 67.676360 79.570880 72.770280 2.0 104.0 0.0 986.0 200.0 37.446240 300.0 198.0 37.446240
2.59 2.593380 33169.0 299.10 7.960 0.0970 0.1020 61.388060 67.6660 79.563120 72.779080 2.0 104.0 0.0 986.0 200.0 39.40860 300.0 198.0 39.40860
2.58 2.586710 32977.0 299.150 7.960 0.0970 0.1020 61.379630 67.655640 79.555360 72.787880 2.0 104.0 0.0 986.0 200.0 41.370970 300.0 198.0 41.370970
2.57 2.580030 32785.0 299.20 7.960 0.0970 0.1020 61.378440 67.654750 79.555080 72.789270 2.0 104.0 0.0 986.0 200.0 43.333330 300.0 198.0 43.333330
2.56 2.566680 32621.0 299.30 7.960 0.0970 0.1020 61.377250 67.653860 79.554790 72.790660 2.0 104.0 0.0 986.0 200.0 40.0 300.0 198.0 40.0
2.55 2.560010 32777.50 299.350 7.960 0.0970 0.1020 61.376060 67.652980 79.55450 72.792050 2.0 104.0 0.0 986.0 200.0 36.666670 300.0 198.0 36.666670
2.54 2.553330 32934.0 299.40 7.960 0.0970 0.1020 61.374870 67.652090 79.554210 72.793440 2.0 104.0 0.0 986.0 200.0 33.333330 300.0 198.0 33.333330
2.53 2.539980 32742.0 299.50 7.966250 0.0970 0.1020 61.384620 67.663730 79.562670 72.783250 2.0 104.0 0.0 986.0 200.0 30.0 300.0 198.0 30.0
2.52 2.526630 32780.0 299.60 7.97250 0.0970 0.10 61.394360 67.675360 79.571130 72.773060 2.0 104.0 0.0 986.0 200.0 30.833330 300.0 198.0 30.833330
2.51 2.519950 32685.0 299.650 7.978750 0.0970 0.1010 61.40410 67.686990 79.579590 72.762870 2.0 104.0 0.0 986.0 200.0 31.666670 300.0 198.0 31.666670
2.50 2.513270 32590.0 299.70 7.9850 0.0970 0.1020 61.413840 67.698620 79.588050 72.752680 2.0 104.0 0.0 986.0 200.0 32.50 300.0 198.0 32.50
2.49 2.499920 32992.0 299.80 7.991250 0.0970 0.1020 61.405450 67.688070 79.579820 72.762490 2.0 104.0 0.0 986.0 200.0 33.333330 300.0 198.0 33.333330
2.48 2.486570 33031.0 299.90 7.99750 0.0970 0.1020 61.397050 67.677520 79.571580 72.77230 2.0 104.0 0.0 986.0 200.0 29.166670 300.0 198.0 29.166670
2.47 2.479890 33103.50 299.950 8.003750 0.0970 0.1020 61.388660 67.666960 79.563340 72.782110 2.0 104.0 0.0 986.0 200.0 25.0 300.0 198.0 25.0
2.46 2.473220 33176.0 300.0 8.010 0.0970 0.1020 61.380260 67.656410 79.555110 72.791920 2.0 104.0 0.0 986.0 200.0 20.833330 300.0 198.0 20.833330
2.45 2.459870 33006.0 300.10 8.002860 0.0970 0.1020 61.378820 67.655680 79.554440 72.791730 2.0 104.0 0.0 986.0 200.0 16.666670 300.0 198.0 16.666670
2.44 2.446520 32827.0 300.20 7.995710 0.0970 0.1020 61.377380 67.654940 79.553770 72.791540 2.0 104.0 0.0 986.0 200.0 17.50 300.0 198.0 17.50
2.43 2.433950 32754.0 300.30 7.988570 0.0970 0.1020 61.375940 67.654210 79.55310 72.791360 2.0 104.0 0.0 986.0 200.0 18.333330 300.0 198.0 18.333330
2.42 2.427270 32700.50 300.350 7.981430 0.0970 0.1020 61.37450 67.653480 79.552430 72.791170 2.0 104.0 0.0 985.750 200.0 19.166670 300.0 198.0 19.166670
2.41 2.42060 32647.0 300.40 7.974290 0.0970 0.1020 61.383610 67.664110 79.560950 72.781450 2.0 104.0 0.0 985.50 200.0 20.0 300.0 198.0 20.0
2.40 2.407250 32581.0 300.50 7.967140 0.0970 0.1020 61.392730 67.674740 79.569470 72.771730 2.0 104.0 0.0 985.250 200.0 19.166670 300.0 198.0 19.166670
2.39 2.393890 32772.0 300.60 7.960 0.0970 0.1020 61.401850 67.685370 79.5780 72.762020 2.0 104.0 0.0 985.0 200.0 18.333330 300.0 198.0 18.333330
2.38 2.387220 32721.0 300.650 7.960 0.0970 0.1020 61.410960 67.6960 79.586520 72.75230 2.0 104.0 0.0 985.250 200.0 17.50 300.0 198.0 17.50
2.37 2.380540 32670.0 300.70 7.960 0.0970 0.1020 61.402750 67.686030 79.578730 72.76220 2.0 104.0 0.0 985.50 200.0 16.666670 300.0 198.0 16.666670
2.36 2.367190 32831.0 300.80 7.960 0.0970 0.1020 61.394550 67.676050 79.570940 72.772110 2.0 104.0 0.0 985.750 200.0 18.333330 300.0 198.0 18.333330
2.35 2.353840 32805.0 300.90 7.960 0.0970 0.1020 61.386340 67.666080 79.563150 72.782020 2.0 104.0 0.0 986.0 200.0 20.0 300.0 198.0 20.0
2.34 2.347160 32817.50 300.950 7.960 0.0970 0.1020 61.378130 67.65610 79.555360 72.791920 2.0 104.0 0.0 985.750 200.0 21.666670 300.0 198.0 21.666670
2.33 2.340490 32830.0 301.0 7.960 0.0970 0.1020 61.386560 67.665960 79.563120 72.781730 2.0 104.0 0.0 985.50 200.0 23.333330 300.0 198.0 23.333330
2.32 2.327130 32846.0 301.10 7.960 0.0970 0.1020 61.394990 67.675820 79.570880 72.771540 2.0 104.0 0.0 985.250 200.0 20.0 300.0 198.0 20.0
2.31 2.314570 33041.0 301.20 7.960 0.0970 0.1020 61.403410 67.685680 79.578640 72.761350 2.0 104.0 0.0 985.0 200.0 16.666670 300.0 198.0 16.666670
2.30 2.30750 33008.0 301.250 7.960 0.0970 0.1020 61.411840 67.695540 79.586390 72.751160 2.0 104.0 0.0 985.250 200.0 13.333330 300.0 198.0 13.333330
2.29 2.300430 32975.0 301.30 7.960 0.0970 0.1020 61.403190 67.685760 79.579080 72.760970 2.0 104.0 0.0 985.50 200.0 10.0 300.0 198.0 10.0
2.28 2.287080 32566.0 301.40 7.960 0.0970 0.1020 61.394550 67.675970 79.571770 72.770790 2.0 104.0 0.0 985.750 200.0 11.666670 300.0 198.0 11.666670
2.27 2.273730 32793.0 301.50 7.960 0.0970 0.1040 61.38590 67.666190 79.564460 72.78060 2.0 104.0 0.0 986.0 200.0 13.333330 300.0 198.0 13.333330
2.26 2.267440 32773.50 301.550 7.960 0.0970 0.1030 61.377250 67.656410 79.557150 72.790410 2.0 104.0 0.0 985.50 200.0 15.0 300.0 198.0 15.0
2.25 2.261160 32754.0 301.60 7.960 0.0970 0.1020 61.38640 67.667040 79.564490 72.780660 2.0 104.0 0.0 985.0 200.0 16.666670 300.0 198.0 16.666670
2.24 2.247020 32906.0 301.70 7.960 0.0970 0.1020 61.395550 67.677670 79.571840 72.770910 2.0 104.0 0.0 984.50 200.0 18.333330 300.0 198.0 18.333330
2.23 2.233670 32914.0 301.80 7.960 0.0970 0.1020 61.40470 67.68830 79.579180 72.761160 2.0 104.0 0.0 984.0 200.0 20.0 300.0 198.0 20.0
2.22 2.2270 32818.0 301.850 7.970 0.0970 0.1020 61.413840 67.698930 79.586520 72.751420 2.0 104.0 0.0 984.250 200.0 21.666670 300.0 198.0 21.666670
2.21 2.220320 32722.0 301.90 7.980 0.0970 0.1020 61.40470 67.688490 79.579080 72.761480 2.0 104.0 0.0 984.50 200.0 23.333330 300.0 198.0 23.333330
2.20 2.206970 32975.0 302.0 7.990 0.0970 0.1020 61.395550 67.678050 79.571640 72.771540 2.0 104.0 0.0 984.750 200.0 21.666670 300.0 198.0 21.666670
2.19 2.192830 32772.0 302.10 8.0 0.0970 0.1020 61.38640 67.667620 79.564210 72.781610 2.0 104.0 0.0 985.0 200.0 20.0 300.0 198.0 20.0
2.18 2.186550 32853.50 302.150 8.010 0.0970 0.1020 61.377250 67.657180 79.556770 72.791670 2.0 104.0 0.0 984.750 200.0 18.333330 300.0 198.0 18.333330
2.17 2.180270 32935.0 302.20 8.020 0.0970 0.1020 61.375870 67.655940 79.555710 72.791670 2.0 104.0 0.0 984.50 200.0 16.666670 300.0 198.0 16.666670
2.16 2.166910 32695.0 302.30 8.030 0.0970 0.10 61.37450 67.654710 79.554660 72.791670 2.0 104.0 0.0 984.250 200.0 15.833330 300.0 198.0 15.833330
2.15 2.159840 32656.0 302.350 8.040 0.0970 0.1010 61.373120 67.653480 79.553610 72.791670 2.0 104.0 0.0 984.0 200.0 15.0 300.0 198.0 15.0
2.14 2.152780 32617.0 302.40 8.050 0.0970 0.1020 61.371740 67.652250 79.552550 72.791670 2.0 104.0 0.0 984.50 200.0 14.166670 300.0 198.0 14.166670
2.13 2.139420 32787.0 302.50 8.030 0.0970 0.1020 61.381330 67.662490 79.560920 72.781610 2.0 104.250 0.0 985.0 200.0 13.333330 300.0 198.0 13.333330
2.12 2.126860 32880.0 302.60 8.010 0.0970 0.1020 61.390910 67.672740 79.569280 72.771540 2.0 104.50 0.0 985.50 200.0 14.166670 300.0 198.0 14.166670
2.11 -999.25 -999.25 -999.25 -999.25 -999.25 -999.25 61.40050 67.682980 79.577650 72.761480 2.0 104.750 0.0 986.0 200.0 15.0 300.0 198.0 15.0
2.10 -999.25 -999.25 -999.25 -999.25 -999.25 -999.25 61.410090 67.693230 79.586010 72.751420 2.0 105.0 0.0 985.50 200.0 15.833330 300.0 198.0 15.833330
2.09 -999.25 -999.25 -999.25 -999.25 -999.25 -999.25 61.402030 67.683760 79.578120 72.760940 2.0 105.0 0.0 985.0 200.0 16.666670 300.0 198.0 16.666670
2.08 -999.25 -999.25 -999.25 -999.25 -999.25 -999.25 61.393980 67.674280 79.570240 72.770470 2.0 105.0 0.0 984.50 200.0 15.0 300.0 198.0 15.0
2.07 -999.25 -999.25 -999.25 -999.25 -999.25 -999.25 61.385930 67.66480 79.562350 72.780 2.0 105.0 0.0 984.0 200.0 13.333330 300.0 198.0 13.333330
