~VERSION INFORMATION SECTION
VERS. 2.0 : CWLS LAS-VERSION 2.0
WRAP. NO : One line per depth step
~WELL INFORMATION SECTION
# MNEM.UNIT VALUE/NAME DESCRIPTION
#-------- -------------- ---------------------
STRT.Metres 28 : Start
STOP.Metres 0.42 : Stop
STEP.Metres -0.01 : Step
NULL.  -999.25 :NULL VALUE
DATE. 2026-57-05 : DATE
~CURVE INFORMATION SECTION
DEPTH.Metres : 0 Depth
Depth. : 1 Depth
Tension. : 2 Tension
Time. : 3 Time
Speed. : 4 Speed
Voltage. : 5 Voltage
Current. : 6 Current
X1.mm : 7 X1
X2.mm : 8 X2
Y1.mm : 9 Y1
Y2.mm : 10 Y2
MotorCurrent.mA : 11 Motor Current
HeadVoltage.V : 12 Head Voltage
WET. : 13 WET
Sig. : 14 Sig
Vth. : 15 Vth
GR.CPS : 16 GR
Timebase.ms : 17 Timebase
HeadVoltage.V : 18 Head Voltage
API.API : 19 API
~PARAMETER INFORMATION SECTION
~OTHER
#-------------------------------------------------
#Produced By: GeoVista Logger - Version 7.1.107.0
Natural Gamma Sonde - 9515
WLIS - 9387
Caliper Sonde (4 Arm) - 6341
#-------------------------------------------------
~ASCII LOG DATA
# ...
21.45 21.460220 33197.0 157.40 7.978750 0.0970 0.1020 61.441230 67.683910 80.714840 72.799560 2.0 104.0 1.0 3.0 200.0 30.0 300.0 198.0 30.0
21.44 21.447650 33277.0 157.50 7.9850 0.0970 0.1020 61.439820 67.683560 80.714430 72.800160 2.0 104.0 1.0 3.0 200.0 26.666670 300.0 198.0 26.666670
21.43 21.43430 33269.0 157.60 7.991250 0.0970 0.1020 61.438410 67.683220 80.714010 72.800760 2.0 104.0 1.0 3.0 200.0 23.333330 300.0 198.0 23.333330
21.42 21.427630 33225.0 157.650 7.99750 0.0970 0.1020 61.447590 67.693270 80.722560 72.790380 2.0 104.0 1.0 3.0 200.0 20.0 300.0 198.0 20.0
21.41 21.420950 33181.0 157.70 8.003750 0.0970 0.1020 61.456760 67.703320 80.731110 72.780 2.0 104.0 1.0 3.0 200.0 22.50 300.0 198.0 22.50
21.40 21.40760 33009.0 157.80 8.010 0.0970 0.1020 61.465940 67.713380 80.739660 72.769620 2.0 104.0 1.0 3.0 200.0 25.0 300.0 198.0 25.0
21.39 21.394250 32962.0 157.90 8.003750 0.0970 0.1020 61.475120 67.723430 80.748210 72.759240 2.0 104.0 1.0 3.0 200.0 27.50 300.0 198.0 27.50
21.38 21.387570 33002.50 157.950 7.99750 0.0970 0.1010 61.476590 67.724120 80.748180 72.759520 2.0 104.0 1.0 3.0 200.0 30.0 300.0 198.0 30.0
21.37 21.380890 33043.0 158.0 7.991250 0.0970 0.10 61.478070 67.724820 80.748150 72.759810 2.0 104.0 1.0 3.0 200.0 28.333330 300.0 198.0 28.333330
21.36 21.367540 32897.0 158.10 7.9850 0.0970 0.1020 61.479540 67.725510 80.748110 72.760090 2.0 104.0 1.0 3.0 200.0 26.666670 300.0 198.0 26.666670
21.35 21.354190 32837.0 158.20 7.978750 0.0970 0.1040 61.481010 67.72620 80.748080 72.760380 2.0 104.0 1.0 3.250 200.0 25.0 300.0 198.0 25.0
21.34 21.347510 33067.0 158.250 7.97250 0.0970 0.1030 61.470740 67.715610 80.739790 72.770090 2.0 104.0 1.0 3.50 200.0 23.333330 300.0 198.0 23.333330
21.33 21.340840 33297.0 158.30 7.966250 0.0970 0.1020 61.460460 67.705020 80.73150 72.779810 2.0 104.0 1.0 3.750 200.0 28.333330 300.0 198.0 28.333330
21.32 21.327490 33326.0 158.40 7.960 0.0970 0.1020 61.450190 67.694420 80.72320 72.789530 2.0 104.0 1.0 4.0 200.0 33.333330 300.0 198.0 33.333330
21.31 21.314140 33486.0 158.50 7.966250 0.0970 0.1020 61.439910 67.683830 80.714910 72.799240 2.0 104.0 1.0 4.0 200.0 38.333330 300.0 198.0 38.333330
21.30 21.307460 33243.50 158.550 7.97250 0.0970 0.1020 61.448810 67.693890 80.723330 72.788830 2.0 104.0 1.0 4.0 200.0 43.333330 300.0 198.0 43.333330
21.29 21.300780 33001.0 158.60 7.978750 0.0970 0.1020 61.45770 67.703940 80.731750 72.778420 2.0 104.0 1.0 4.0 200.0 38.333330 300.0 198.0 38.333330
21.28 21.287430 33058.0 158.70 7.9850 0.0970 0.1020 61.46660 67.713990 80.740170 72.768010 2.0 104.0 1.0 4.0 200.0 33.333330 300.0 198.0 33.333330
21.27 21.274080 33038.0 158.80 7.991250 0.0970 0.1020 61.47550 67.724040 80.748590 72.75760 2.0 104.0 1.0 3.750 200.0 28.333330 300.0 198.0 28.333330
21.26 21.26740 32996.50 158.850 7.99750 0.0970 0.1020 61.476250 67.724470 80.748820 72.758480 2.0 104.0 1.0 3.50 200.0 23.333330 300.0 198.0 23.333330
21.25 21.260730 32955.0 158.90 8.003750 0.0970 0.1020 61.4770 67.724890 80.749040 72.759370 2.0 104.0 1.0 3.250 200.0 27.50 300.0 198.0 27.50
21.24 21.247380 32825.0 159.0 8.010 0.0970 0.1020 61.477750 67.725320 80.749260 72.760250 2.0 104.0 1.0 3.0 200.0 31.666670 300.0 198.0 31.666670
21.23 21.234020 33268.0 159.10 7.99750 0.0970 0.1020 61.478510 67.725740 80.749490 72.761130 2.0 104.0 1.0 3.50 200.0 35.833330 300.0 198.0 35.833330
21.22 21.227350 33314.50 159.150 7.9850 0.0970 0.1020 61.478690 67.726390 80.749230 72.760380 2.0 104.0 1.0 4.0 200.0 40.0 300.0 198.0 40.0
21.21 21.220670 33361.0 159.20 7.97250 0.0970 0.1020 61.478880 67.727050 80.748980 72.759620 2.0 104.0 1.0 4.50 200.0 38.333330 300.0 198.0 38.333330
21.20 21.207320 33458.0 159.30 7.960 0.0970 0.1020 61.479070 67.72770 80.748720 72.758860 2.0 104.0 1.0 5.0 200.0 36.666670 300.0 198.0 36.666670
21.19 21.193970 33344.0 159.40 7.94750 0.0970 0.1020 61.479260 67.728360 80.748470 72.75810 2.0 104.0 1.0 4.50 200.0 35.0 300.0 198.0 35.0
21.18 21.187690 33382.0 159.450 7.9350 0.0970 0.1020 61.479040 67.72820 80.747920 72.758170 2.0 104.0 1.0 4.0 200.0 33.333330 300.0 198.0 33.333330
21.17 21.18140 33420.0 159.50 7.92250 0.0970 0.1020 61.478820 67.728050 80.747380 72.758230 2.0 104.0 1.0 3.50 200.0 27.50 300.0 198.0 27.50
21.16 21.168050 33374.0 159.60 7.910 0.0970 0.1020 61.47860 67.72790 80.746840 72.758290 2.0 104.0 1.0 3.0 200.0 21.666670 300.0 198.0 21.666670
21.15 21.15470 33032.0 159.70 7.916250 0.0970 0.1020 61.478380 67.727740 80.74630 72.758360 2.0 104.0 1.0 3.50 200.0 15.833330 300.0 198.0 15.833330
21.14 21.148020 32962.50 159.750 7.92250 0.0970 0.1010 61.47810 67.727740 80.747090 72.758510 2.0 104.0 1.0 4.0 200.0 10.0 300.0 198.0 10.0
21.13 21.141350 32893.0 159.80 7.928750 0.0970 0.10 61.477820 67.727740 80.747890 72.758670 2.0 104.0 1.0 4.50 200.0 14.166670 300.0 198.0 14.166670
21.12 21.1280 33019.0 159.90 7.9350 0.0970 0.1020 61.477530 67.727740 80.748690 72.758830 2.0 104.0 1.0 5.0 200.0 18.333330 300.0 198.0 18.333330
21.11 21.114640 33013.0 160.0 7.941250 0.0970 0.1020 61.477250 67.727740 80.749490 72.758990 2.0 104.0 1.0 4.750 200.0 22.50 300.0 198.0 22.50
21.10 21.107970 32987.0 160.050 7.94750 0.0970 0.1020 61.468290 67.716840 80.740780 72.768670 2.0 104.0 1.0 4.50 200.0 26.666670 300.0 198.0 26.666670
21.09 21.101290 32961.0 160.10 7.953750 0.0970 0.1020 61.459330 67.705940 80.732070 72.778360 2.0 104.0 1.0 4.250 200.0 25.833330 300.0 198.0 25.833330
21.08 21.087940 33060.0 160.20 7.960 0.0970 0.1020 61.450370 67.695040 80.723360 72.788040 2.0 104.0 1.0 4.0 200.0 25.0 300.0 198.0 25.0
21.07 21.074590 33053.0 160.30 7.966250 0.0970 0.1020 61.441410 67.684140 80.714650 72.797730 2.0 104.0 1.0 4.333330 200.0 24.166670 300.0 198.0 24.166670
21.06 21.067910 32874.50 160.350 7.97250 0.0970 0.1020 61.441040 67.683250 80.714110 72.798830 2.0 104.0 1.0 4.666670 200.0 23.333330 300.0 198.0 23.333330
21.05 21.061240 32696.0 160.40 7.978750 0.0970 0.1020 61.440660 67.682370 80.713570 72.799940 2.0 104.0 1.0 5.0 200.0 25.0 300.0 198.0 25.0
21.04 21.047890 32888.0 160.50 7.9850 0.0970 0.1020 61.440290 67.681480 80.713030 72.801040 2.0 104.0 1.0 5.0 200.0 26.666670 300.0 198.0 26.666670
21.03 21.034530 33083.0 160.60 7.991250 0.0970 0.1020 61.439910 67.68060 80.712480 72.802140 2.0 104.0 1.0 5.0 200.0 28.333330 302.50 198.0 28.333330
21.02 21.027860 33151.0 160.650 7.99750 0.0970 0.1020 61.448490 67.691920 80.720870 72.791670 2.0 104.0 1.0 5.0 200.0 30.0 305.0 198.0 30.0
21.01 21.021180 33219.0 160.70 8.003750 0.0970 0.1020 61.457080 67.703250 80.729260 72.78120 2.0 104.0 1.0 5.0 200.0 29.166670 307.50 198.0 29.166670
21.00 21.007830 33166.0 160.80 8.010 0.0970 0.10 61.465660 67.714570 80.737650 72.770720 2.0 104.0 1.0 5.0 200.0 28.333330 310.0 198.0 28.333330
20.99 20.994480 32919.0 160.90 8.0150 0.0970 0.1020 61.474240 67.725890 80.746040 72.760250 2.0 104.0 1.0 5.250 200.0 27.50 307.50 198.0 27.50
20.98 20.98780 32939.50 160.950 8.020 0.0970 0.1020 61.46610 67.715030 80.738480 72.770250 2.0 104.0 1.0 5.50 200.0 26.666670 305.0 198.0 26.666670
20.97 20.981130 32960.0 161.0 8.0250 0.0970 0.1020 61.457950 67.704170 80.730920 72.780250 2.0 104.0 1.0 5.750 200.0 26.666670 302.50 198.0 26.666670
20.96 20.967770 33142.0 161.10 8.030 0.0970 0.1020 61.449810 67.693310 80.723360 72.790250 2.0 104.0 1.0 6.0 200.0 26.666670 300.0 198.0 26.666670
20.95 20.954420 33388.0 161.20 8.0350 0.0970 0.1020 61.441660 67.682450 80.71580 72.800250 2.0 104.0 1.0 5.750 200.0 26.666670 300.0 198.0 26.666670
20.94 20.947350 33286.0 161.250 8.040 0.0970 0.1020 61.440690 67.681370 80.714680 72.799650 2.0 104.0 1.0 5.50 200.0 26.666670 300.0 198.0 26.666670
20.93 20.940290 33184.0 161.30 8.0450 0.0970 0.1020 61.439720 67.680290 80.713570 72.799050 2.0 104.0 1.0 5.250 200.0 27.258060 300.0 198.0 27.258060
20.92 20.926930 33143.0 161.40 8.050 0.0970 0.1020 61.438750 67.679210 80.712450 72.798450 2.0 104.0 1.0 5.0 200.0 27.849460 300.0 198.0 27.849460
20.91 20.913580 33116.0 161.50 8.050 0.0970 0.1020 61.437780 67.678130 80.711330 72.797850 2.0 104.0 1.0 5.250 200.0 28.440860 300.0 198.0 28.440860
