~VERSION INFORMATION SECTION
VERS. 2.0 : CWLS LAS-VERSION 2.0
WRAP. NO : One line per depth step
~WELL INFORMATION SECTION
# MNEM.UNIT VALUE/NAME DESCRIPTION
#-------- -------------- ---------------------
STRT.Metres 28 : Start
STOP.Metres 0.42 : Stop
STEP.Metres -0.01 : Step
NULL.  -999.25 :NULL VALUE
DATE. 2026-57-05 : DATE
~CURVE INFORMATION SECTION
DEPTH.Metres : 0 Depth
Depth. : 1 Depth
Tension. : 2 Tension
Time. : 3 Time
Speed. : 4 Speed
Voltage. : 5 Voltage
Current. : 6 Current
X1.mm : 7 X1
X2.mm : 8 X2
Y1.mm : 9 Y1
Y2.mm : 10 Y2
MotorCurrent.mA : 11 Motor Current
HeadVoltage.V : 12 Head Voltage
WET. : 13 WET
Sig. : 14 Sig
Vth. : 15 Vth
GR.CPS : 16 GR
Timebase.ms : 17 Timebase
HeadVoltage.V : 18 Head Voltage
API.API : 19 API
~PARAMETER INFORMATION SECTION
~OTHER
#-------------------------------------------------
#Produced By: GeoVista Logger - Version 7.1.107.0
Natural Gamma Sonde - 9515
WLIS - 9387
Caliper Sonde (4 Arm) - 6341
#-------------------------------------------------
~ASCII LOG DATA
# ...
12.63 12.638630 32780.0 223.60 8.010 0.0970 0.1020 61.456230 67.71110 80.351530 72.745990 2.0 104.0 1.0 18.50 200.0 15.833330 302.50 198.0 15.833330
12.62 12.625280 33058.0 223.70 8.010 0.0970 0.1020 61.456640 67.712340 80.351590 72.746370 2.0 104.0 1.0 18.750 200.0 16.666670 305.0 198.0 16.666670
12.61 12.61860 33031.50 223.750 8.010 0.0970 0.1020 61.457050 67.713570 80.351660 72.746750 2.0 104.0 1.0 19.0 200.0 21.666670 307.50 198.0 21.666670
12.60 12.611920 33005.0 223.80 8.010 0.0970 0.1020 61.457450 67.71480 80.351720 72.747120 2.0 104.0 1.0 18.750 200.0 26.666670 310.0 198.0 26.666670
12.59 12.598570 33102.0 223.90 8.010 0.0970 0.1020 61.457610 67.714490 80.351430 72.746750 2.0 104.0 1.0 18.50 200.0 31.666670 307.50 198.0 31.666670
12.58 12.585220 32873.0 224.0 8.010 0.0970 0.1020 61.457770 67.714180 80.351140 72.746370 2.0 104.0 1.0 18.250 200.0 36.666670 305.0 198.0 36.666670
12.57 12.578540 32867.50 224.050 8.010 0.0970 0.1020 61.457920 67.713880 80.350860 72.745990 2.0 104.0 1.0 18.0 200.0 30.0 302.50 198.0 30.0
12.56 12.571870 32862.0 224.10 8.010 0.0970 0.1020 61.458080 67.713570 80.350570 72.745610 2.0 104.0 1.0 18.0 200.0 23.333330 300.0 198.0 23.333330
12.55 12.55930 33093.0 224.20 8.010 0.0970 0.1020 61.448840 67.703210 80.343070 72.756460 2.0 104.0 1.0 18.0 200.0 16.666670 300.0 198.0 16.666670
12.54 12.545950 32512.0 224.30 8.010 0.0970 0.1020 61.43960 67.692850 80.335570 72.767320 2.0 104.0 1.0 18.0 200.0 10.0 300.0 198.0 10.0
12.53 12.53260 32769.0 224.40 8.010 0.0970 0.1020 61.430350 67.682480 80.328080 72.778170 2.0 104.0 1.0 18.0 200.0 9.919350 300.0 198.0 9.919350
12.52 12.526320 32710.0 224.450 7.998890 0.0970 0.1020 61.421110 67.672120 80.320580 72.789020 2.0 104.0 1.0 18.0 200.0 9.838710 300.0 198.0 9.838710
12.51 12.520030 32651.0 224.50 7.987780 0.0970 0.1020 61.430420 67.681480 80.327850 72.778260 2.0 104.0 1.0 18.0 200.0 9.758060 300.0 198.0 9.758060
12.50 12.506680 32728.0 224.60 7.976670 0.0970 0.1020 61.439720 67.690840 80.335130 72.76750 2.0 104.0 1.0 18.0 200.0 9.677420 300.0 198.0 9.677420
12.49 12.50 32730.50 224.650 7.965560 0.0970 0.1020 61.449030 67.70020 80.34240 72.756750 2.0 104.0 1.0 18.0 200.0 9.758060 300.0 198.0 9.758060
12.48 12.493330 32733.0 224.70 7.954440 0.0970 0.1020 61.458330 67.709560 80.349680 72.745990 2.0 104.0 1.0 18.0 200.0 9.838710 300.0 198.0 9.838710
12.47 12.479980 33103.0 224.80 7.943330 0.0970 0.1020 61.458770 67.710450 80.350280 72.745710 2.0 104.0 1.0 18.0 200.0 9.919350 300.0 198.0 9.919350
12.46 12.466630 33091.0 224.90 7.932220 0.0970 0.1020 61.459210 67.711330 80.350890 72.745420 2.0 104.0 1.0 18.0 200.0 10.0 300.0 198.0 10.0
12.45 12.459950 32911.0 224.950 7.921110 0.0970 0.1020 61.459650 67.712220 80.35150 72.745140 2.0 104.0 1.0 18.0 200.0 11.666670 300.0 198.0 11.666670
12.44 12.453270 32731.0 225.0 7.910 0.0970 0.1020 61.460080 67.713110 80.35210 72.744850 2.0 104.0 1.0 18.0 200.0 13.333330 300.0 198.0 13.333330
12.43 12.439920 32763.0 225.10 7.916250 0.0970 0.1020 61.459650 67.71330 80.35210 72.744980 2.0 104.0 1.0 18.0 200.0 15.0 300.0 198.0 15.0
12.42 12.426570 32898.0 225.20 7.92250 0.0970 0.1020 61.459210 67.713490 80.35210 72.745110 2.0 104.0 1.0 18.0 200.0 16.666670 300.0 198.0 16.666670
12.41 12.419890 32808.0 225.250 7.928750 0.0970 0.1020 61.458770 67.713680 80.35210 72.745230 2.0 104.0 1.0 18.0 200.0 14.166670 300.0 198.0 14.166670
12.40 12.413220 32718.0 225.30 7.9350 0.0970 0.1020 61.458330 67.713880 80.35210 72.745360 2.0 104.0 1.0 18.0 200.0 11.666670 300.0 198.0 11.666670
12.39 12.399870 32755.0 225.40 7.941250 0.0970 0.1020 61.448870 67.703510 80.343870 72.756080 2.0 104.0 1.0 18.0 200.0 9.166670 300.0 198.0 9.166670
12.38 12.386510 32765.0 225.50 7.94750 0.0970 0.1020 61.439410 67.693150 80.335640 72.766810 2.0 104.0 1.0 18.0 200.0 6.666670 300.0 198.0 6.666670
12.37 12.379840 32815.50 225.550 7.953750 0.0970 0.1020 61.429950 67.682790 80.327410 72.777540 2.0 104.0 1.0 18.0 200.0 9.166670 300.0 198.0 9.166670
12.36 12.373160 32866.0 225.60 7.960 0.0970 0.1020 61.420490 67.672430 80.319170 72.788260 2.0 104.0 1.0 18.0 200.0 11.666670 300.0 198.0 11.666670
12.35 12.359810 32984.0 225.70 7.967140 0.0970 0.1020 61.429290 67.681980 80.326350 72.777440 2.0 104.0 1.0 18.0 200.0 14.166670 300.0 198.0 14.166670
12.34 12.346460 32778.0 225.80 7.974290 0.0970 0.1020 61.438090 67.691540 80.333530 72.766620 2.0 104.0 1.0 18.0 200.0 16.666670 300.0 198.0 16.666670
12.33 12.339780 32706.50 225.850 7.981430 0.0970 0.1030 61.44690 67.701090 80.340710 72.75580 2.0 104.0 1.0 18.0 200.0 16.666670 300.0 198.0 16.666670
12.32 12.333110 32635.0 225.90 7.988570 0.0970 0.1040 61.45570 67.710640 80.347890 72.744980 2.0 104.0 1.0 18.0 200.0 16.666670 300.0 198.0 16.666670
12.31 12.319760 32800.0 226.0 7.995710 0.0970 0.1020 61.456110 67.711220 80.349420 72.745010 2.0 104.0 1.0 18.0 200.0 16.666670 300.0 198.0 16.666670
12.30 12.30640 32710.0 226.10 8.002860 0.0970 0.1020 61.456510 67.71180 80.350950 72.745040 2.0 104.0 1.0 18.0 200.0 16.666670 300.0 198.0 16.666670
12.29 12.293050 32808.0 226.20 8.010 0.0970 0.1020 61.456920 67.712370 80.352480 72.745070 2.0 104.0 1.0 18.0 200.0 13.333330 300.0 198.0 13.333330
12.28 12.286770 32694.0 226.250 8.003750 0.0970 0.1020 61.457330 67.712950 80.354020 72.745110 2.0 104.0 1.0 18.0 200.0 10.0 300.0 198.0 10.0
12.27 12.280490 32580.0 226.30 7.99750 0.0970 0.1020 61.456980 67.713450 80.35360 72.744950 2.0 104.0 1.0 18.0 200.0 6.666670 300.0 198.0 6.666670
12.26 12.267130 32771.0 226.40 7.991250 0.0970 0.1020 61.456640 67.713950 80.353190 72.744790 2.0 104.0 1.0 18.0 200.0 3.333330 300.0 198.0 3.333330
12.25 12.253780 33023.0 226.50 7.9850 0.0970 0.1020 61.456290 67.714450 80.352770 72.744630 2.0 104.0 1.0 18.0 200.0 5.833330 300.0 198.0 5.833330
12.24 12.247110 32935.50 226.550 7.978750 0.0970 0.1020 61.455950 67.714950 80.352360 72.744470 2.0 104.0 1.0 18.0 200.0 8.333330 300.0 198.0 8.333330
12.23 12.240430 32848.0 226.60 7.97250 0.0970 0.1020 61.446860 67.704290 80.343710 72.754850 2.0 104.0 1.0 18.0 200.0 10.833330 300.0 198.0 10.833330
12.22 12.227080 32634.0 226.70 7.966250 0.0970 0.1020 61.437780 67.693620 80.335060 72.765230 2.0 104.0 1.0 18.0 200.0 13.333330 300.0 198.0 13.333330
12.21 12.213730 32655.0 226.80 7.960 0.0970 0.1020 61.428690 67.682950 80.326420 72.775610 2.0 104.0 1.0 18.0 200.0 12.50 300.0 198.0 12.50
12.20 12.207050 32681.50 226.850 7.960 0.0970 0.1020 61.419610 67.672280 80.317770 72.785990 2.0 104.0 1.0 18.250 200.0 11.666670 300.0 198.0 11.666670
12.19 12.200380 32708.0 226.90 7.960 0.0970 0.1020 61.419230 67.671470 80.317580 72.786240 2.0 104.0 1.0 18.50 200.0 10.833330 300.0 198.0 10.833330
12.18 12.187020 32825.0 227.0 7.960 0.0970 0.1020 61.418860 67.670660 80.317390 72.78650 2.0 104.0 1.0 18.750 200.0 10.0 300.0 198.0 10.0
12.17 12.173670 32934.0 227.10 7.960 0.0970 0.1020 61.418480 67.669850 80.317190 72.786750 2.0 104.0 1.0 19.0 200.0 9.166670 300.0 198.0 9.166670
12.16 12.1670 32939.50 227.150 7.960 0.0970 0.1020 61.418110 67.669040 80.3170 72.7870 2.0 104.0 1.0 18.50 200.0 8.333330 300.0 198.0 8.333330
12.15 12.160320 32945.0 227.20 7.960 0.0970 0.1020 61.427440 67.679210 80.325330 72.776460 2.0 104.0 1.0 18.0 200.0 7.50 300.0 198.0 7.50
12.14 12.146970 33047.0 227.30 7.960 0.0970 0.1020 61.436780 67.689380 80.333660 72.765930 2.0 104.0 1.0 17.50 200.0 6.666670 300.0 198.0 6.666670
12.13 12.133620 32816.0 227.40 7.960 0.0970 0.1020 61.446110 67.699550 80.341990 72.755390 2.0 104.0 1.0 17.0 200.0 6.666670 300.0 198.0 6.666670
12.12 12.126940 32603.0 227.450 7.960 0.0970 0.1020 61.455450 67.709720 80.350310 72.744850 2.0 104.0 1.0 17.50 200.0 6.666670 300.0 198.0 6.666670
12.11 12.120260 32390.0 227.50 7.960 0.0970 0.1020 61.446180 67.700630 80.341510 72.754730 2.0 104.0 1.0 18.0 200.0 6.666670 300.0 198.0 6.666670
12.10 12.106910 32625.0 227.60 7.960 0.0970 0.1020 61.43690 67.691540 80.33270 72.76460 2.0 104.0 1.0 18.50 200.0 6.666670 300.0 198.0 6.666670
12.09 12.093560 32924.0 227.70 7.960 0.0970 0.1020 61.427630 67.682450 80.32390 72.774480 2.0 104.0 1.0 19.0 200.0 8.333330 300.0 198.0 8.333330
