~VERSION INFORMATION SECTION
VERS. 2.0 : CWLS LAS-VERSION 2.0
WRAP. NO : One line per depth step
~WELL INFORMATION SECTION
# MNEM.UNIT VALUE/NAME DESCRIPTION
#-------- -------------- ---------------------
STRT.Metres 28 : Start
STOP.Metres 0.42 : Stop
STEP.Metres -0.01 : Step
NULL.  -999.25 :NULL VALUE
DATE. 2026-57-05 : DATE
~CURVE INFORMATION SECTION
DEPTH.Metres : 0 Depth
Depth. : 1 Depth
Tension. : 2 Tension
Time. : 3 Time
Speed. : 4 Speed
Voltage. : 5 Voltage
Current. : 6 Current
X1.mm : 7 X1
X2.mm : 8 X2
Y1.mm : 9 Y1
Y2.mm : 10 Y2
MotorCurrent.mA : 11 Motor Current
HeadVoltage.V : 12 Head Voltage
WET. : 13 WET
Sig. : 14 Sig
Vth. : 15 Vth
GR.CPS : 16 GR
Timebase.ms : 17 Timebase
HeadVoltage.V : 18 Head Voltage
API.API : 19 API
~PARAMETER INFORMATION SECTION
~OTHER
#-------------------------------------------------
#Produced By: GeoVista Logger - Version 7.1.107.0
Natural Gamma Sonde - 9515
WLIS - 9387
Caliper Sonde (4 Arm) - 6341
#-------------------------------------------------
~ASCII LOG DATA
# ...
23.10 23.106810 33485.0 145.050 7.960 0.0970 0.1020 38.687810 36.873560 48.36060 58.162710 2.0 104.0 1.0 0.50 200.0 36.666670 300.0 198.0 36.666670
23.09 23.100130 33372.0 145.10 7.960 0.0970 0.1020 38.687780 36.874640 48.360960 58.162840 2.0 104.0 1.0 0.250 200.0 36.666670 300.0 198.0 36.666670
23.08 23.086780 33250.0 145.20 7.960 0.0970 0.1020 38.687750 36.875710 48.361320 58.162960 2.0 104.0 1.0 0.0 200.0 36.666670 300.0 198.0 36.666670
23.07 23.073430 33229.0 145.30 7.971250 0.0970 0.1040 38.687720 36.876790 48.361680 58.163090 2.0 104.0 1.0 0.250 200.0 36.666670 300.0 198.0 36.666670
23.06 23.066750 33182.0 145.350 7.98250 0.0970 0.1030 38.679370 36.865880 48.353310 58.172410 2.0 104.0 1.0 0.50 200.0 36.666670 300.0 198.0 36.666670
23.05 23.060080 33135.0 145.40 7.993750 0.0970 0.1020 38.671030 36.854970 48.344940 58.181720 2.0 104.0 1.0 0.750 200.0 30.833330 300.0 198.0 30.833330
23.04 23.046720 33641.0 145.50 8.0050 0.0970 0.1020 38.662690 36.844070 48.336570 58.191040 2.0 104.0 1.0 1.0 200.0 25.0 300.0 198.0 25.0
23.03 23.033370 33500.0 145.60 8.016250 0.0970 0.1020 38.654350 36.833160 48.32820 58.200350 2.0 104.0 1.0 0.750 200.0 19.166670 300.0 198.0 19.166670
23.02 23.02670 33194.50 145.650 8.02750 0.0970 0.1020 38.663360 36.843430 48.336140 58.190970 2.0 104.0 1.0 0.50 200.0 13.333330 300.0 198.0 13.333330
23.01 23.020020 32889.0 145.70 8.038750 0.0970 0.1020 38.672360 36.85370 48.344090 58.181590 2.0 104.0 1.0 0.250 200.0 15.833330 300.0 198.0 15.833330
23.00 23.00510 32765.0 145.80 8.050 0.0970 0.1020 38.681370 36.863970 48.352040 58.172220 2.0 104.0 1.0 0.0 200.0 18.333330 300.0 198.0 18.333330
22.99 22.998420 32702.0 145.850 8.06750 0.0970 0.1020 38.690380 36.874240 48.359980 58.162840 2.0 104.0 1.0 0.50 200.0 20.833330 300.0 198.0 20.833330
22.98 22.991750 32639.0 145.90 8.0850 0.0970 0.1020 38.690220 36.875470 48.360410 58.162870 2.0 104.0 1.0 1.0 200.0 23.333330 300.0 198.0 23.333330
22.97 22.979960 32817.0 146.0 8.10250 0.0970 0.1020 38.690060 36.876710 48.360830 58.16290 2.0 104.0 1.0 1.50 200.0 25.833330 300.0 198.0 25.833330
22.96 22.966610 33377.0 146.10 8.120 0.0970 0.1020 38.68990 36.877940 48.361250 58.162930 2.0 104.0 1.0 2.0 200.0 28.333330 300.0 198.0 28.333330
22.95 22.959150 33435.0 146.150 8.13750 0.0970 0.1020 38.689750 36.879170 48.361680 58.162960 2.0 104.0 1.0 1.50 200.0 30.833330 300.0 198.0 30.833330
22.94 22.951690 33493.0 146.20 8.1550 0.0970 0.1020 38.690160 36.878980 48.361710 58.162770 2.0 104.0 1.0 1.0 200.0 33.333330 300.0 198.0 33.333330
22.93 22.938340 33385.0 146.30 8.17250 0.0970 0.1020 38.690570 36.878780 48.361740 58.162580 2.0 104.0 1.0 0.50 200.0 32.50 300.0 198.0 32.50
22.92 22.925770 33377.0 146.40 8.190 0.0970 0.1020 38.690980 36.878580 48.361770 58.162390 2.0 104.0 1.0 0.0 200.0 31.666670 300.0 198.0 31.666670
22.91 22.91870 33402.50 146.450 8.178750 0.0970 0.1020 38.69140 36.878380 48.361810 58.16220 2.0 104.0 1.0 0.333330 200.0 30.833330 300.0 198.0 30.833330
22.90 22.911640 33428.0 146.50 8.16750 0.0970 0.1020 38.691140 36.878860 48.361770 58.161760 2.0 104.0 1.0 0.666670 200.0 30.0 300.0 198.0 30.0
22.89 22.898280 33381.0 146.60 8.156250 0.0970 0.1020 38.690890 36.879330 48.361740 58.161310 2.0 104.0 1.0 1.0 200.0 30.833330 300.0 198.0 30.833330
22.88 22.885720 33389.0 146.70 8.1450 0.0970 0.1020 38.690630 36.879810 48.361710 58.160870 2.0 104.0 1.0 0.750 200.0 31.666670 300.0 198.0 31.666670
22.87 22.879040 33274.50 146.750 8.133750 0.0970 0.1020 38.690380 36.880290 48.361680 58.160420 2.0 104.0 1.0 0.50 200.0 32.50 300.0 198.0 32.50
22.86 22.872370 33160.0 146.80 8.12250 0.0970 0.1020 38.690160 36.879610 48.361320 58.161090 2.0 104.0 1.0 0.250 200.0 33.333330 300.0 198.0 33.333330
22.85 22.858230 33201.0 146.90 8.111250 0.0970 0.1020 38.689940 36.878940 48.360960 58.161760 2.0 104.0 1.0 0.0 200.0 30.833330 300.0 198.0 30.833330
22.84 22.845660 33387.0 147.0 8.10 0.0970 0.1020 38.689710 36.878260 48.36060 58.162420 2.0 104.0 1.0 0.20 200.0 28.333330 300.0 198.0 28.333330
22.83 22.838990 33300.50 147.050 8.070 0.0970 0.1020 38.689490 36.877580 48.360240 58.163090 2.0 104.0 1.0 0.40 200.0 25.833330 300.0 198.0 25.833330
22.82 22.832310 33214.0 147.10 8.040 0.0970 0.1020 38.680360 36.866960 48.351780 58.171640 2.0 104.0 1.0 0.60 200.0 23.333330 300.0 198.0 23.333330
22.81 22.818960 33280.0 147.20 8.010 0.0970 0.1020 38.671220 36.856330 48.343310 58.180190 2.0 104.0 1.0 0.80 200.0 26.666670 300.0 198.0 26.666670
22.80 22.805610 32944.0 147.30 7.980 0.0970 0.1020 38.662090 36.84570 48.334840 58.188750 2.0 104.0 1.0 1.0 200.0 30.0 300.0 198.0 30.0
22.79 22.798930 32758.50 147.350 7.950 0.0970 0.1020 38.652950 36.835070 48.326370 58.19730 2.0 104.0 1.0 0.750 200.0 33.333330 300.0 198.0 33.333330
22.78 22.792250 32573.0 147.40 7.920 0.0970 0.1020 38.653080 36.834280 48.326240 58.19720 2.0 104.0 1.0 0.50 200.0 36.666670 300.0 198.0 36.666670
22.77 22.77890 32557.0 147.50 7.890 0.0970 0.1020 38.653210 36.833480 48.326110 58.197110 2.0 104.0 1.0 0.250 200.0 35.833330 300.0 198.0 35.833330
22.76 22.765550 32709.0 147.60 7.860 0.0970 0.1020 38.653330 36.832690 48.325980 58.197010 2.0 104.0 1.0 0.0 200.0 35.0 300.0 198.0 35.0
22.75 22.758880 32789.0 147.650 7.87250 0.0970 0.1020 38.653460 36.831890 48.325850 58.196920 2.0 104.0 1.0 0.0 200.0 34.166670 300.0 198.0 34.166670
22.74 22.75220 32869.0 147.70 7.8850 0.0970 0.1020 38.66240 36.843230 48.33370 58.187160 2.0 104.0 1.0 0.0 200.0 33.333330 300.0 198.0 33.333330
22.73 22.738850 33327.0 147.80 7.89750 0.0970 0.1020 38.671350 36.854580 48.341550 58.17740 2.0 104.0 1.0 0.0 200.0 33.333330 300.0 198.0 33.333330
22.72 22.72550 33200.0 147.90 7.910 0.0970 0.1020 38.680290 36.865920 48.34940 58.167640 2.0 104.0 1.0 0.0 200.0 33.333330 300.0 198.0 33.333330
22.71 22.718820 33214.0 147.950 7.92250 0.0970 0.1020 38.689240 36.877260 48.357250 58.157880 2.0 104.0 1.0 0.0 200.0 33.333330 300.0 198.0 33.333330
22.70 22.712140 33228.0 148.0 7.9350 0.0970 0.1020 38.680860 36.867310 48.350150 58.168340 2.0 104.0 1.0 0.0 200.0 33.333330 300.0 198.0 33.333330
22.69 22.698790 33481.0 148.10 7.94750 0.0970 0.1020 38.672490 36.857360 48.343050 58.17880 2.0 104.0 1.0 0.0 200.0 33.333330 300.0 198.0 33.333330
22.68 22.685440 33369.0 148.20 7.960 0.0970 0.1020 38.664120 36.847410 48.335950 58.189250 2.0 104.0 1.0 0.0 200.0 33.333330 300.0 198.0 33.333330
22.67 22.678760 33075.50 148.250 7.960 0.0970 0.1020 38.655740 36.837460 48.328850 58.199710 2.0 104.0 1.0 0.0 200.0 33.333330 300.0 198.0 33.333330
22.66 22.672090 32782.0 148.30 7.960 0.0970 0.1020 42.790320 42.539460 54.042980 61.132360 2.0 104.0 1.0 0.0 200.0 33.333330 300.0 198.0 33.333330
22.65 22.658740 32830.0 148.40 7.960 0.0970 0.1020 46.92490 48.241450 59.757120 64.0650 2.0 104.0 1.0 0.0 200.0 30.0 300.0 198.0 30.0
22.64 22.646170 33064.0 148.50 7.960 0.0970 0.1020 51.059480 53.943450 65.471260 66.997650 2.0 104.0 1.0 0.0 200.0 26.666670 300.0 198.0 26.666670
22.63 22.63910 33073.50 148.550 7.960 0.0970 0.1020 55.194060 59.645450 71.185390 69.93030 2.0 104.0 1.0 0.0 200.0 23.333330 300.0 198.0 23.333330
22.62 22.632030 33083.0 148.60 7.960 0.0970 0.1020 56.755810 61.654930 73.567610 70.651250 2.0 104.0 1.0 0.0 200.0 20.0 300.0 198.0 20.0
22.61 22.619470 33337.0 148.70 7.960 0.0970 0.1020 58.317550 63.664410 75.949830 71.372210 2.0 104.0 1.0 0.0 200.0 16.666670 300.0 198.0 16.666670
22.60 22.606120 33216.0 148.80 7.960 0.0970 0.1020 59.879290 65.673890 78.332050 72.093170 2.0 104.0 1.0 0.0 200.0 13.333330 300.0 198.0 13.333330
22.59 22.599050 33114.0 148.850 7.966250 0.0970 0.1020 61.441040 67.683370 80.714270 72.814130 2.0 104.0 1.0 0.0 200.0 10.0 300.0 198.0 10.0
22.58 22.591980 33012.0 148.90 7.97250 0.0970 0.1020 61.440380 67.683490 80.714680 72.811640 2.0 104.0 1.0 0.0 200.0 6.666670 300.0 198.0 6.666670
22.57 22.579410 33260.0 149.0 7.978750 0.0970 0.1020 61.439720 67.68360 80.71510 72.809150 2.0 104.0 1.0 0.0 200.0 10.833330 300.0 198.0 10.833330
22.56 22.566060 33362.0 149.10 7.9850 0.0970 0.1020 61.439060 67.683720 80.715510 72.806660 2.0 104.0 1.0 0.0 200.0 15.0 300.0 198.0 15.0
