~VERSION INFORMATION SECTION
VERS. 2.0 : CWLS LAS-VERSION 2.0
WRAP. NO : One line per depth step
~WELL INFORMATION SECTION
# MNEM.UNIT VALUE/NAME DESCRIPTION
#-------- -------------- ---------------------
STRT.Metres 28 : Start
STOP.Metres 0.42 : Stop
STEP.Metres -0.01 : Step
NULL.  -999.25 :NULL VALUE
DATE. 2026-57-05 : DATE
~CURVE INFORMATION SECTION
DEPTH.Metres : 0 Depth
Depth. : 1 Depth
Tension. : 2 Tension
Time. : 3 Time
Speed. : 4 Speed
Voltage. : 5 Voltage
Current. : 6 Current
X1.mm : 7 X1
X2.mm : 8 X2
Y1.mm : 9 Y1
Y2.mm : 10 Y2
MotorCurrent.mA : 11 Motor Current
HeadVoltage.V : 12 Head Voltage
WET. : 13 WET
Sig. : 14 Sig
Vth. : 15 Vth
GR.CPS : 16 GR
Timebase.ms : 17 Timebase
HeadVoltage.V : 18 Head Voltage
API.API : 19 API
~PARAMETER INFORMATION SECTION
~OTHER
#-------------------------------------------------
#Produced By: GeoVista Logger - Version 7.1.107.0
Natural Gamma Sonde - 9515
WLIS - 9387
Caliper Sonde (4 Arm) - 6341
#-------------------------------------------------
~ASCII LOG DATA
# ...
9.31 9.316790 32580.0 248.650 7.960 0.0970 0.1020 61.448710 67.710640 79.852670 72.744250 2.0 104.0 1.0 12.0 200.0 6.666670 300.0 198.0 6.666670
9.30 9.310110 32738.0 248.70 7.960 0.0970 0.1020 61.448180 67.710490 79.851970 72.74460 2.0 104.0 1.0 12.750 200.0 6.666670 300.0 198.0 6.666670
9.29 9.297540 32735.0 248.80 7.960 0.0970 0.1020 61.439780 67.699280 79.843380 72.753660 2.0 104.0 1.0 13.50 200.0 6.666670 300.0 198.0 6.666670
9.28 9.284190 32810.0 248.90 7.960 0.0970 0.1020 61.431390 67.688070 79.83480 72.762710 2.0 104.0 1.0 14.250 200.0 6.666670 300.0 198.0 6.666670
9.27 9.277520 32825.50 248.950 7.960 0.0970 0.1020 61.422990 67.676860 79.826210 72.771760 2.0 104.0 1.0 15.0 200.0 6.666670 300.0 198.0 6.666670
9.26 9.270840 32841.0 249.0 7.960 0.0970 0.1020 61.41460 67.665650 79.817630 72.780820 2.0 104.0 1.0 14.50 200.0 9.166670 300.0 198.0 9.166670
9.25 9.257490 32635.0 249.10 7.953750 0.0970 0.1020 61.422740 67.675860 79.825860 72.771040 2.0 104.0 1.0 14.0 200.0 11.666670 300.0 198.0 11.666670
9.24 9.244140 33005.0 249.20 7.94750 0.0970 0.10 61.430890 67.686070 79.83410 72.761260 2.0 104.0 1.0 13.50 200.0 14.166670 300.0 198.0 14.166670
9.23 9.237460 32986.0 249.250 7.941250 0.0970 0.1010 61.439030 67.696270 79.842330 72.751480 2.0 104.0 1.0 13.0 200.0 16.666670 300.0 198.0 16.666670
9.22 9.230780 32967.0 249.30 7.9350 0.0970 0.1020 61.447180 67.706480 79.850570 72.74170 2.0 104.0 1.0 13.250 200.0 14.166670 300.0 198.0 14.166670
9.21 9.217430 32814.0 249.40 7.928750 0.0970 0.1020 61.447960 67.706980 79.851330 72.741510 2.0 104.0 1.0 13.50 200.0 11.666670 300.0 198.0 11.666670
9.20 9.204080 32661.0 249.50 7.92250 0.0970 0.1020 61.448740 67.707480 79.85210 72.741320 2.0 104.0 1.0 13.750 200.0 9.166670 300.0 198.0 9.166670
9.19 9.197410 32713.0 249.550 7.916250 0.0970 0.1010 61.449530 67.707980 79.852860 72.741130 2.0 104.0 1.0 14.0 200.0 6.666670 300.0 198.0 6.666670
9.18 9.190730 32765.0 249.60 7.910 0.0970 0.10 61.450310 67.708480 79.853630 72.740940 2.0 104.0 1.0 13.750 200.0 8.888890 300.0 198.0 8.888890
9.17 9.177380 33246.0 249.70 7.92250 0.0970 0.1020 61.440850 67.697580 79.844760 72.751730 2.0 104.0 1.0 13.50 200.0 11.111110 300.0 198.0 11.111110
9.16 9.164030 33113.0 249.80 7.9350 0.0970 0.1020 61.431390 67.686680 79.835880 72.762520 2.0 104.0 1.0 13.250 200.0 13.333330 300.0 198.0 13.333330
9.15 9.157350 33149.50 249.850 7.94750 0.0970 0.1020 61.421930 67.675780 79.827010 72.773310 2.0 104.0 1.0 13.0 200.0 11.666670 300.0 198.0 11.666670
9.14 9.150670 33186.0 249.90 7.960 0.0970 0.1020 61.412470 67.664880 79.818140 72.78410 2.0 104.0 1.0 13.250 200.0 10.0 300.0 198.0 10.0
9.13 9.137320 32833.0 250.0 7.97250 0.0970 0.1020 61.412220 67.663840 79.81750 72.783530 2.0 104.0 1.0 13.50 200.0 8.333330 300.0 198.0 8.333330
9.12 9.123970 32802.0 250.10 7.9850 0.0970 0.1020 61.411970 67.66280 79.816860 72.782960 2.0 104.0 1.0 13.750 200.0 6.666670 300.0 198.0 6.666670
9.11 9.117290 32910.50 250.150 7.99750 0.0970 0.1020 61.411710 67.661760 79.816220 72.78240 2.0 104.0 1.0 14.0 200.0 6.666670 300.0 198.0 6.666670
9.10 9.110620 33019.0 250.20 8.010 0.0970 0.1020 61.411460 67.660720 79.815580 72.781830 2.0 104.0 1.0 13.750 200.0 6.666670 300.0 198.0 6.666670
9.09 9.097270 32700.0 250.30 8.010 0.0970 0.1020 61.420740 67.672850 79.824520 72.772330 2.0 104.0 1.0 13.50 200.0 6.666670 300.0 198.0 6.666670
9.08 9.083920 32842.0 250.40 8.010 0.0970 0.1020 61.430010 67.684990 79.833460 72.762840 2.0 104.0 1.0 13.250 200.0 6.666670 300.0 198.0 6.666670
9.07 9.077240 32951.0 250.450 8.010 0.0970 0.1020 61.439280 67.697120 79.84240 72.753340 2.0 104.0 1.0 13.0 200.0 10.833330 300.0 198.0 10.833330
9.06 9.070560 33060.0 250.50 8.010 0.0970 0.1020 61.448560 67.709250 79.851330 72.743840 2.0 104.0 1.0 13.250 200.0 15.0 300.0 198.0 15.0
9.05 9.057210 32826.0 250.60 8.010 0.0970 0.1040 61.448780 67.709140 79.851040 72.743810 2.0 104.0 1.0 13.50 200.0 19.166670 300.0 198.0 19.166670
9.04 9.044650 32936.0 250.70 8.010 0.0970 0.1020 61.448990 67.709020 79.850760 72.743780 2.0 104.0 1.0 13.750 200.0 23.333330 300.0 198.0 23.333330
9.03 9.037580 32993.50 250.750 8.010 0.0970 0.1020 61.449210 67.708910 79.850470 72.743750 2.0 104.0 1.0 14.0 200.0 20.0 300.0 198.0 20.0
9.02 9.030510 33051.0 250.80 8.010 0.0970 0.1020 61.449430 67.708790 79.850180 72.743720 2.0 104.0 1.0 13.750 200.0 16.666670 300.0 198.0 16.666670
9.01 9.017940 32852.0 250.90 8.010 0.0970 0.1020 61.44010 67.697510 79.841950 72.75340 2.0 104.0 1.0 13.50 200.0 13.333330 300.0 198.0 13.333330
9.00 9.004590 32824.0 251.0 8.010 0.0970 0.1020 61.430760 67.686220 79.833710 72.763090 2.0 104.0 1.0 13.250 200.0 10.0 300.0 198.0 10.0
8.99 8.997910 32826.50 251.050 8.010 0.0970 0.1020 61.421430 67.674930 79.825480 72.772770 2.0 104.0 1.0 13.0 200.0 12.50 300.0 198.0 12.50
8.98 8.991240 32829.0 251.10 8.010 0.0970 0.1020 61.412090 67.663650 79.817240 72.782460 2.0 104.0 1.0 13.250 200.0 15.0 300.0 198.0 15.0
8.97 8.977890 32845.0 251.20 8.010 0.0970 0.1020 61.411310 67.663570 79.817340 72.782620 2.0 104.0 1.0 13.50 200.0 17.50 300.0 198.0 17.50
8.96 8.964530 32947.0 251.30 8.010 0.0970 0.1020 61.410520 67.663490 79.817440 72.782770 2.0 104.0 1.0 13.750 200.0 20.0 300.0 198.0 20.0
8.95 8.957860 32629.0 251.350 8.010 0.0970 0.1020 61.409740 67.663420 79.817530 72.782930 2.0 104.0 1.0 14.0 200.0 20.0 300.0 198.0 20.0
8.94 8.951180 32311.0 251.40 8.010 0.0970 0.1020 61.408960 67.663340 79.817630 72.783090 2.0 104.0 1.0 13.750 200.0 20.0 300.0 198.0 20.0
8.93 8.937830 32632.0 251.50 8.003750 0.0970 0.1020 61.409110 67.663960 79.817750 72.783370 2.0 104.0 1.0 13.50 200.0 20.0 300.0 198.0 20.0
8.92 8.923690 32616.0 251.60 7.99750 0.0970 0.1020 61.409270 67.664570 79.817880 72.783660 2.0 104.0 1.0 13.250 200.0 20.0 300.0 198.0 20.0
8.91 8.917020 32688.50 251.650 7.991250 0.0970 0.1020 61.409430 67.665190 79.818010 72.783940 2.0 104.0 1.0 13.0 200.0 22.50 300.0 198.0 22.50
8.90 8.910340 32761.0 251.70 7.9850 0.0970 0.1020 61.409580 67.665810 79.818140 72.784230 2.0 104.0 1.0 13.250 200.0 25.0 300.0 198.0 25.0
8.89 8.896990 32866.0 251.80 7.978750 0.0970 0.1020 61.418830 67.676320 79.825380 72.77350 2.0 104.0 1.0 13.50 200.0 27.50 300.0 198.0 27.50
8.88 8.883640 32720.0 251.90 7.97250 0.0970 0.1020 61.428070 67.686840 79.832630 72.762770 2.0 104.0 1.0 13.750 200.0 30.0 300.0 198.0 30.0
8.87 8.876960 32723.50 251.950 7.966250 0.0970 0.1020 61.437310 67.697350 79.839870 72.752050 2.0 104.0 1.0 14.0 200.0 28.333330 300.0 198.0 28.333330
8.86 8.870290 32727.0 252.0 7.960 0.0970 0.1020 61.446550 67.707870 79.847120 72.741320 2.0 104.0 1.0 13.750 200.0 26.666670 300.0 198.0 26.666670
8.85 8.856940 33051.0 252.10 7.971250 0.0970 0.1020 61.447210 67.707750 79.848010 72.741320 2.0 104.0 1.0 13.50 200.0 25.0 302.50 198.0 25.0
8.84 8.843580 33086.0 252.20 7.98250 0.0970 0.1020 61.447870 67.707640 79.848910 72.741320 2.0 104.0 1.0 13.250 200.0 23.333330 305.0 198.0 23.333330
8.83 8.83730 33089.50 252.250 7.993750 0.0970 0.1020 61.448520 67.707520 79.84980 72.741320 2.0 104.0 1.0 13.0 200.0 20.833330 307.50 198.0 20.833330
8.82 8.831020 33093.0 252.30 8.0050 0.0970 0.1020 61.449180 67.707410 79.850690 72.741320 2.0 104.0 1.0 13.0 200.0 18.333330 310.0 198.0 18.333330
8.81 8.817670 32898.0 252.40 8.016250 0.0970 0.1020 61.448810 67.707480 79.851560 72.741670 2.0 104.0 1.0 13.0 200.0 15.833330 307.50 198.0 15.833330
8.80 8.804310 32844.0 252.50 8.02750 0.0970 0.1020 61.448430 67.707560 79.852420 72.742010 2.0 104.0 1.0 13.0 200.0 13.333330 305.0 198.0 13.333330
8.79 8.797640 32811.0 252.550 8.038750 0.0970 0.1020 61.448060 67.707640 79.853280 72.742360 2.0 104.0 1.0 13.0 200.0 18.333330 302.50 198.0 18.333330
8.78 8.790960 32778.0 252.60 8.050 0.0970 0.1020 61.447680 67.707710 79.854140 72.742710 2.0 104.0 1.0 13.0 200.0 23.333330 300.0 198.0 23.333330
8.77 8.777610 33221.0 252.70 8.038750 0.0970 0.1020 61.438250 67.697240 79.844820 72.752870 2.0 104.0 1.0 13.0 200.0 28.333330 300.0 198.0 28.333330
8.76 8.764260 33121.0 252.80 8.02750 0.0970 0.1020 61.428820 67.686760 79.83550 72.763030 2.0 104.0 1.0 13.0 200.0 33.333330 300.0 198.0 33.333330
