~VERSION INFORMATION SECTION
VERS. 2.0 : CWLS LAS-VERSION 2.0
WRAP. NO : One line per depth step
~WELL INFORMATION SECTION
# MNEM.UNIT VALUE/NAME DESCRIPTION
#-------- -------------- ---------------------
STRT.Metres 28 : Start
STOP.Metres 0.42 : Stop
STEP.Metres -0.01 : Step
NULL.  -999.25 :NULL VALUE
DATE. 2026-57-05 : DATE
~CURVE INFORMATION SECTION
DEPTH.Metres : 0 Depth
Depth. : 1 Depth
Tension. : 2 Tension
Time. : 3 Time
Speed. : 4 Speed
Voltage. : 5 Voltage
Current. : 6 Current
X1.mm : 7 X1
X2.mm : 8 X2
Y1.mm : 9 Y1
Y2.mm : 10 Y2
MotorCurrent.mA : 11 Motor Current
HeadVoltage.V : 12 Head Voltage
WET. : 13 WET
Sig. : 14 Sig
Vth. : 15 Vth
GR.CPS : 16 GR
Timebase.ms : 17 Timebase
HeadVoltage.V : 18 Head Voltage
API.API : 19 API
~PARAMETER INFORMATION SECTION
~OTHER
#-------------------------------------------------
#Produced By: GeoVista Logger - Version 7.1.107.0
Natural Gamma Sonde - 9515
WLIS - 9387
Caliper Sonde (4 Arm) - 6341
#-------------------------------------------------
~ASCII LOG DATA
# ...
18.14 18.144270 32910.0 182.30 8.0650 0.0970 0.1020 61.473740 67.722580 80.745590 72.757280 2.0 104.0 1.0 16.750 200.0 10.0 300.0 198.0 10.0
18.13 18.13720 32946.50 182.350 8.08250 0.0970 0.1020 61.473120 67.722160 80.745440 72.756870 2.0 104.0 1.0 17.0 200.0 13.333330 300.0 198.0 13.333330
18.12 18.130130 32983.0 182.40 8.10 0.0970 0.1020 61.472490 67.721730 80.745280 72.756460 2.0 104.0 1.0 17.0 200.0 16.666670 300.0 198.0 16.666670
18.11 18.117560 32918.0 182.50 8.08250 0.0970 0.1020 61.463840 67.71160 80.737010 72.766020 2.0 104.0 1.0 17.0 200.0 20.0 300.0 198.0 20.0
18.10 18.104210 32821.0 182.60 8.0650 0.0970 0.1020 61.45520 67.701470 80.728750 72.775580 2.0 104.0 1.0 17.0 200.0 23.333330 300.0 198.0 23.333330
18.09 18.097140 32911.0 182.650 8.04750 0.0970 0.1020 61.446550 67.691340 80.720490 72.785140 2.0 104.0 1.0 17.0 200.0 21.666670 300.0 198.0 21.666670
18.08 18.090080 33001.0 182.70 8.030 0.0970 0.1020 61.43790 67.681210 80.712230 72.79470 2.0 104.0 1.0 17.0 200.0 20.0 300.0 198.0 20.0
18.07 18.077510 33146.0 182.80 8.01250 0.0970 0.1020 61.445740 67.69130 80.720590 72.784760 2.0 104.0 1.0 17.0 200.0 18.333330 300.0 198.0 18.333330
18.06 18.064160 33157.0 182.90 7.9950 0.0970 0.1020 61.453570 67.70140 80.728940 72.774820 2.0 104.0 1.0 17.0 200.0 16.666670 300.0 198.0 16.666670
18.05 18.057480 33098.50 182.950 7.97750 0.0970 0.1020 61.46140 67.711490 80.73730 72.764890 2.0 104.0 1.0 17.0 200.0 13.333330 300.0 198.0 13.333330
18.04 18.050810 33040.0 183.0 7.960 0.0970 0.1020 61.469230 67.721580 80.745660 72.754950 2.0 104.0 1.0 17.0 200.0 10.0 300.0 198.0 10.0
18.03 18.037450 32983.0 183.10 7.960 0.0970 0.1020 61.461150 67.71110 80.736950 72.765010 2.0 104.0 1.0 17.0 200.0 6.666670 300.0 198.0 6.666670
18.02 18.02410 32446.0 183.20 7.960 0.0970 0.1020 61.453070 67.700630 80.728240 72.775080 2.0 104.0 1.0 17.0 200.0 3.333330 300.0 198.0 3.333330
18.01 18.017430 32620.50 183.250 7.960 0.0970 0.1020 61.444980 67.690150 80.719530 72.785140 2.0 104.0 1.0 17.0 200.0 5.0 300.0 198.0 5.0
18.00 18.010750 32795.0 183.30 7.960 0.0970 0.1020 61.43690 67.679670 80.710820 72.79520 2.0 104.0 1.0 17.0 200.0 6.666670 300.0 198.0 6.666670
17.99 17.998180 33259.0 183.40 7.960 0.0970 0.1020 61.445830 67.689460 80.718830 72.785230 2.0 104.0 1.0 17.0 200.0 8.333330 300.0 198.0 8.333330
17.98 17.984830 32883.0 183.50 7.960 0.0970 0.1020 61.454760 67.699240 80.726840 72.775270 2.0 104.0 1.0 17.0 200.0 10.0 300.0 198.0 10.0
17.97 17.977760 32826.0 183.550 7.960 0.0970 0.1020 61.463690 67.709020 80.734840 72.76530 2.0 104.0 1.0 17.0 200.0 10.833330 300.0 198.0 10.833330
17.96 17.97070 32769.0 183.60 7.960 0.0970 0.1020 61.472620 67.718810 80.742850 72.755330 2.0 104.0 1.0 17.0 200.0 11.666670 300.0 198.0 11.666670
17.95 17.957340 33254.0 183.70 7.966250 0.0970 0.1020 61.463690 67.708870 80.734970 72.765770 2.0 104.0 1.0 17.0 200.0 12.50 302.50 198.0 12.50
17.94 17.943990 33498.0 183.80 7.97250 0.0970 0.1020 61.454760 67.698930 80.727090 72.776210 2.0 104.0 1.0 17.0 200.0 13.333330 305.0 198.0 13.333330
17.93 17.937320 33452.50 183.850 7.978750 0.0970 0.1020 61.445830 67.688990 80.719210 72.786650 2.0 104.0 1.0 17.0 200.0 12.50 307.50 198.0 12.50
17.92 17.930640 33407.0 183.90 7.9850 0.0970 0.1020 61.43690 67.679060 80.711330 72.79710 2.0 104.0 1.0 17.250 200.0 11.666670 310.0 198.0 11.666670
17.91 17.917290 32993.0 184.0 7.991250 0.0970 0.1020 61.436240 67.678050 80.710790 72.796370 2.0 104.0 1.0 17.50 200.0 10.833330 307.50 198.0 10.833330
17.90 17.903940 33131.0 184.10 7.99750 0.0970 0.1020 61.435590 67.677050 80.710250 72.795650 2.0 104.0 1.0 17.750 200.0 10.0 305.0 198.0 10.0
17.89 17.897260 33050.50 184.150 8.003750 0.0970 0.1020 61.434930 67.676050 80.709710 72.794920 2.0 104.0 1.0 18.0 200.0 10.0 302.50 198.0 10.0
17.88 17.890580 32970.0 184.20 8.010 0.0970 0.1020 61.434270 67.675050 80.709170 72.794190 2.0 104.0 1.0 18.0 200.0 10.0 300.0 198.0 10.0
17.87 17.877230 33086.0 184.30 8.010 0.0970 0.1020 61.434080 67.675440 80.709610 72.795080 2.0 104.0 1.0 18.0 200.0 10.0 300.0 198.0 10.0
17.86 17.863880 33145.0 184.40 8.010 0.0970 0.1020 61.433890 67.675820 80.710060 72.795960 2.0 104.0 1.0 18.0 200.0 10.0 300.0 198.0 10.0
17.85 17.857210 33067.0 184.450 8.010 0.0970 0.1020 61.433710 67.676210 80.710510 72.796840 2.0 104.0 1.0 18.0 200.0 9.919350 300.0 198.0 9.919350
17.84 17.850530 32989.0 184.50 8.010 0.0970 0.1020 61.433520 67.676590 80.710950 72.797730 2.0 104.0 1.0 17.750 200.0 9.838710 300.0 198.0 9.838710
17.83 17.837180 33275.0 184.60 8.010 0.0970 0.1020 61.442980 67.688570 80.719150 72.787440 2.0 104.0 1.0 17.50 200.0 9.758060 300.0 198.0 9.758060
17.82 17.823830 32963.0 184.70 8.010 0.0970 0.1020 61.452440 67.700550 80.727350 72.777160 2.0 104.0 1.0 17.250 200.0 9.677420 300.0 198.0 9.677420
17.81 17.817150 32938.50 184.750 8.010 0.0970 0.1020 61.46190 67.712530 80.735550 72.766870 2.0 104.0 1.0 17.0 200.0 10.59140 300.0 198.0 10.59140
17.80 17.810470 32914.0 184.80 8.010 0.0970 0.1020 61.471360 67.724510 80.743740 72.756590 2.0 104.0 1.0 17.0 200.0 11.505380 300.0 198.0 11.505380
17.79 17.797910 33066.0 184.90 7.99750 0.0970 0.1020 61.471490 67.724040 80.744380 72.756750 2.0 104.0 1.0 17.0 200.0 12.419350 300.0 198.0 12.419350
17.78 17.783770 32766.0 185.0 7.9850 0.0970 0.1020 61.471610 67.723580 80.745020 72.75690 2.0 104.0 1.0 17.0 200.0 13.333330 300.0 198.0 13.333330
17.77 17.777490 32832.0 185.050 7.97250 0.0970 0.1020 61.471740 67.723120 80.745660 72.757060 2.0 104.0 1.0 17.0 200.0 13.333330 300.0 198.0 13.333330
17.76 17.77120 32898.0 185.10 7.960 0.0970 0.1020 61.471860 67.722660 80.74630 72.757220 2.0 104.0 1.0 17.0 200.0 13.333330 300.0 198.0 13.333330
17.75 17.757850 32824.0 185.20 7.94750 0.0970 0.1020 61.471930 67.722270 80.745750 72.757060 2.0 104.0 1.0 17.0 200.0 13.333330 300.0 198.0 13.333330
17.74 17.74450 32793.0 185.30 7.9350 0.0970 0.1020 61.471990 67.721890 80.745210 72.75690 2.0 104.0 1.0 17.0 200.0 13.333330 300.0 198.0 13.333330
17.73 17.737820 32849.50 185.350 7.92250 0.0970 0.1020 61.472050 67.72150 80.744670 72.756750 2.0 104.0 1.0 17.0 200.0 15.833330 300.0 198.0 15.833330
17.72 17.731150 32906.0 185.40 7.910 0.0970 0.1020 61.472110 67.721120 80.744130 72.756590 2.0 104.0 1.0 17.0 200.0 18.333330 300.0 198.0 18.333330
17.71 17.71780 32767.0 185.50 7.910 0.0970 0.1020 61.463120 67.710560 80.736020 72.766750 2.0 104.0 1.0 17.0 200.0 20.833330 300.0 198.0 20.833330
17.70 17.704450 33068.0 185.60 7.910 0.0970 0.1020 61.454130 67.700010 80.727920 72.776910 2.0 104.0 1.0 17.0 200.0 23.333330 300.0 198.0 23.333330
17.69 17.698160 32990.0 185.650 7.910 0.0970 0.1020 61.445140 67.689460 80.719820 72.787060 2.0 104.0 1.0 17.0 200.0 28.333330 300.0 198.0 28.333330
17.68 17.691880 32912.0 185.70 7.910 0.0970 0.1020 61.436150 67.67890 80.711720 72.797220 2.0 104.0 1.0 17.250 200.0 33.333330 300.0 198.0 33.333330
17.67 17.678530 32759.0 185.80 7.910 0.0970 0.1020 61.445140 67.689030 80.719950 72.78710 2.0 104.0 1.0 17.50 200.0 38.333330 300.0 198.0 38.333330
17.66 17.665180 33016.0 185.90 7.910 0.0970 0.1020 61.454130 67.699160 80.728180 72.776970 2.0 104.0 1.0 17.750 200.0 43.333330 300.0 198.0 43.333330
17.65 17.65850 32832.0 185.950 7.910 0.0970 0.1020 61.463120 67.709290 80.736410 72.766840 2.0 104.0 1.0 18.0 200.0 38.333330 300.0 198.0 38.333330
17.64 17.651820 32648.0 186.0 7.910 0.0970 0.1020 61.472110 67.719420 80.744640 72.756720 2.0 104.0 1.0 18.250 200.0 33.333330 300.0 198.0 33.333330
17.63 17.638470 32900.0 186.10 7.903750 0.0970 0.1020 61.463250 67.709560 80.735740 72.766150 2.0 104.0 1.0 18.50 200.0 28.333330 300.0 198.0 28.333330
17.62 17.625120 33077.0 186.20 7.89750 0.0970 0.1020 61.454380 67.69970 80.726840 72.775580 2.0 104.0 1.0 18.750 200.0 23.333330 300.0 198.0 23.333330
17.61 17.618440 32951.50 186.250 7.891250 0.0970 0.1020 61.445520 67.689840 80.717940 72.785010 2.0 104.0 1.0 19.0 200.0 21.666670 300.0 198.0 21.666670
17.60 17.611770 32826.0 186.30 7.8850 0.0970 0.1020 61.436650 67.679980 80.709040 72.794450 2.0 104.0 1.0 18.250 200.0 20.0 300.0 198.0 20.0
