~VERSION INFORMATION SECTION
VERS. 2.0 : CWLS LAS-VERSION 2.0
WRAP. NO : One line per depth step
~WELL INFORMATION SECTION
# MNEM.UNIT VALUE/NAME DESCRIPTION
#-------- -------------- ---------------------
STRT.Metres 28 : Start
STOP.Metres 0.42 : Stop
STEP.Metres -0.01 : Step
NULL.  -999.25 :NULL VALUE
DATE. 2026-57-05 : DATE
~CURVE INFORMATION SECTION
DEPTH.Metres : 0 Depth
Depth. : 1 Depth
Tension. : 2 Tension
Time. : 3 Time
Speed. : 4 Speed
Voltage. : 5 Voltage
Current. : 6 Current
X1.mm : 7 X1
X2.mm : 8 X2
Y1.mm : 9 Y1
Y2.mm : 10 Y2
MotorCurrent.mA : 11 Motor Current
HeadVoltage.V : 12 Head Voltage
WET. : 13 WET
Sig. : 14 Sig
Vth. : 15 Vth
GR.CPS : 16 GR
Timebase.ms : 17 Timebase
HeadVoltage.V : 18 Head Voltage
API.API : 19 API
~PARAMETER INFORMATION SECTION
~OTHER
#-------------------------------------------------
#Produced By: GeoVista Logger - Version 7.1.107.0
Natural Gamma Sonde - 9515
WLIS - 9387
Caliper Sonde (4 Arm) - 6341
#-------------------------------------------------
~ASCII LOG DATA
# ...
5.95 5.959990 33028.50 273.850 7.960 0.0970 0.1020 61.415980 67.691150 79.838370 72.749110 2.0 104.0 1.0 10.0 200.0 25.0 300.0 198.0 25.0
5.94 5.953320 32982.0 273.90 7.960 0.0970 0.1020 61.425250 67.70140 79.846230 72.738420 2.0 104.0 1.0 10.0 200.0 20.0 300.0 198.0 20.0
5.93 5.939970 32855.0 274.0 7.960 0.0970 0.1020 61.416070 67.691230 79.838790 72.748540 2.0 104.0 1.0 10.0 200.0 15.0 300.0 198.0 15.0
5.92 5.926610 32997.0 274.10 7.960 0.0970 0.1020 61.406890 67.681060 79.831350 72.758670 2.0 104.0 1.0 10.0 200.0 10.0 300.0 198.0 10.0
5.91 5.919940 33069.50 274.150 7.960 0.0970 0.1020 61.397710 67.670890 79.823910 72.76880 2.0 104.0 1.0 10.0 200.0 14.166670 300.0 198.0 14.166670
5.90 5.913260 33142.0 274.20 7.960 0.0970 0.1020 61.388530 67.660720 79.816480 72.778930 2.0 104.0 1.0 10.0 200.0 18.333330 300.0 198.0 18.333330
5.89 5.899910 32695.0 274.30 7.967140 0.0970 0.1020 61.38850 67.659990 79.815620 72.778890 2.0 104.0 1.0 10.0 200.0 22.50 300.0 198.0 22.50
5.88 5.886560 32792.0 274.40 7.974290 0.0970 0.1020 61.388470 67.659260 79.814750 72.778860 2.0 104.0 1.0 10.0 200.0 26.666670 300.0 198.0 26.666670
5.87 5.879880 32822.50 274.450 7.981430 0.0970 0.1020 61.388440 67.658530 79.813890 72.778830 2.0 104.0 1.0 10.0 200.0 29.166670 300.0 198.0 29.166670
5.86 5.873210 32853.0 274.50 7.988570 0.0970 0.1020 61.388410 67.657790 79.813030 72.77880 2.0 104.0 1.0 10.250 200.0 31.666670 300.0 198.0 31.666670
5.85 5.859860 33294.0 274.60 7.995710 0.0970 0.1020 61.387940 67.657950 79.812330 72.778930 2.0 104.0 1.0 10.50 200.0 34.166670 300.0 198.0 34.166670
5.84 5.84650 32914.0 274.70 8.002860 0.0970 0.1020 61.387470 67.65810 79.811630 72.779050 2.0 104.0 1.0 10.750 200.0 36.666670 300.0 198.0 36.666670
5.83 5.833150 32373.0 274.80 8.010 0.0970 0.1020 61.3870 67.658260 79.810920 72.779180 2.0 104.0 1.0 11.0 200.0 30.0 300.0 198.0 30.0
5.82 5.826870 32494.0 274.850 8.010 0.0970 0.1020 61.386530 67.658410 79.810220 72.77930 2.0 104.0 1.0 10.750 200.0 23.333330 300.0 198.0 23.333330
5.81 5.820590 32615.0 274.90 8.010 0.0970 0.1020 61.396550 67.668810 79.819320 72.768990 2.0 104.250 1.0 10.50 200.0 16.666670 300.0 198.0 16.666670
5.80 5.807230 32981.0 275.0 8.010 0.0970 0.1020 61.406580 67.679210 79.828420 72.758670 2.0 104.50 1.0 10.250 200.0 10.0 300.0 198.0 10.0
5.79 5.800170 32955.0 275.050 8.010 0.0970 0.1020 61.41660 67.689610 79.837510 72.748360 2.0 104.750 1.0 10.0 200.0 14.166670 300.0 198.0 14.166670
5.78 5.79310 32929.0 275.10 8.010 0.0970 0.1020 61.426630 67.700010 79.846610 72.738040 2.0 105.0 1.0 10.250 200.0 18.333330 300.0 198.0 18.333330
5.77 5.779750 32994.0 275.20 8.010 0.0970 0.1020 61.417640 67.689920 79.838820 72.748010 2.0 105.0 1.0 10.50 200.0 22.50 302.50 198.0 22.50
5.76 5.766390 32968.0 275.30 8.010 0.0970 0.1020 61.408640 67.679830 79.831030 72.757980 2.0 105.0 1.0 10.750 200.0 26.666670 305.0 198.0 26.666670
5.75 5.759720 32850.50 275.350 8.010 0.0970 0.1020 61.399650 67.669730 79.823240 72.767950 2.0 105.0 1.0 11.0 200.0 30.833330 307.50 198.0 30.833330
5.74 5.753040 32733.0 275.40 8.010 0.0970 0.1020 61.390660 67.659640 79.815460 72.777920 2.0 105.0 1.0 10.50 200.0 35.0 310.0 198.0 35.0
5.73 5.739690 32605.0 275.50 8.030 0.0970 0.1020 61.389780 67.658910 79.814530 72.777690 2.0 104.750 1.0 10.0 200.0 39.166670 307.50 198.0 39.166670
5.72 5.726340 32893.0 275.60 8.050 0.0970 0.1020 61.388910 67.658180 79.813610 72.777470 2.0 104.50 1.0 9.50 200.0 43.333330 305.0 198.0 43.333330
5.71 5.713770 33127.0 275.70 8.070 0.0970 0.1020 61.388030 67.657450 79.812680 72.777250 2.0 104.250 1.0 9.0 200.0 36.666670 302.50 198.0 36.666670
5.70 5.70710 33019.0 275.750 8.090 0.0970 0.1020 61.387150 67.656720 79.811750 72.777030 2.0 104.0 1.0 9.50 200.0 30.0 300.0 198.0 30.0
5.69 5.700420 32911.0 275.80 8.110 0.0970 0.1020 61.39740 67.667080 79.820280 72.767160 2.0 104.0 1.0 10.0 200.0 23.333330 300.0 198.0 23.333330
5.68 5.687070 32594.0 275.90 8.130 0.0970 0.1020 61.407640 67.677440 79.82880 72.757280 2.0 104.0 1.0 10.50 200.0 16.666670 300.0 198.0 16.666670
5.67 5.67450 32845.0 276.0 8.150 0.0970 0.1020 61.417890 67.68780 79.837320 72.747410 2.0 104.0 1.0 11.0 200.0 22.983870 300.0 198.0 22.983870
5.66 5.667830 32825.0 276.050 8.113750 0.0970 0.1020 61.428130 67.698160 79.845840 72.737530 2.0 104.0 1.0 10.750 200.0 29.301080 300.0 198.0 29.301080
5.65 5.661150 32805.0 276.10 8.07750 0.0970 0.1020 61.428130 67.699780 79.84610 72.737980 2.0 104.0 1.0 10.50 200.0 35.618280 300.0 198.0 35.618280
5.64 5.64780 32604.0 276.20 8.041250 0.0970 0.1020 61.428130 67.70140 79.846350 72.738420 2.0 104.0 1.0 10.250 200.0 41.935480 300.0 198.0 41.935480
5.63 5.634450 32779.0 276.30 8.0050 0.0970 0.1020 61.428130 67.703010 79.846610 72.738860 2.0 104.0 1.0 10.0 200.0 36.451610 300.0 198.0 36.451610
5.62 5.627770 32793.50 276.350 7.968750 0.0970 0.1020 61.428130 67.704630 79.846860 72.73930 2.0 104.0 1.0 10.250 200.0 30.967740 300.0 198.0 30.967740
5.61 5.621090 32808.0 276.40 7.93250 0.0970 0.1020 61.427820 67.704170 79.846990 72.739140 2.0 104.0 1.0 10.50 200.0 25.483870 300.0 198.0 25.483870
5.60 5.607740 32798.0 276.50 7.896250 0.0970 0.1020 61.42750 67.703710 79.847120 72.738990 2.0 104.0 1.0 10.750 200.0 20.0 300.0 198.0 20.0
5.59 5.594390 32649.0 276.60 7.860 0.0970 0.1020 61.427190 67.703250 79.847250 72.738830 2.0 104.0 1.0 11.0 200.0 23.333330 300.0 198.0 23.333330
5.58 5.587720 32787.50 276.650 7.878750 0.0970 0.1020 61.426880 67.702780 79.847370 72.738670 2.0 104.0 1.0 10.750 200.0 26.666670 300.0 198.0 26.666670
5.57 5.581040 32926.0 276.70 7.89750 0.0970 0.1020 61.417670 67.692230 79.838820 72.748230 2.0 104.0 1.0 10.50 200.0 30.0 300.0 198.0 30.0
5.56 5.567690 32818.0 276.80 7.916250 0.0970 0.10 61.408460 67.681680 79.830270 72.757790 2.0 104.0 1.0 10.250 200.0 33.333330 300.0 198.0 33.333330
5.55 5.554340 32903.0 276.90 7.9350 0.0970 0.1020 61.399250 67.671120 79.821710 72.767350 2.0 104.0 1.0 10.0 200.0 30.833330 300.0 198.0 30.833330
5.54 5.547660 32841.50 276.950 7.953750 0.0970 0.1020 61.390040 67.660570 79.813160 72.776910 2.0 104.0 1.0 10.250 200.0 28.333330 300.0 198.0 28.333330
5.53 5.540980 32780.0 277.0 7.97250 0.0970 0.1020 61.389160 67.659720 79.813090 72.776750 2.0 104.0 1.0 10.50 200.0 25.833330 300.0 198.0 25.833330
5.52 5.527630 32688.0 277.10 7.991250 0.0970 0.1020 61.388280 67.658870 79.813030 72.776590 2.0 104.0 1.0 10.750 200.0 23.333330 300.0 198.0 23.333330
5.51 5.514280 32835.0 277.20 8.010 0.0970 0.1020 61.38740 67.658020 79.812970 72.776430 2.0 104.0 1.0 11.0 200.0 26.666670 300.0 198.0 26.666670
5.50 5.50760 32904.50 277.250 8.010 0.0970 0.1020 61.386530 67.657180 79.81290 72.776280 2.0 104.0 1.0 10.750 200.0 30.0 300.0 198.0 30.0
5.49 5.500930 32974.0 277.30 8.010 0.0970 0.1020 61.395580 67.667380 79.821110 72.766680 2.0 104.0 1.0 10.50 200.0 33.333330 300.0 198.0 33.333330
5.48 5.488360 32809.0 277.40 8.010 0.0970 0.1020 61.404630 67.677590 79.829310 72.757090 2.0 104.0 1.0 10.250 200.0 36.666670 300.0 198.0 36.666670
5.47 5.474230 32704.0 277.50 8.010 0.0970 0.1020 61.413690 67.68780 79.837510 72.74750 2.0 104.0 1.0 10.0 200.0 35.0 300.0 198.0 35.0
5.46 5.467550 32748.50 277.550 8.010 0.0970 0.1020 61.422740 67.698010 79.845710 72.737910 2.0 104.0 1.0 10.0 200.0 33.333330 300.0 198.0 33.333330
5.45 5.460870 32793.0 277.60 8.010 0.0970 0.1020 61.414440 67.688340 79.837480 72.747030 2.0 104.0 1.0 10.0 200.0 31.666670 300.0 198.0 31.666670
5.44 5.447520 32726.0 277.70 8.010 0.0970 0.1020 61.406140 67.678670 79.829240 72.756150 2.0 104.0 1.0 10.0 200.0 30.0 300.0 198.0 30.0
5.43 5.434170 32628.0 277.80 8.010 0.0970 0.1020 61.397840 67.6690 79.821010 72.765270 2.0 104.0 1.0 10.0 200.0 31.666670 300.0 198.0 31.666670
5.42 5.427490 32616.0 277.850 8.0150 0.0970 0.1020 61.389530 67.659330 79.812780 72.774380 2.0 104.0 1.0 10.0 200.0 33.333330 300.0 198.0 33.333330
5.41 5.420820 32604.0 277.90 8.020 0.0970 0.1020 61.398180 67.668960 79.820310 72.765490 2.0 104.0 1.0 10.0 200.0 35.0 300.0 198.0 35.0
5.40 5.408250 32634.0 278.0 8.0250 0.0970 0.1020 61.406830 67.678590 79.827840 72.756590 2.0 104.0 1.0 10.0 200.0 36.666670 300.0 198.0 36.666670
