~VERSION INFORMATION SECTION
VERS. 2.0 : CWLS LAS-VERSION 2.0
WRAP. NO : One line per depth step
~WELL INFORMATION SECTION
# MNEM.UNIT VALUE/NAME DESCRIPTION
#-------- -------------- ---------------------
STRT.Metres 28 : Start
STOP.Metres 0.42 : Stop
STEP.Metres -0.01 : Step
NULL.  -999.25 :NULL VALUE
DATE. 2026-57-05 : DATE
~CURVE INFORMATION SECTION
DEPTH.Metres : 0 Depth
Depth. : 1 Depth
Tension. : 2 Tension
Time. : 3 Time
Speed. : 4 Speed
Voltage. : 5 Voltage
Current. : 6 Current
X1.mm : 7 X1
X2.mm : 8 X2
Y1.mm : 9 Y1
Y2.mm : 10 Y2
MotorCurrent.mA : 11 Motor Current
HeadVoltage.V : 12 Head Voltage
WET. : 13 WET
Sig. : 14 Sig
Vth. : 15 Vth
GR.CPS : 16 GR
Timebase.ms : 17 Timebase
HeadVoltage.V : 18 Head Voltage
API.API : 19 API
~PARAMETER INFORMATION SECTION
~OTHER
#-------------------------------------------------
#Produced By: GeoVista Logger - Version 7.1.107.0
Natural Gamma Sonde - 9515
WLIS - 9387
Caliper Sonde (4 Arm) - 6341
#-------------------------------------------------
~ASCII LOG DATA
28.00 -999.25 -999.25 -999.25 -999.25 -999.25 -999.25 -999.25 -999.25 -999.25 -999.25 -999.25 -999.25 -999.25 -999.25 -999.25 -999.25 -999.25 -999.25 -999.25
27.99 27.997870 33308.50 108.350 -999.25 0.0970 0.1020 -999.25 -999.25 -999.25 -999.25 -999.25 -999.25 -999.25 -999.25 -999.25 -999.25 -999.25 -999.25 -999.25
27.98 27.991590 33350.0 108.40 -999.25 0.0970 0.1020 9.672090 9.141530 11.668180 14.714990 0.50 26.0 -999.25 -999.25 -999.25 -999.25 -999.25 -999.25 -999.25
27.97 27.978240 33227.0 108.50 -999.25 0.0970 0.1040 19.344170 18.283060 23.336360 29.429970 1.0 52.0 -999.25 -999.25 -999.25 -999.25 -999.25 -999.25 -999.25
27.96 27.964890 33246.0 108.60 -999.25 0.0970 0.1020 29.016260 27.42460 35.004540 44.144960 1.50 78.0 -999.25 -999.25 -999.25 -999.25 -999.25 -999.25 -999.25
27.95 27.958210 33191.0 108.650 0.9950 0.0970 0.1020 38.688350 36.566130 46.672720 58.859940 2.0 104.0 -999.25 -999.25 -999.25 -999.25 -999.25 -999.25 -999.25
27.94 27.951540 33136.0 108.70 1.990 0.0970 0.1020 38.679560 36.555890 46.664570 58.86910 2.0 104.0 -999.25 -999.25 -999.25 -999.25 -999.25 -999.25 -999.25
27.93 27.938180 32885.0 108.80 2.9850 0.0970 0.1020 38.670780 36.545660 46.656420 58.878250 2.0 104.0 -999.25 -999.25 -999.25 -999.25 -999.25 -999.25 -999.25
27.92 27.924830 33370.0 108.90 3.980 0.0970 0.1020 38.661990 36.535430 46.648270 58.88740 2.0 104.0 -999.25 -999.25 -999.25 -999.25 -999.25 -999.25 -999.25
27.91 27.918160 33373.0 108.950 4.9750 0.0970 0.1020 38.653210 36.52520 46.640120 58.896550 2.0 104.0 -999.25 -999.25 -999.25 -999.25 -999.25 -999.25 -999.25
27.90 27.911480 33376.0 109.0 5.970 0.0970 0.1020 38.661330 36.535150 46.648630 58.88730 2.0 104.0 -999.25 -999.25 -999.25 -999.25 -999.25 -999.25 -999.25
27.89 27.898130 33256.0 109.10 6.9650 0.0970 0.1020 38.669450 36.54510 46.657140 58.878060 2.0 104.0 -999.25 -999.25 -999.25 -999.25 -999.25 -999.25 -999.25
27.88 27.884780 33265.0 109.20 7.960 0.0970 0.10 38.677570 36.555060 46.665650 58.868810 2.0 104.0 -999.25 -999.25 -999.25 -999.25 -999.25 -999.25 -999.25
27.87 27.87810 33384.0 109.250 7.960 0.0970 0.1010 38.685690 36.565010 46.674160 58.859560 2.0 104.0 -999.25 -999.25 -999.25 -999.25 -999.25 -999.25 -999.25
27.86 27.871420 33503.0 109.30 7.960 0.0970 0.1020 38.677570 36.555140 46.665970 58.867950 2.0 104.0 -999.25 -999.25 -999.25 -999.25 -999.25 -999.25 -999.25
27.85 27.858070 33492.0 109.40 7.960 0.0970 0.1020 38.669450 36.545260 46.657790 58.876340 2.0 104.0 -999.25 -999.25 -999.25 -999.25 -999.25 -999.25 -999.25
27.84 27.844720 33142.0 109.50 7.960 0.0970 0.1020 38.661330 36.535390 46.649610 58.884730 2.0 104.0 -999.25 -999.25 -999.25 -999.25 -999.25 -999.25 -999.25
27.83 27.838050 33146.0 109.550 7.960 0.0970 0.1020 38.653210 36.525520 46.641430 58.893120 2.0 104.0 -999.25 -999.25 -999.25 -999.25 -999.25 -999.25 -999.25
27.82 27.831370 33150.0 109.60 7.960 0.0970 0.1020 38.661390 36.535230 46.648960 58.884060 2.0 104.0 -999.25 -999.25 -999.25 -999.25 -999.25 -999.25 -999.25
27.81 27.818020 33410.0 109.70 7.960 0.0970 0.1020 38.669570 36.544950 46.656490 58.875010 2.0 104.0 -999.25 -999.25 -999.25 -999.25 -999.25 -999.25 -999.25
27.80 27.804670 33315.0 109.80 7.960 0.0970 0.1020 38.677760 36.554660 46.664020 58.865950 2.0 104.0 -999.25 -999.25 -999.25 -999.25 -999.25 -999.25 -999.25
27.79 27.798380 33218.0 109.850 7.960 0.0970 0.1020 38.685940 36.564380 46.671550 58.856890 2.0 104.0 -999.25 -999.25 -999.25 -999.25 -999.25 -999.25 -999.25
27.78 27.79210 33121.0 109.90 7.960 0.0970 0.1020 38.677250 36.55430 46.663790 58.866360 2.0 104.0 -999.25 -999.25 -999.25 -999.25 -999.25 -999.25 -999.25
27.77 27.777960 33193.0 110.0 7.960 0.0970 0.1020 38.668560 36.544230 46.656030 58.875830 2.0 104.0 -999.25 -999.25 -999.25 -999.25 -999.25 -999.25 -999.25
27.76 27.764610 33285.0 110.10 7.960 0.0970 0.1020 38.659870 36.534160 46.648270 58.88530 2.0 104.0 -999.25 -999.25 -999.25 -999.25 -999.25 -999.25 -999.25
27.75 27.758330 33357.50 110.150 7.960 0.0970 0.1020 38.651180 36.524080 46.640510 58.894770 2.0 104.0 -999.25 -999.25 -999.25 -999.25 -999.25 -999.25 -999.25
27.74 27.752040 33430.0 110.20 7.960 0.0970 0.1020 38.65980 36.534080 46.649050 58.885910 2.0 104.0 -999.25 -999.25 -999.25 -999.25 -999.25 -999.25 -999.25
27.73 27.737910 33361.0 110.30 7.960 0.0970 0.1020 38.668430 36.544070 46.65760 58.877040 2.0 104.0 -999.25 -999.25 -999.25 -999.25 -999.25 -999.25 -999.25
27.72 27.724560 33392.0 110.40 7.960 0.0970 0.1020 38.677060 36.554060 46.666140 58.868170 2.0 104.0 -999.25 -999.25 -999.25 -999.25 -999.25 -999.25 -999.25
27.71 27.718270 33270.50 110.450 7.966250 0.0970 0.1020 38.685690 36.564060 46.674680 58.859310 2.0 104.0 -999.25 -999.25 -999.25 -999.25 -999.25 -999.25 -999.25
27.70 27.711990 33149.0 110.50 7.97250 0.0970 0.1020 38.677880 36.554260 46.666790 58.867920 2.0 104.0 -999.25 -999.25 -999.25 -999.25 -999.25 -999.25 -999.25
27.69 27.698640 33068.0 110.60 7.978750 0.0970 0.1020 38.670080 36.544470 46.65890 58.876530 2.0 104.0 -999.25 -999.25 -999.25 -999.25 -999.25 -999.25 -999.25
27.68 27.685290 33433.0 110.70 7.9850 0.0970 0.1020 38.662280 36.534670 46.651010 58.885140 2.0 104.0 -999.25 -999.25 -999.25 -999.25 -999.25 -999.25 -999.25
27.67 27.678610 33408.50 110.750 7.991250 0.0970 0.1020 38.654470 36.524880 46.643120 58.893760 2.0 104.0 -999.25 -999.25 -999.25 -999.25 -999.25 -999.25 -999.25
27.66 27.671930 33384.0 110.80 7.99750 0.0970 0.1020 38.653620 36.524360 46.644490 58.893630 2.0 104.0 -999.25 -999.25 -999.25 -999.25 -999.25 -999.25 -999.25
27.65 27.658580 32971.0 110.90 8.003750 0.0970 0.1020 38.652760 36.523840 46.645860 58.89350 2.0 104.0 -999.25 -999.25 -999.25 -999.25 -999.25 -999.25 -999.25
27.64 27.645230 33049.0 111.0 8.010 0.0970 0.1020 38.65190 36.523330 46.647230 58.893370 2.0 104.0 -999.25 -999.25 -999.25 -999.25 -999.25 -999.25 -999.25
27.63 27.638550 33221.50 111.050 8.003750 0.0970 0.1020 38.651050 36.522810 46.64860 58.893250 2.0 104.0 -999.25 -999.25 -999.25 -999.25 -999.25 -999.25 -999.25
27.62 27.631880 33394.0 111.10 7.99750 0.0970 0.1020 38.65980 36.533560 46.657890 58.884380 2.0 104.0 -999.25 -999.25 -999.25 -999.25 -999.25 -999.25 -999.25
27.61 27.618530 33278.0 111.20 7.991250 0.0970 0.1020 38.668560 36.544310 46.667180 58.875510 2.0 104.0 -999.25 -999.25 -999.25 -999.25 -999.25 -999.25 -999.25
27.60 27.605170 32903.0 111.30 7.9850 0.0970 0.1020 38.677310 36.555060 46.676470 58.866650 2.0 104.0 -999.25 -999.25 -999.25 -999.25 -999.25 -999.25 -999.25
27.59 27.59850 33064.50 111.350 7.978750 0.0970 0.1020 38.686070 36.565810 46.685760 58.857780 2.0 104.0 -999.25 -999.25 -999.25 -999.25 -999.25 -999.25 -999.25
27.58 27.591820 33226.0 111.40 7.97250 0.0970 0.1020 38.686570 36.566090 46.688660 58.857180 2.0 104.0 -999.25 -999.25 -999.25 -999.25 -999.25 -999.25 -999.25
27.57 27.578470 33236.0 111.50 7.966250 0.0970 0.1020 38.687080 36.566370 46.691560 58.856570 2.0 104.0 -999.25 -999.25 -999.25 -999.25 -999.25 -999.25 -999.25
27.56 27.565120 33149.0 111.60 7.960 0.0970 0.1020 38.687590 36.566640 46.694470 58.855970 2.0 104.0 -999.25 -999.25 -999.25 -999.25 -999.25 -999.25 -999.25
27.55 27.558440 33074.50 111.650 7.966250 0.0970 0.1020 38.68810 36.566920 46.697370 58.855370 2.0 104.0 -999.25 -999.25 -999.25 -999.25 -999.25 -999.25 -999.25
27.54 27.551770 33000.0 111.70 7.97250 0.0970 0.1020 38.679310 36.556090 46.691430 58.864740 2.0 104.0 -999.25 -999.25 -999.25 -999.25 -999.25 -999.25 -999.25
27.53 27.538420 32949.0 111.80 7.978750 0.0970 0.1020 38.670520 36.545260 46.68550 58.874120 2.0 104.0 -999.25 -999.25 -999.25 -999.25 -999.25 -999.25 -999.25
27.52 27.525060 32931.0 111.90 7.9850 0.0970 0.1020 38.661740 36.534430 46.679570 58.883490 2.0 104.0 -999.25 -999.25 -999.25 -999.25 -999.25 -999.25 -999.25
27.51 27.518390 32909.50 111.950 7.991250 0.0970 0.1020 38.652950 36.52360 46.673640 58.892870 2.0 104.0 -999.25 -999.25 -999.25 -999.25 -999.25 -999.25 -999.25
27.50 27.511710 32888.0 112.0 7.99750 0.0970 0.1020 38.652130 36.523370 46.685140 58.892870 2.0 104.0 -999.25 -999.25 -999.25 -999.25 -999.25 -999.25 -999.25
