~VERSION INFORMATION SECTION
VERS. 2.0 : CWLS LAS-VERSION 2.0
WRAP. NO : One line per depth step
~WELL INFORMATION SECTION
# MNEM.UNIT VALUE/NAME DESCRIPTION
#-------- -------------- ---------------------
STRT.Metres 28 : Start
STOP.Metres 0.42 : Stop
STEP.Metres -0.01 : Step
NULL.  -999.25 :NULL VALUE
DATE. 2026-57-05 : DATE
~CURVE INFORMATION SECTION
DEPTH.Metres : 0 Depth
Depth. : 1 Depth
Tension. : 2 Tension
Time. : 3 Time
Speed. : 4 Speed
Voltage. : 5 Voltage
Current. : 6 Current
X1.mm : 7 X1
X2.mm : 8 X2
Y1.mm : 9 Y1
Y2.mm : 10 Y2
MotorCurrent.mA : 11 Motor Current
HeadVoltage.V : 12 Head Voltage
WET. : 13 WET
Sig. : 14 Sig
Vth. : 15 Vth
GR.CPS : 16 GR
Timebase.ms : 17 Timebase
HeadVoltage.V : 18 Head Voltage
API.API : 19 API
~PARAMETER INFORMATION SECTION
~OTHER
#-------------------------------------------------
#Produced By: GeoVista Logger - Version 7.1.107.0
Natural Gamma Sonde - 9515
WLIS - 9387
Caliper Sonde (4 Arm) - 6341
#-------------------------------------------------
~ASCII LOG DATA
# ...
19.79 19.795960 32961.0 169.90 8.026250 0.0970 0.10 61.43440 67.678590 80.709680 72.798990 2.0 104.0 1.0 10.50 200.0 39.166670 300.0 198.0 39.166670
19.78 19.789280 32942.0 169.950 8.00250 0.0970 0.1010 61.434770 67.678360 80.709480 72.798640 2.0 104.0 1.0 10.750 200.0 43.333330 300.0 198.0 43.333330
19.77 19.782610 32923.0 170.0 7.978750 0.0970 0.1020 61.435150 67.678130 80.709290 72.79830 2.0 104.0 1.0 11.0 200.0 45.0 300.0 198.0 45.0
19.76 19.769260 32995.0 170.10 7.9550 0.0970 0.1020 61.435520 67.67790 80.70910 72.797950 2.0 104.0 1.0 11.0 200.0 46.666670 300.0 198.0 46.666670
19.75 19.755910 32949.0 170.20 7.931250 0.0970 0.1020 61.43590 67.677670 80.708910 72.79760 2.0 104.0 1.0 11.0 200.0 48.333330 300.0 198.0 48.333330
19.74 19.749230 33013.0 170.250 7.90750 0.0970 0.1020 61.445140 67.68830 80.718350 72.788070 2.0 104.0 1.0 11.0 200.0 50.0 300.0 198.0 50.0
19.73 19.742550 33077.0 170.30 7.883750 0.0970 0.1020 61.454380 67.698930 80.727790 72.778550 2.0 104.0 1.0 11.0 200.0 44.166670 300.0 198.0 44.166670
19.72 19.72920 33320.0 170.40 7.860 0.0970 0.1020 61.463620 67.709560 80.737240 72.769020 2.0 104.0 1.0 11.250 200.0 38.333330 300.0 198.0 38.333330
19.71 19.715850 33304.0 170.50 7.87250 0.0970 0.1020 61.472870 67.720190 80.746680 72.759490 2.0 104.0 1.0 11.50 200.0 32.50 300.0 198.0 32.50
19.70 19.709170 33313.0 170.550 7.8850 0.0970 0.1020 61.464820 67.709990 80.737810 72.768670 2.0 104.0 1.0 11.750 200.0 26.666670 300.0 198.0 26.666670
19.69 19.70250 33322.0 170.60 7.89750 0.0970 0.1020 61.456760 67.699780 80.728940 72.777850 2.0 104.0 1.0 12.0 200.0 30.833330 300.0 198.0 30.833330
19.68 19.689150 33116.0 170.70 7.910 0.0970 0.10 61.448710 67.689570 80.720080 72.787030 2.0 104.0 1.0 12.0 200.0 35.0 300.0 198.0 35.0
19.67 19.675790 32894.0 170.80 7.92250 0.0970 0.1020 61.440660 67.679360 80.711210 72.796210 2.0 104.0 1.0 12.0 200.0 39.166670 300.0 198.0 39.166670
19.66 19.669120 32933.0 170.850 7.9350 0.0970 0.1020 61.448780 67.690110 80.720080 72.787130 2.0 104.0 1.0 12.0 200.0 43.333330 300.0 198.0 43.333330
19.65 19.662440 32972.0 170.90 7.94750 0.0970 0.1020 61.456890 67.700860 80.728940 72.778040 2.0 104.0 1.0 12.0 200.0 45.833330 300.0 198.0 45.833330
19.64 19.649090 33137.0 171.0 7.960 0.0970 0.1020 61.4650 67.71160 80.737810 72.768960 2.0 104.0 1.0 12.0 200.0 48.333330 300.0 198.0 48.333330
19.63 19.635740 33693.0 171.10 7.960 0.0970 0.1020 61.473120 67.722350 80.746680 72.759870 2.0 104.0 1.0 12.0 200.0 50.833330 300.0 198.0 50.833330
19.62 19.629060 33515.50 171.150 7.960 0.0970 0.1020 61.473180 67.723310 80.746620 72.759460 2.0 104.0 1.0 12.0 200.0 53.333330 300.0 198.0 53.333330
19.61 19.622390 33338.0 171.20 7.960 0.0970 0.1020 61.473240 67.724280 80.746550 72.759050 2.0 104.0 1.0 12.0 200.0 48.333330 300.0 198.0 48.333330
19.60 19.609040 32976.0 171.30 7.960 0.0970 0.1020 61.47330 67.725240 80.746490 72.758640 2.0 104.0 1.0 12.250 200.0 43.333330 300.0 198.0 43.333330
19.59 19.596470 32867.0 171.40 7.960 0.0970 0.1020 61.473370 67.72620 80.746420 72.758230 2.0 104.0 1.0 12.50 200.0 38.333330 300.0 198.0 38.333330
19.58 19.589790 33056.0 171.450 7.960 0.0970 0.1020 61.464410 67.714720 80.737970 72.768140 2.0 104.0 1.0 12.750 200.0 33.333330 300.0 198.0 33.333330
19.57 19.583120 33245.0 171.50 7.960 0.0970 0.1020 61.455450 67.703250 80.729520 72.778040 2.0 104.0 1.0 13.0 200.0 30.833330 300.0 198.0 30.833330
19.56 19.569770 33319.0 171.60 7.960 0.0970 0.1020 61.446490 67.691770 80.721060 72.787950 2.0 104.0 1.0 13.0 200.0 28.333330 300.0 198.0 28.333330
19.55 19.556410 32954.0 171.70 7.966250 0.0970 0.1020 61.437530 67.680290 80.712610 72.797850 2.0 104.0 1.0 13.0 200.0 25.833330 300.0 198.0 25.833330
19.54 19.549740 33076.50 171.750 7.97250 0.0970 0.1020 61.437740 67.679670 80.711970 72.797850 2.0 104.0 1.0 13.0 200.0 23.333330 300.0 198.0 23.333330
19.53 19.543060 33199.0 171.80 7.978750 0.0970 0.1020 61.437950 67.679060 80.711330 72.797850 2.0 104.0 1.0 13.0 200.0 30.833330 300.0 198.0 30.833330
19.52 19.529710 33170.0 171.90 7.9850 0.0970 0.1020 61.438160 67.678440 80.71070 72.797850 2.0 104.0 1.0 13.0 200.0 38.333330 300.0 198.0 38.333330
19.51 19.516360 33305.0 172.0 7.991250 0.0970 0.1020 61.446520 67.689690 80.719310 72.787730 2.0 104.0 1.0 13.0 200.0 45.833330 302.50 198.0 45.833330
19.50 19.509680 33186.0 172.050 7.99750 0.0970 0.1030 61.454880 67.700930 80.727920 72.77760 2.0 104.0 1.0 13.0 200.0 53.333330 305.0 198.0 53.333330
19.49 19.503010 33067.0 172.10 8.003750 0.0970 0.1040 61.463250 67.712180 80.736540 72.767470 2.0 104.0 1.0 13.0 200.0 53.333330 307.50 198.0 53.333330
19.48 19.489660 33004.0 172.20 8.010 0.0970 0.1020 61.471610 67.723430 80.745150 72.757350 2.0 104.0 1.0 13.0 200.0 53.333330 310.0 198.0 53.333330
19.47 19.47630 33012.0 172.30 8.010 0.0970 0.1020 61.471910 67.723920 80.745170 72.75730 2.0 104.0 1.0 13.0 200.0 53.333330 307.50 198.0 53.333330
19.46 19.469630 33120.50 172.350 8.010 0.0970 0.1020 61.472210 67.724410 80.74520 72.757250 2.0 104.0 1.0 13.0 200.0 53.333330 305.0 198.0 53.333330
19.45 19.462950 33229.0 172.40 8.010 0.0970 0.1020 61.472520 67.724910 80.745220 72.75720 2.0 104.0 1.0 13.0 200.0 47.50 302.50 198.0 47.50
19.44 19.44960 33238.0 172.50 8.010 0.0970 0.1020 61.472820 67.72540 80.745250 72.757140 2.0 104.0 1.0 13.0 200.0 41.666670 300.0 198.0 41.666670
19.43 19.436250 33064.0 172.60 8.010 0.0970 0.1020 61.473120 67.725890 80.745280 72.757090 2.0 104.0 1.0 13.0 200.0 35.833330 300.0 198.0 35.833330
19.42 19.429570 33086.50 172.650 8.010 0.0970 0.1020 61.473020 67.726050 80.745720 72.757470 2.0 104.0 1.0 13.0 200.0 30.0 300.0 198.0 30.0
19.41 19.42290 33109.0 172.70 8.010 0.0970 0.1020 61.472930 67.72620 80.746170 72.757850 2.0 104.0 1.0 13.0 200.0 34.596770 300.0 198.0 34.596770
19.40 19.409540 33307.0 172.80 8.010 0.0970 0.1020 61.472840 67.726360 80.746620 72.758230 2.0 104.0 1.0 13.250 200.0 39.193550 300.0 198.0 39.193550
19.39 19.396190 33283.0 172.90 8.010 0.0970 0.1020 61.472740 67.726510 80.747060 72.758610 2.0 104.0 1.0 13.50 200.0 43.790320 300.0 198.0 43.790320
19.38 19.389520 33109.50 172.950 8.010 0.0970 0.1020 61.463940 67.715420 80.738480 72.768830 2.0 104.0 1.0 13.750 200.0 48.38710 300.0 198.0 48.38710
19.37 19.382840 32936.0 173.0 8.010 0.0970 0.1020 61.455130 67.704320 80.72990 72.779050 2.0 104.0 1.0 14.0 200.0 40.456990 300.0 198.0 40.456990
19.36 19.369490 33148.0 173.10 8.010 0.0970 0.1020 61.446330 67.693230 80.721320 72.789270 2.0 104.0 1.0 13.50 200.0 32.526880 300.0 198.0 32.526880
19.35 19.356140 32764.0 173.20 8.010 0.0970 0.10 61.437530 67.682140 80.712740 72.799490 2.0 104.0 1.0 13.0 200.0 24.596770 300.0 198.0 24.596770
19.34 19.349850 32856.50 173.250 8.010 0.0970 0.1010 61.4370 67.681060 80.711970 72.799150 2.0 104.0 1.0 12.50 200.0 16.666670 300.0 198.0 16.666670
19.33 19.343570 32949.0 173.30 8.010 0.0970 0.1020 61.436460 67.679980 80.711210 72.79880 2.0 104.0 1.0 12.0 200.0 16.666670 300.0 198.0 16.666670
19.32 19.329430 32894.0 173.40 8.010 0.0970 0.1020 61.435930 67.67890 80.710440 72.798450 2.0 104.0 1.0 12.50 200.0 16.666670 300.0 198.0 16.666670
19.31 19.316080 33096.0 173.50 8.010 0.0970 0.1020 61.43540 67.677820 80.709680 72.798110 2.0 104.0 1.0 13.0 200.0 16.666670 300.0 198.0 16.666670
19.30 19.309410 33187.0 173.550 8.010 0.0970 0.1020 61.434650 67.677570 80.709890 72.797480 2.0 104.0 1.0 13.50 200.0 16.666670 300.0 198.0 16.666670
19.29 19.302730 33278.0 173.60 8.010 0.0970 0.1020 61.433890 67.677310 80.71010 72.796840 2.0 104.0 1.0 14.0 200.0 15.833330 300.0 198.0 15.833330
19.28 19.289380 33177.0 173.70 8.010 0.0970 0.1020 61.433140 67.677050 80.710310 72.796210 2.0 104.0 1.0 13.750 200.0 15.0 300.0 198.0 15.0
19.27 19.276030 33006.0 173.80 8.010 0.0970 0.1020 61.433360 67.67790 80.709770 72.795990 2.0 104.0 1.0 13.50 200.0 14.166670 300.0 198.0 14.166670
19.26 19.269350 32923.0 173.850 8.010 0.0970 0.1020 61.433580 67.678750 80.709230 72.795770 2.0 104.0 1.0 13.250 200.0 13.333330 300.0 198.0 13.333330
19.25 19.262680 32840.0 173.90 8.010 0.0970 0.1020 61.43380 67.67960 80.708690 72.795550 2.0 104.0 1.0 13.0 200.0 18.333330 300.0 198.0 18.333330
