~VERSION INFORMATION SECTION
VERS. 2.0 : CWLS LAS-VERSION 2.0
WRAP. NO : One line per depth step
~WELL INFORMATION SECTION
# MNEM.UNIT VALUE/NAME DESCRIPTION
#-------- -------------- ---------------------
STRT.Metres 28 : Start
STOP.Metres 0.42 : Stop
STEP.Metres -0.01 : Step
NULL.  -999.25 :NULL VALUE
DATE. 2026-57-05 : DATE
~CURVE INFORMATION SECTION
DEPTH.Metres : 0 Depth
Depth. : 1 Depth
Tension. : 2 Tension
Time. : 3 Time
Speed. : 4 Speed
Voltage. : 5 Voltage
Current. : 6 Current
X1.mm : 7 X1
X2.mm : 8 X2
Y1.mm : 9 Y1
Y2.mm : 10 Y2
MotorCurrent.mA : 11 Motor Current
HeadVoltage.V : 12 Head Voltage
WET. : 13 WET
Sig. : 14 Sig
Vth. : 15 Vth
GR.CPS : 16 GR
Timebase.ms : 17 Timebase
HeadVoltage.V : 18 Head Voltage
API.API : 19 API
~PARAMETER INFORMATION SECTION
~OTHER
#-------------------------------------------------
#Produced By: GeoVista Logger - Version 7.1.107.0
Natural Gamma Sonde - 9515
WLIS - 9387
Caliper Sonde (4 Arm) - 6341
#-------------------------------------------------
~ASCII LOG DATA
# ...
10.98 10.986930 32802.0 236.0 7.928750 0.0970 0.1020 61.454760 67.710640 80.349740 72.745550 2.0 104.0 1.0 17.0 200.0 9.677420 300.0 198.0 9.677420
10.97 10.973580 33051.0 236.10 7.9350 0.0970 0.1020 61.454730 67.710260 80.349640 72.745770 2.0 104.0 1.0 17.0 200.0 8.924730 300.0 198.0 8.924730
10.96 10.966910 33041.0 236.150 7.941250 0.0970 0.1020 61.45470 67.709870 80.349550 72.745990 2.0 104.0 1.0 17.0 200.0 8.172040 300.0 198.0 8.172040
10.95 10.960230 33031.0 236.20 7.94750 0.0970 0.1020 61.454670 67.709490 80.349960 72.745520 2.0 104.0 1.0 17.0 200.0 7.419350 300.0 198.0 7.419350
10.94 10.946880 32729.0 236.30 7.953750 0.0970 0.1020 61.454630 67.70910 80.350380 72.745040 2.0 104.0 1.0 17.0 200.0 6.666670 300.0 198.0 6.666670
10.93 10.933530 32779.0 236.40 7.960 0.0970 0.1020 61.45460 67.708710 80.350790 72.744570 2.0 104.0 1.0 17.0 200.0 6.666670 300.0 198.0 6.666670
10.92 10.926850 32896.50 236.450 7.972860 0.0970 0.1020 61.454570 67.708330 80.351210 72.74410 2.0 104.0 1.0 16.750 200.0 6.666670 300.0 198.0 6.666670
10.91 10.920180 33014.0 236.50 7.985710 0.0970 0.1020 61.454380 67.709180 80.350860 72.744510 2.0 104.0 1.0 16.50 200.0 6.666670 300.0 198.0 6.666670
10.90 10.906820 32749.0 236.60 7.998570 0.0970 0.1020 61.45420 67.710020 80.350510 72.744920 2.0 104.0 1.0 16.250 200.0 6.666670 300.0 198.0 6.666670
10.89 10.893470 32886.0 236.70 8.011430 0.0970 0.10 61.454010 67.710870 80.350160 72.745330 2.0 104.0 1.0 16.0 200.0 10.0 300.0 198.0 10.0
10.88 10.88680 33034.0 236.750 8.024290 0.0970 0.1010 61.453820 67.711720 80.34980 72.745740 2.0 104.0 1.0 16.250 200.0 13.333330 300.0 198.0 13.333330
10.87 10.880120 33182.0 236.80 8.037140 0.0970 0.1020 61.454010 67.71180 80.350190 72.745330 2.0 104.0 1.0 16.50 200.0 16.666670 300.0 198.0 16.666670
10.86 10.866770 33048.0 236.950 8.050 0.0970 0.1030 61.45420 67.711870 80.350570 72.744920 2.0 104.0 1.0 16.750 200.0 20.0 300.0 198.0 20.0
10.85 10.858130 33001.0 237.10 8.003750 0.0970 0.1020 61.454380 67.711950 80.350950 72.744510 2.0 104.0 1.0 17.0 200.0 17.777780 300.0 198.0 17.777780
10.84 10.850670 32915.0 237.150 7.95750 0.0970 0.1020 61.454570 67.712030 80.351340 72.74410 2.0 104.0 1.0 16.750 200.0 15.555560 300.0 198.0 15.555560
10.83 10.843210 32829.0 237.20 7.911250 0.0970 0.1020 61.454570 67.711720 80.35070 72.744130 2.0 104.0 1.0 16.50 200.0 13.333330 300.0 198.0 13.333330
10.82 10.829070 32883.0 237.30 7.8650 0.0970 0.1020 61.454570 67.711410 80.350060 72.744160 2.0 104.0 1.0 16.250 200.0 12.50 300.0 198.0 12.50
10.81 10.815720 32951.0 237.40 7.818750 0.0970 0.1020 61.454570 67.71110 80.349420 72.744190 2.0 104.0 1.0 16.0 200.0 11.666670 300.0 198.0 11.666670
10.80 10.809430 33061.50 237.450 7.77250 0.0970 0.1020 61.454570 67.710790 80.348780 72.744220 2.0 104.0 1.0 16.0 200.0 10.833330 300.0 198.0 10.833330
10.79 10.803150 33172.0 237.50 7.726250 0.0970 0.1020 61.445960 67.700240 80.340770 72.75410 2.0 104.0 1.0 16.0 200.0 10.0 300.0 198.0 10.0
10.78 10.789010 32971.0 237.60 7.680 0.0970 0.1020 61.437340 67.689690 80.332770 72.763970 2.0 104.0 1.0 16.0 200.0 10.0 300.0 198.0 10.0
10.77 10.775660 32918.0 237.70 7.738750 0.0970 0.1020 61.428730 67.679130 80.324760 72.773850 2.0 104.0 1.0 16.0 200.0 10.0 300.0 198.0 10.0
10.76 10.769380 32894.50 237.750 7.79750 0.0970 0.1020 61.420110 67.668580 80.316750 72.783720 2.0 104.0 1.0 16.0 200.0 10.0 300.0 198.0 10.0
10.75 10.76310 32871.0 237.80 7.856250 0.0970 0.1020 61.428410 67.678170 80.324820 72.773850 2.0 104.0 1.0 16.0 200.0 10.0 300.0 198.0 10.0
10.74 10.749740 32811.0 237.90 7.9150 0.0970 0.1020 61.436710 67.687760 80.332890 72.763970 2.0 104.0 1.0 16.0 200.0 10.0 300.0 198.0 10.0
10.73 10.736390 32739.0 238.0 7.973750 0.0970 0.1020 61.445020 67.697350 80.340970 72.75410 2.0 104.0 1.0 16.0 200.0 10.0 300.0 198.0 10.0
10.72 10.729720 32717.50 238.050 8.03250 0.0970 0.1020 61.453320 67.706940 80.349040 72.744220 2.0 104.0 1.0 16.0 200.0 10.0 300.0 198.0 10.0
10.71 10.723040 32696.0 238.10 8.091250 0.0970 0.1020 61.453630 67.707210 80.348590 72.744250 2.0 104.0 1.0 16.0 200.0 10.0 300.0 198.0 10.0
10.70 10.709690 32693.0 238.20 8.150 0.0970 0.1020 61.453940 67.707480 80.348150 72.744290 2.0 104.0 1.0 16.0 200.0 9.166670 300.0 198.0 9.166670
10.69 10.696340 32920.0 238.30 8.13750 0.0970 0.1020 61.454260 67.707750 80.34770 72.744320 2.0 104.0 1.0 16.0 200.0 8.333330 300.0 198.0 8.333330
10.68 10.689660 32992.0 238.350 8.1250 0.0970 0.1020 61.454570 67.708020 80.347250 72.744350 2.0 104.0 1.0 16.0 200.0 7.50 300.0 198.0 7.50
10.67 10.682990 33064.0 238.40 8.11250 0.0970 0.1020 61.445170 67.69770 80.339820 72.754030 2.0 104.0 1.0 16.0 200.0 6.666670 300.0 198.0 6.666670
10.66 10.669630 32795.0 238.50 8.10 0.0970 0.1020 61.435770 67.687380 80.332380 72.763720 2.0 104.0 1.0 16.0 200.0 5.833330 300.0 198.0 5.833330
10.65 10.65550 32845.0 238.60 8.08750 0.0970 0.1020 61.426380 67.677050 80.324950 72.77340 2.0 104.0 1.0 16.0 200.0 5.0 300.0 198.0 5.0
10.64 10.649210 32887.0 238.650 8.0750 0.0970 0.1020 61.416980 67.666730 80.317510 72.783090 2.0 104.0 1.0 16.0 200.0 4.166670 300.0 198.0 4.166670
10.63 10.642930 32929.0 238.70 8.06250 0.0970 0.1020 61.425870 67.676440 80.324690 72.772680 2.0 104.0 1.0 16.0 200.0 3.333330 300.0 198.0 3.333330
10.62 10.629580 32989.0 238.80 8.050 0.0970 0.1020 61.434770 67.686140 80.331870 72.762270 2.0 104.0 1.0 16.0 200.0 5.833330 300.0 198.0 5.833330
10.61 10.616230 32624.0 238.90 8.038750 0.0970 0.1020 61.443670 67.695850 80.339050 72.751860 2.0 104.0 1.0 16.0 200.0 8.333330 300.0 198.0 8.333330
10.60 10.603660 32570.0 239.0 8.02750 0.0970 0.1020 61.452570 67.705560 80.346230 72.741450 2.0 104.0 1.0 16.0 200.0 10.833330 300.0 198.0 10.833330
10.59 10.596980 32902.0 239.050 8.016250 0.0970 0.1020 61.441120 67.692560 80.172160 72.755080 2.0 104.0 1.0 16.0 200.0 13.333330 300.0 198.0 13.333330
10.58 10.590310 33234.0 239.10 8.0050 0.0970 0.1020 61.429680 67.679570 79.998080 72.76870 2.0 104.0 1.0 16.0 200.0 13.333330 300.0 198.0 13.333330
10.57 10.576170 33186.0 239.20 7.993750 0.0970 0.1020 61.418230 67.666580 79.824010 72.782330 2.0 104.0 1.0 16.0 200.0 13.333330 300.0 198.0 13.333330
10.56 10.56950 33128.0 239.250 7.98250 0.0970 0.1020 61.426750 67.676590 79.831930 72.773690 2.0 104.0 1.0 16.0 200.0 13.333330 300.0 198.0 13.333330
10.55 10.562820 33070.0 239.30 7.971250 0.0970 0.1020 61.435270 67.686610 79.839840 72.765040 2.0 104.0 1.0 16.0 200.0 13.333330 300.0 198.0 13.333330
10.54 10.549470 33044.0 239.40 7.960 0.0970 0.1020 61.443790 67.696620 79.847760 72.75640 2.0 104.0 1.0 16.0 200.0 14.166670 300.0 198.0 14.166670
10.53 10.536120 32791.0 239.50 7.971250 0.0970 0.1020 61.452320 67.706640 79.855670 72.747760 2.0 104.0 1.0 16.0 200.0 15.0 300.0 198.0 15.0
10.52 10.529440 32812.50 239.550 7.98250 0.0970 0.1020 61.452820 67.707790 79.85510 72.746870 2.0 104.0 1.0 16.0 200.0 15.833330 300.0 198.0 15.833330
10.51 10.522760 32834.0 239.60 7.993750 0.0970 0.1020 61.453320 67.708950 79.854520 72.745990 2.0 104.0 1.0 16.0 200.0 16.666670 300.0 198.0 16.666670
10.50 10.509410 32584.0 239.70 8.0050 0.0970 0.1020 61.453820 67.71010 79.853950 72.745110 2.0 104.0 1.0 16.0 200.0 13.333330 300.0 198.0 13.333330
10.49 10.496060 33031.0 239.80 8.016250 0.0970 0.1020 61.454320 67.711260 79.853370 72.744220 2.0 104.0 1.0 16.0 200.0 10.0 300.0 198.0 10.0
10.48 10.489390 33129.0 239.850 8.02750 0.0970 0.1020 61.442790 67.697240 79.841970 72.757470 2.0 104.0 1.0 16.0 200.0 6.666670 300.0 198.0 6.666670
10.47 10.482710 33227.0 239.90 8.038750 0.0970 0.1020 61.431260 67.683220 79.830560 72.770720 2.0 104.0 1.0 16.0 200.0 3.333330 300.0 198.0 3.333330
10.46 10.469360 33061.0 240.0 8.050 0.0970 0.1020 61.419730 67.66920 79.819160 72.783970 2.0 104.0 1.0 16.0 200.0 5.833330 300.0 198.0 5.833330
10.45 10.456010 32898.0 240.10 8.03250 0.0970 0.1020 61.428290 67.679060 79.82720 72.774260 2.0 104.0 1.0 16.0 200.0 8.333330 300.0 198.0 8.333330
10.44 10.449330 32815.50 240.150 8.0150 0.0970 0.1020 61.436840 67.688920 79.835250 72.764540 2.0 104.0 1.0 16.0 200.0 10.833330 300.0 198.0 10.833330
