~VERSION INFORMATION SECTION
VERS. 2.0 : CWLS LAS-VERSION 2.0
WRAP. NO : One line per depth step
~WELL INFORMATION SECTION
# MNEM.UNIT VALUE/NAME DESCRIPTION
#-------- -------------- ---------------------
STRT.Metres 28 : Start
STOP.Metres 0.42 : Stop
STEP.Metres -0.01 : Step
NULL.  -999.25 :NULL VALUE
DATE. 2026-57-05 : DATE
~CURVE INFORMATION SECTION
DEPTH.Metres : 0 Depth
Depth. : 1 Depth
Tension. : 2 Tension
Time. : 3 Time
Speed. : 4 Speed
Voltage. : 5 Voltage
Current. : 6 Current
X1.mm : 7 X1
X2.mm : 8 X2
Y1.mm : 9 Y1
Y2.mm : 10 Y2
MotorCurrent.mA : 11 Motor Current
HeadVoltage.V : 12 Head Voltage
WET. : 13 WET
Sig. : 14 Sig
Vth. : 15 Vth
GR.CPS : 16 GR
Timebase.ms : 17 Timebase
HeadVoltage.V : 18 Head Voltage
API.API : 19 API
~PARAMETER INFORMATION SECTION
~OTHER
#-------------------------------------------------
#Produced By: GeoVista Logger - Version 7.1.107.0
Natural Gamma Sonde - 9515
WLIS - 9387
Caliper Sonde (4 Arm) - 6341
#-------------------------------------------------
~ASCII LOG DATA
# ...
26.41 26.419220 32996.0 120.20 8.0250 0.0970 0.1020 38.669190 36.543510 48.233950 58.339080 2.0 104.0 1.0 0.750 200.0 26.666670 300.0 198.0 26.666670
26.40 26.405870 33509.0 120.30 8.030 0.0970 0.1020 38.678330 36.554420 48.241990 58.328010 2.0 104.0 1.0 1.0 200.0 23.333330 300.0 198.0 23.333330
26.39 26.39920 33364.50 120.350 8.0350 0.0970 0.1030 38.687460 36.565330 48.250040 58.316950 2.0 104.0 1.0 0.750 200.0 20.0 300.0 198.0 20.0
26.38 26.392520 33220.0 120.40 8.040 0.0970 0.1040 38.679120 36.554740 48.242030 58.323660 2.0 104.0 1.0 0.50 200.0 16.666670 300.0 198.0 16.666670
26.37 26.379170 33388.0 120.50 8.0450 0.0970 0.1020 38.670780 36.544150 48.234010 58.330370 2.0 104.0 1.0 0.250 200.0 20.833330 300.0 198.0 20.833330
26.36 26.365820 33090.0 120.60 8.050 0.0970 0.1020 38.662440 36.533560 48.2260 58.337070 2.0 104.0 1.0 0.0 200.0 25.0 300.0 198.0 25.0
26.35 26.358750 33188.0 120.650 8.0450 0.0970 0.1020 38.654090 36.522970 48.217990 58.343780 2.0 104.0 1.0 0.0 200.0 29.166670 302.50 198.0 29.166670
26.34 26.351680 33286.0 120.70 8.040 0.0970 0.1020 38.663320 36.533720 48.226880 58.327730 2.0 104.0 1.0 0.0 200.0 33.333330 305.0 198.0 33.333330
26.33 26.338330 33332.0 120.80 8.0350 0.0970 0.1020 38.672550 36.544470 48.235770 58.311670 2.0 104.0 1.0 0.0 200.0 30.833330 307.50 198.0 30.833330
26.32 26.324980 33129.0 120.90 8.030 0.0970 0.1020 38.681780 36.555220 48.244660 58.295620 2.0 104.0 1.0 0.0 200.0 28.333330 310.0 198.0 28.333330
26.31 26.31830 33202.50 120.950 8.0250 0.0970 0.1020 38.691010 36.565970 48.253550 58.279570 2.0 104.0 1.0 0.0 200.0 25.833330 307.50 198.0 25.833330
26.30 26.311620 33276.0 121.0 8.020 0.0970 0.1020 38.681630 36.554420 48.251440 58.274360 2.0 104.0 1.0 0.0 200.0 23.333330 305.0 198.0 23.333330
26.29 26.298270 33191.0 121.10 8.0150 0.0970 0.1020 38.672240 36.542880 48.249320 58.269140 2.0 104.0 1.0 0.0 200.0 25.833330 302.50 198.0 25.833330
26.28 26.284920 33183.0 121.20 8.010 0.0970 0.1020 38.662850 36.531330 48.24720 58.263930 2.0 104.0 1.0 0.0 200.0 28.333330 300.0 198.0 28.333330
26.27 26.278240 33371.0 121.250 8.0150 0.0970 0.1020 38.653460 36.519780 48.245090 58.258720 2.0 104.0 1.0 0.0 200.0 30.833330 300.0 198.0 30.833330
26.26 26.271570 33559.0 121.30 8.020 0.0970 0.1020 38.652760 36.519620 48.246460 58.256360 2.0 104.0 1.0 0.0 200.0 33.333330 300.0 198.0 33.333330
26.25 26.258220 33173.0 121.40 8.0250 0.0970 0.1020 38.652060 36.519460 48.247820 58.254010 2.0 104.0 1.0 0.0 200.0 30.645160 300.0 198.0 30.645160
26.24 26.245650 33173.0 121.50 8.030 0.0970 0.1020 38.651370 36.51930 48.249190 58.251660 2.0 104.0 1.0 0.0 200.0 27.956990 300.0 198.0 27.956990
26.23 26.238970 33198.0 121.550 8.0350 0.0970 0.1020 38.650670 36.519150 48.250560 58.249310 2.0 104.0 1.0 0.0 200.0 25.268820 300.0 198.0 25.268820
26.22 26.23230 33223.0 121.60 8.040 0.0970 0.1020 38.660280 36.530210 48.259450 58.239860 2.0 104.0 1.0 0.0 200.0 22.580650 300.0 198.0 22.580650
26.21 26.219730 33163.0 121.70 8.0450 0.0970 0.1020 38.669890 36.541280 48.268340 58.230420 2.0 104.0 1.0 0.0 200.0 24.435480 300.0 198.0 24.435480
26.20 26.204810 32834.0 121.80 8.050 0.0970 0.1020 38.67950 36.552350 48.277230 58.220980 2.0 104.0 1.0 0.0 200.0 26.290320 300.0 198.0 26.290320
26.19 26.198130 32795.50 121.850 8.0450 0.0970 0.1020 38.689110 36.563420 48.286120 58.211540 2.0 104.0 1.0 0.0 200.0 28.145160 300.0 198.0 28.145160
26.18 26.191460 32757.0 121.90 8.040 0.0970 0.1020 38.680770 36.553390 48.279020 58.21990 2.0 104.0 1.0 0.0 200.0 30.0 300.0 198.0 30.0
26.17 26.178890 33010.0 122.0 8.0350 0.0970 0.1020 38.672430 36.543350 48.271920 58.228260 2.0 104.0 1.0 0.0 200.0 27.50 300.0 198.0 27.50
26.16 26.164750 33127.0 122.10 8.030 0.0970 0.1020 38.664080 36.533320 48.264820 58.236620 2.0 104.0 1.0 0.0 200.0 25.0 300.0 198.0 25.0
26.15 26.158470 33199.0 122.150 8.0250 0.0970 0.1020 38.655740 36.523290 48.257720 58.244980 2.0 104.0 1.0 0.0 200.0 22.50 300.0 198.0 22.50
26.14 26.152190 33271.0 122.20 8.020 0.0970 0.1020 38.664210 36.532960 48.267330 58.234140 2.0 104.0 1.0 0.0 200.0 20.0 300.0 198.0 20.0
26.13 26.138840 33392.0 122.30 8.0150 0.0970 0.1020 38.672680 36.542640 48.276940 58.22330 2.0 104.0 1.0 0.0 200.0 23.333330 300.0 198.0 23.333330
26.12 26.125480 33329.0 122.40 8.010 0.0970 0.1020 38.681150 36.552310 48.286550 58.212460 2.0 104.0 1.0 0.0 200.0 26.666670 300.0 198.0 26.666670
26.11 26.118810 33322.50 122.450 8.0150 0.0970 0.1020 38.689620 36.561990 48.296150 58.201620 2.0 104.0 1.0 0.0 200.0 30.0 300.0 198.0 30.0
26.10 26.112130 33316.0 122.50 8.020 0.0970 0.1020 38.681370 36.552310 48.297230 58.210140 2.0 104.0 1.0 0.0 200.0 33.333330 300.0 198.0 33.333330
26.09 26.098780 33256.0 122.60 8.0250 0.0970 0.1020 38.673120 36.542640 48.29830 58.218660 2.0 104.0 1.0 0.0 200.0 28.333330 300.0 198.0 28.333330
26.08 26.084640 32713.0 122.70 8.030 0.0970 0.1020 38.664880 36.532960 48.299380 58.227180 2.0 104.0 1.0 0.0 200.0 23.333330 300.0 198.0 23.333330
26.07 26.078360 32924.0 122.750 8.0350 0.0970 0.1020 38.656630 36.523290 48.300450 58.23570 2.0 104.0 1.0 0.0 200.0 18.333330 300.0 198.0 18.333330
26.06 26.072080 33135.0 122.80 8.040 0.0970 0.1020 38.664280 36.53240 48.310290 58.225880 2.0 104.0 1.0 0.0 200.0 13.333330 300.0 198.0 13.333330
26.05 26.058730 33147.0 122.90 8.0450 0.0970 0.1020 38.671920 36.541520 48.320120 58.216050 2.0 104.0 1.0 0.0 200.0 15.0 300.0 198.0 15.0
26.04 26.045370 33139.0 123.0 8.050 0.0970 0.1020 38.679560 36.550640 48.329960 58.206230 2.0 104.0 1.0 0.0 200.0 16.666670 300.0 198.0 16.666670
26.03 26.03870 33198.50 123.050 8.0450 0.0970 0.1020 38.687210 36.559760 48.339790 58.196410 2.0 104.0 1.0 0.0 200.0 18.333330 300.0 198.0 18.333330
26.02 26.032020 33258.0 123.10 8.040 0.0970 0.1020 38.688060 36.560990 48.34080 58.196340 2.0 104.0 1.0 0.0 200.0 20.0 300.0 198.0 20.0
26.01 26.018670 33547.0 123.20 8.0350 0.0970 0.1020 38.688920 36.562230 48.341810 58.196280 2.0 104.0 1.0 0.0 200.0 20.0 300.0 198.0 20.0
26.00 26.005320 33357.0 123.30 8.030 0.0970 0.1020 38.689780 36.563460 48.342820 58.196220 2.0 104.0 1.0 0.0 200.0 20.0 300.0 198.0 20.0
25.99 25.998640 33280.0 123.350 8.0250 0.0970 0.1020 38.690630 36.564690 48.343830 58.196150 2.0 104.0 1.0 0.0 200.0 20.0 300.0 198.0 20.0
25.98 25.991970 33203.0 123.40 8.020 0.0970 0.1020 38.691360 36.564890 48.343670 58.195450 2.0 104.0 1.0 0.0 200.0 20.0 300.0 198.0 20.0
25.97 25.978620 32857.0 123.50 8.0150 0.0970 0.1020 38.692090 36.565090 48.34350 58.194750 2.0 104.0 1.0 0.0 200.0 17.50 300.0 198.0 17.50
25.96 25.965260 32938.0 123.60 8.010 0.0970 0.1020 38.692820 36.565290 48.343340 58.194060 2.0 104.0 1.0 0.0 200.0 15.0 300.0 198.0 15.0
25.95 25.958590 33059.0 123.650 8.010 0.0970 0.1010 38.693550 36.565490 48.343180 58.193360 2.0 104.0 1.0 0.0 200.0 12.50 300.0 198.0 12.50
25.94 25.951910 33180.0 123.70 8.010 0.0970 0.10 38.684450 36.55450 48.335360 58.201780 2.0 104.0 1.0 0.0 200.0 10.0 300.0 198.0 10.0
25.93 25.938560 33078.0 123.80 8.010 0.0970 0.1020 38.675350 36.543510 48.327550 58.21020 2.0 104.0 1.0 0.0 200.0 15.833330 300.0 198.0 15.833330
25.92 25.925210 33403.0 123.90 8.010 0.0970 0.1020 38.666240 36.532520 48.319730 58.218630 2.0 104.0 1.0 0.0 200.0 21.666670 300.0 198.0 21.666670
25.91 25.918530 33298.0 123.950 8.010 0.0970 0.1020 38.657140 36.521530 48.311920 58.227050 2.0 104.0 1.0 0.250 200.0 27.50 300.0 198.0 27.50
25.90 25.911860 33193.0 124.0 8.010 0.0970 0.1020 38.656150 36.520740 48.311560 58.226670 2.0 104.0 1.0 0.50 200.0 33.333330 300.0 198.0 33.333330
25.89 25.89850 33287.0 124.10 8.010 0.0970 0.1020 38.655170 36.519940 48.31120 58.226290 2.0 104.0 1.0 0.750 200.0 31.666670 300.0 198.0 31.666670
25.88 25.885150 33144.0 124.20 8.010 0.0970 0.1020 38.654190 36.519150 48.310840 58.225910 2.0 104.0 1.0 1.0 200.0 30.0 300.0 198.0 30.0
25.87 25.878480 33181.50 124.250 8.003750 0.0970 0.1020 38.653210 36.518350 48.310480 58.225530 2.0 104.0 1.0 0.750 200.0 28.333330 300.0 198.0 28.333330
25.86 25.87180 33219.0 124.30 7.99750 0.0970 0.1020 38.662560 36.528780 48.31840 58.215550 2.0 104.0 1.0 0.50 200.0 26.666670 300.0 198.0 26.666670
