~VERSION INFORMATION SECTION
VERS. 2.0 : CWLS LAS-VERSION 2.0
WRAP. NO : One line per depth step
~WELL INFORMATION SECTION
# MNEM.UNIT VALUE/NAME DESCRIPTION
#-------- -------------- ---------------------
STRT.Metres 28 : Start
STOP.Metres 0.42 : Stop
STEP.Metres -0.01 : Step
NULL.  -999.25 :NULL VALUE
DATE. 2026-57-05 : DATE
~CURVE INFORMATION SECTION
DEPTH.Metres : 0 Depth
Depth. : 1 Depth
Tension. : 2 Tension
Time. : 3 Time
Speed. : 4 Speed
Voltage. : 5 Voltage
Current. : 6 Current
X1.mm : 7 X1
X2.mm : 8 X2
Y1.mm : 9 Y1
Y2.mm : 10 Y2
MotorCurrent.mA : 11 Motor Current
HeadVoltage.V : 12 Head Voltage
WET. : 13 WET
Sig. : 14 Sig
Vth. : 15 Vth
GR.CPS : 16 GR
Timebase.ms : 17 Timebase
HeadVoltage.V : 18 Head Voltage
API.API : 19 API
~PARAMETER INFORMATION SECTION
~OTHER
#-------------------------------------------------
#Produced By: GeoVista Logger - Version 7.1.107.0
Natural Gamma Sonde - 9515
WLIS - 9387
Caliper Sonde (4 Arm) - 6341
#-------------------------------------------------
~ASCII LOG DATA
# ...
14.29 14.297390 32855.50 211.150 8.010 0.0970 0.1020 61.422620 67.672010 80.319910 72.788110 2.0 104.0 1.0 19.0 200.0 7.50 300.0 198.0 7.50
14.28 14.29110 32953.0 211.20 8.010 0.0970 0.1020 61.421740 67.671510 80.319170 72.788390 2.0 104.0 1.0 19.0 200.0 8.333330 300.0 198.0 8.333330
14.27 14.277750 33035.0 211.30 8.003750 0.0970 0.1020 61.430920 67.682560 80.327410 72.778610 2.0 104.0 1.0 19.0 200.0 9.166670 300.0 198.0 9.166670
14.26 14.263620 32703.0 211.40 7.99750 0.0970 0.1020 61.44010 67.693620 80.335640 72.768830 2.0 104.0 1.0 19.0 200.0 10.0 300.0 198.0 10.0
14.25 14.257330 32779.0 211.450 7.991250 0.0970 0.1020 61.449280 67.704670 80.343870 72.759050 2.0 104.0 1.0 19.0 200.0 12.50 300.0 198.0 12.50
14.24 14.251050 32855.0 211.50 7.9850 0.0970 0.1020 61.458460 67.715730 80.35210 72.749270 2.0 104.0 1.0 19.0 200.0 15.0 300.0 198.0 15.0
14.23 14.23770 32957.0 211.60 7.978750 0.0970 0.1020 61.449720 67.705590 80.344380 72.758990 2.0 104.0 1.0 19.0 200.0 17.50 300.0 198.0 17.50
14.22 14.224350 33039.0 211.70 7.97250 0.0970 0.1020 61.440970 67.695460 80.336660 72.76870 2.0 104.0 1.0 19.0 200.0 20.0 300.0 198.0 20.0
14.21 14.217670 32870.0 211.750 7.966250 0.0970 0.1020 61.432230 67.685330 80.328940 72.778420 2.0 104.0 1.0 19.0 200.0 17.50 300.0 198.0 17.50
14.20 14.210990 32701.0 211.80 7.960 0.0970 0.1020 61.423490 67.67520 80.321220 72.788140 2.0 104.0 1.0 19.0 200.0 15.0 300.0 198.0 15.0
14.19 14.197640 32710.0 211.90 7.960 0.0970 0.1020 61.432110 67.685180 80.328840 72.778830 2.0 104.0 1.0 19.0 200.0 12.50 300.0 198.0 12.50
14.18 14.184290 32592.0 212.0 7.960 0.0970 0.1020 61.440720 67.695160 80.336470 72.769520 2.0 104.0 1.0 19.0 200.0 10.0 300.0 198.0 10.0
14.17 14.177610 32687.0 212.050 7.960 0.0970 0.1020 61.449340 67.705130 80.344090 72.760220 2.0 104.0 1.0 19.0 200.0 12.50 300.0 198.0 12.50
14.16 14.170940 32782.0 212.10 7.960 0.0970 0.1020 61.457950 67.715110 80.351720 72.750910 2.0 104.0 1.0 19.0 200.0 15.0 300.0 198.0 15.0
14.15 14.157590 32868.0 212.20 7.960 0.0970 0.1020 61.458490 67.715340 80.352010 72.750440 2.0 104.0 1.0 19.0 200.0 17.50 302.50 198.0 17.50
14.14 14.144240 32623.0 212.30 7.960 0.0970 0.1020 61.459020 67.715570 80.352290 72.749960 2.0 104.0 1.0 19.0 200.0 20.0 305.0 198.0 20.0
14.13 14.137560 32713.50 212.350 7.960 0.0970 0.1020 61.459550 67.71580 80.352580 72.749490 2.0 104.0 1.0 19.0 200.0 18.333330 307.50 198.0 18.333330
14.12 14.130880 32804.0 212.40 7.960 0.0970 0.1020 61.460080 67.716030 80.352870 72.749020 2.0 104.0 1.0 19.0 200.0 16.666670 310.0 198.0 16.666670
14.11 14.117530 32738.0 212.50 7.960 0.0970 0.1020 61.459830 67.716420 80.353250 72.749140 2.0 104.0 1.0 19.0 200.0 15.0 307.50 198.0 15.0
14.10 14.104180 33212.0 212.60 7.960 0.0970 0.1020 61.459580 67.71680 80.353630 72.749270 2.0 104.0 1.0 19.0 200.0 13.333330 305.0 198.0 13.333330
14.09 14.09750 33127.0 212.650 7.960 0.0970 0.1020 61.459330 67.717190 80.354020 72.74940 2.0 104.0 1.0 19.0 200.0 17.50 302.50 198.0 17.50
14.08 14.090830 33042.0 212.70 7.960 0.0970 0.1020 61.459080 67.717570 80.35440 72.749520 2.0 104.0 1.0 19.0 200.0 21.666670 300.0 198.0 21.666670
14.07 14.077480 32881.0 212.80 7.960 0.0970 0.1020 61.459580 67.717880 80.354590 72.749590 2.0 104.0 1.0 19.0 200.0 25.833330 300.0 198.0 25.833330
14.06 14.064120 32718.0 212.90 7.960 0.0970 0.1020 61.460080 67.718190 80.354780 72.749650 2.0 104.0 1.0 19.0 200.0 30.0 300.0 198.0 30.0
14.05 14.057450 32680.50 212.950 7.960 0.0970 0.1020 61.460590 67.71850 80.354970 72.749710 2.0 104.0 1.0 19.0 200.0 25.725810 300.0 198.0 25.725810
14.04 14.050770 32643.0 213.0 7.960 0.0970 0.1020 61.461090 67.718810 80.355160 72.749780 2.0 104.0 1.0 19.250 200.0 21.451610 300.0 198.0 21.451610
14.03 14.037420 32768.0 213.10 7.960 0.0970 0.1020 61.460990 67.718880 80.354590 72.749870 2.0 104.0 1.0 19.50 200.0 17.177420 300.0 198.0 17.177420
14.02 14.024070 33007.0 213.20 7.960 0.0970 0.1020 61.46090 67.718960 80.354020 72.749960 2.0 104.0 1.0 19.750 200.0 12.903230 300.0 198.0 12.903230
14.01 14.017390 33012.50 213.250 7.960 0.0970 0.1020 61.460810 67.719040 80.353440 72.750060 2.0 104.0 1.0 20.0 200.0 18.844090 300.0 198.0 18.844090
14.00 14.010720 33018.0 213.30 7.960 0.0970 0.1020 61.460710 67.719110 80.352870 72.750150 2.0 104.0 1.0 19.50 200.0 24.784950 300.0 198.0 24.784950
13.99 13.998150 32878.0 213.40 7.960 0.0970 0.1020 61.460550 67.718730 80.353190 72.750280 2.0 104.0 1.0 19.0 200.0 30.725810 300.0 198.0 30.725810
13.98 13.984010 33015.0 213.50 7.960 0.0970 0.1020 61.46040 67.718340 80.353510 72.750410 2.0 104.0 1.0 18.50 200.0 36.666670 300.0 198.0 36.666670
13.97 13.977730 33025.0 213.550 7.960 0.0970 0.1020 61.460240 67.717960 80.353820 72.750530 2.0 104.0 1.0 18.0 200.0 31.666670 300.0 198.0 31.666670
13.96 13.971450 33035.0 213.60 7.960 0.0970 0.1020 61.460080 67.717570 80.354140 72.750660 2.0 104.0 1.0 18.50 200.0 26.666670 300.0 198.0 26.666670
13.95 13.95810 32966.0 213.70 7.953750 0.0970 0.1020 61.460240 67.717340 80.354050 72.750690 2.0 104.0 1.0 19.0 200.0 21.666670 300.0 198.0 21.666670
13.94 13.944740 33160.0 213.80 7.94750 0.0970 0.1020 61.46040 67.717110 80.353950 72.750720 2.0 104.0 1.0 19.50 200.0 16.666670 300.0 198.0 16.666670
13.93 13.938070 32985.50 213.850 7.941250 0.0970 0.1020 61.460550 67.716880 80.353860 72.750750 2.0 104.0 1.0 20.0 200.0 18.333330 300.0 198.0 18.333330
13.92 13.931390 32811.0 213.90 7.9350 0.0970 0.1020 61.460710 67.716650 80.353760 72.750780 2.0 104.0 1.0 19.50 200.0 20.0 300.0 198.0 20.0
13.91 13.918040 32863.0 214.0 7.928750 0.0970 0.1020 61.451780 67.705480 80.345370 72.759780 2.0 104.0 1.0 19.0 200.0 21.666670 300.0 198.0 21.666670
13.90 13.904690 32932.0 214.10 7.92250 0.0970 0.1020 61.442850 67.694310 80.336980 72.768770 2.0 104.0 1.0 18.50 200.0 23.333330 300.0 198.0 23.333330
13.89 13.898010 32770.50 214.150 7.916250 0.0970 0.1030 61.433930 67.683140 80.328590 72.777760 2.0 104.0 1.0 18.0 200.0 23.333330 300.0 198.0 23.333330
13.88 13.891340 32609.0 214.20 7.910 0.0970 0.1040 61.4250 67.671970 80.320190 72.786750 2.0 104.0 1.0 18.50 200.0 23.333330 300.0 198.0 23.333330
13.87 13.877990 32811.0 214.30 7.910 0.0970 0.1020 61.423840 67.671430 80.319140 72.787440 2.0 104.0 1.0 19.0 200.0 23.333330 300.0 198.0 23.333330
13.86 13.864630 32921.0 214.40 7.910 0.0970 0.1020 61.422680 67.670890 80.318090 72.788140 2.0 104.0 1.0 19.50 200.0 23.333330 300.0 198.0 23.333330
13.85 13.858350 33011.50 214.450 7.910 0.0970 0.1020 61.421520 67.670350 80.317040 72.788830 2.0 104.0 1.0 20.0 200.0 20.833330 300.0 198.0 20.833330
13.84 13.852070 33102.0 214.50 7.910 0.0970 0.1020 61.420360 67.669810 80.315980 72.789530 2.0 104.0 1.0 19.50 200.0 18.333330 300.0 198.0 18.333330
13.83 13.837930 32992.0 214.60 7.910 0.0970 0.1020 61.421080 67.669160 80.316050 72.789210 2.0 104.0 1.0 19.0 200.0 15.833330 300.0 198.0 15.833330
13.82 13.824580 32839.0 214.70 7.910 0.0970 0.1020 61.42180 67.66850 80.316110 72.788890 2.0 104.0 1.0 18.50 200.0 13.333330 300.0 198.0 13.333330
13.81 13.81830 32788.50 214.750 7.910 0.0970 0.1020 61.422520 67.667850 80.316170 72.788580 2.0 104.0 1.0 18.0 200.0 15.833330 300.0 198.0 15.833330
13.80 13.812010 32738.0 214.80 7.910 0.0970 0.1020 61.423240 67.667190 80.316240 72.788260 2.0 104.0 1.0 18.250 200.0 18.333330 300.0 198.0 18.333330
13.79 13.797870 32959.0 214.90 7.92250 0.0970 0.1020 61.432390 67.679130 80.325620 72.778640 2.0 104.0 1.0 18.50 200.0 20.833330 300.0 198.0 20.833330
13.78 13.784520 32971.0 215.0 7.9350 0.0970 0.1020 61.441540 67.691070 80.3350 72.769020 2.0 104.0 1.0 18.750 200.0 23.333330 300.0 198.0 23.333330
13.77 13.777850 32891.0 215.050 7.94750 0.0970 0.1020 61.450690 67.703010 80.344380 72.75940 2.0 104.0 1.0 19.0 200.0 21.666670 300.0 198.0 21.666670
13.76 13.771170 32811.0 215.10 7.960 0.0970 0.1020 61.459830 67.714950 80.353760 72.749780 2.0 104.0 1.0 19.0 200.0 20.0 300.0 198.0 20.0
13.75 13.757030 32883.0 215.20 7.97250 0.0970 0.1020 61.450810 67.703630 80.344990 72.759520 2.0 104.0 1.0 19.0 200.0 18.333330 300.0 198.0 18.333330
