~VERSION INFORMATION SECTION
VERS. 2.0 : CWLS LAS-VERSION 2.0
WRAP. NO : One line per depth step
~WELL INFORMATION SECTION
# MNEM.UNIT VALUE/NAME DESCRIPTION
#-------- -------------- ---------------------
STRT.Metres 28 : Start
STOP.Metres 0.42 : Stop
STEP.Metres -0.01 : Step
NULL.  -999.25 :NULL VALUE
DATE. 2026-57-05 : DATE
~CURVE INFORMATION SECTION
DEPTH.Metres : 0 Depth
Depth. : 1 Depth
Tension. : 2 Tension
Time. : 3 Time
Speed. : 4 Speed
Voltage. : 5 Voltage
Current. : 6 Current
X1.mm : 7 X1
X2.mm : 8 X2
Y1.mm : 9 Y1
Y2.mm : 10 Y2
MotorCurrent.mA : 11 Motor Current
HeadVoltage.V : 12 Head Voltage
WET. : 13 WET
Sig. : 14 Sig
Vth. : 15 Vth
GR.CPS : 16 GR
Timebase.ms : 17 Timebase
HeadVoltage.V : 18 Head Voltage
API.API : 19 API
~PARAMETER INFORMATION SECTION
~OTHER
#-------------------------------------------------
#Produced By: GeoVista Logger - Version 7.1.107.0
Natural Gamma Sonde - 9515
WLIS - 9387
Caliper Sonde (4 Arm) - 6341
#-------------------------------------------------
~ASCII LOG DATA
# ...
7.63 7.639180 32547.0 261.250 7.910 0.0970 0.1020 61.426190 67.690730 79.841530 72.751130 2.0 104.0 1.0 11.0 200.0 36.666670 300.0 198.0 36.666670
7.62 7.63250 32610.0 261.30 7.910 0.0970 0.1020 61.435270 67.701240 79.850440 72.741950 2.0 104.0 1.0 11.50 200.0 30.0 300.0 198.0 30.0
7.61 7.619150 32810.0 261.40 7.910 0.0970 0.1020 61.426910 67.6910 79.841790 72.751320 2.0 104.0 1.0 12.0 200.0 23.333330 300.0 198.0 23.333330
7.60 7.60580 32622.0 261.50 7.910 0.0970 0.1020 61.418540 67.680750 79.833140 72.760690 2.0 104.0 1.0 12.50 200.0 16.666670 300.0 198.0 16.666670
7.59 7.599120 32618.50 261.550 7.910 0.0970 0.1020 61.410180 67.67050 79.824490 72.770060 2.0 104.0 1.0 13.0 200.0 21.666670 300.0 198.0 21.666670
7.58 7.592440 32615.0 261.60 7.910 0.0970 0.1020 61.401810 67.660260 79.815840 72.779430 2.0 104.0 1.0 12.50 200.0 26.666670 300.0 198.0 26.666670
7.57 7.579090 32859.0 261.70 7.92750 0.0970 0.1020 61.40050 67.660220 79.815680 72.779590 2.0 104.0 1.0 12.0 200.0 31.666670 300.0 198.0 31.666670
7.56 7.564960 32621.0 261.80 7.9450 0.0970 0.1020 61.399180 67.660180 79.815520 72.779750 2.0 104.0 1.0 11.50 200.0 36.666670 300.0 198.0 36.666670
7.55 7.558280 32711.0 261.850 7.96250 0.0970 0.1020 61.397870 67.660140 79.815360 72.77990 2.0 104.0 1.0 11.0 200.0 34.166670 300.0 198.0 34.166670
7.54 7.55160 32801.0 261.90 7.980 0.0970 0.1020 61.396550 67.66010 79.81520 72.780060 2.0 104.0 1.0 11.50 200.0 31.666670 300.0 198.0 31.666670
7.53 7.539040 32645.0 262.0 7.99750 0.0970 0.1020 61.405610 67.670240 79.823790 72.77050 2.0 104.0 1.0 12.0 200.0 29.166670 300.0 198.0 29.166670
7.52 7.525690 32482.0 262.10 8.0150 0.0970 0.1020 61.414660 67.680370 79.832370 72.760940 2.0 104.0 1.0 12.50 200.0 26.666670 300.0 198.0 26.666670
7.51 7.518620 32583.50 262.150 8.03250 0.0970 0.1020 61.423710 67.69050 79.840960 72.751380 2.0 104.0 1.0 13.0 200.0 27.50 300.0 198.0 27.50
7.50 7.511550 32685.0 262.20 8.050 0.0970 0.1020 61.432770 67.700630 79.849540 72.741820 2.0 104.0 1.0 12.250 200.0 28.333330 300.0 198.0 28.333330
7.49 7.498980 32909.0 262.30 8.0450 0.0970 0.1020 61.433330 67.701320 79.849580 72.742270 2.0 104.0 1.0 11.50 200.0 29.166670 300.0 198.0 29.166670
7.48 7.484840 33217.0 262.40 8.040 0.0970 0.1020 61.433890 67.702010 79.849610 72.742710 2.0 104.0 1.0 10.750 200.0 30.0 300.0 198.0 30.0
7.47 7.478170 33041.50 262.450 8.0350 0.0970 0.1020 61.434460 67.702710 79.849640 72.743150 2.0 104.0 1.0 10.0 200.0 30.0 300.0 198.0 30.0
7.46 7.471490 32866.0 262.50 8.030 0.0970 0.1020 61.435020 67.70340 79.849670 72.743590 2.0 104.0 1.0 10.50 200.0 30.0 300.0 198.0 30.0
7.45 7.458140 32457.0 262.60 8.0250 0.0970 0.1020 61.425870 67.69350 79.841150 72.752770 2.0 104.0 1.0 11.0 200.0 30.0 300.0 198.0 30.0
7.44 7.444790 32324.0 262.70 8.020 0.0970 0.1020 61.416730 67.68360 79.832630 72.761950 2.0 104.0 1.0 11.50 200.0 30.0 300.0 198.0 30.0
7.43 7.438110 32499.50 262.750 8.0150 0.0970 0.1020 61.407580 67.67370 79.824110 72.771130 2.0 104.0 1.0 12.0 200.0 26.666670 300.0 198.0 26.666670
7.42 7.431440 32675.0 262.80 8.010 0.0970 0.1020 61.398430 67.66380 79.815580 72.780310 2.0 104.0 1.0 11.750 200.0 23.333330 300.0 198.0 23.333330
7.41 7.418090 32997.0 262.90 8.003750 0.0970 0.1020 61.407450 67.674010 79.823790 72.76990 2.0 104.0 1.0 11.50 200.0 20.0 300.0 198.0 20.0
7.40 7.405520 33063.0 263.0 7.99750 0.0970 0.1020 61.416480 67.684220 79.831990 72.759490 2.0 104.0 1.0 11.250 200.0 16.666670 300.0 198.0 16.666670
7.39 7.398840 33039.0 263.050 7.991250 0.0970 0.1020 61.42550 67.694420 79.840190 72.749080 2.0 104.0 1.0 11.0 200.0 18.333330 300.0 198.0 18.333330
7.38 7.392170 33015.0 263.10 7.9850 0.0970 0.1020 61.434520 67.704630 79.84840 72.738670 2.0 104.0 1.0 11.250 200.0 20.0 300.0 198.0 20.0
7.37 7.378820 32911.0 263.20 7.978750 0.0970 0.1020 61.434330 67.704860 79.849070 72.73930 2.0 104.0 1.0 11.50 200.0 21.666670 300.0 198.0 21.666670
7.36 7.365460 32989.0 263.30 7.97250 0.0970 0.1020 61.434150 67.705090 79.849740 72.739930 2.0 104.0 1.0 11.750 200.0 23.333330 300.0 198.0 23.333330
7.35 7.358790 32919.0 263.350 7.966250 0.0970 0.1020 61.433960 67.705330 79.850410 72.740560 2.0 104.0 1.0 12.0 200.0 21.666670 300.0 198.0 21.666670
7.34 7.352110 32849.0 263.40 7.960 0.0970 0.1020 61.433770 67.705560 79.851080 72.741190 2.0 104.0 1.0 11.750 200.0 20.0 300.0 198.0 20.0
7.33 7.338760 32939.0 263.50 7.953750 0.0970 0.1020 61.424810 67.694420 79.842360 72.75060 2.0 104.0 1.0 11.50 200.0 18.333330 302.50 198.0 18.333330
7.32 7.325410 33210.0 263.60 7.94750 0.0970 0.1020 61.415850 67.683290 79.833650 72.760 2.0 104.0 1.0 11.250 200.0 16.666670 305.0 198.0 16.666670
7.31 7.318730 33106.50 263.650 7.941250 0.0970 0.1010 61.406890 67.672160 79.824940 72.76940 2.0 104.0 1.0 11.0 200.0 17.50 307.50 198.0 17.50
7.30 7.312060 33003.0 263.70 7.9350 0.0970 0.10 61.397930 67.661030 79.816220 72.77880 2.0 104.0 1.0 11.0 200.0 18.333330 310.0 198.0 18.333330
7.29 7.298710 32758.0 263.80 7.928750 0.0970 0.1020 61.396990 67.660340 79.815620 72.778860 2.0 104.0 1.0 11.0 200.0 19.166670 307.50 198.0 19.166670
7.28 7.285350 32903.0 263.90 7.92250 0.0970 0.1020 61.396050 67.659640 79.815010 72.778930 2.0 104.0 1.0 11.0 200.0 20.0 305.0 198.0 20.0
7.27 7.279070 32617.0 263.950 7.916250 0.0970 0.1020 61.395110 67.658950 79.81440 72.778990 2.0 104.0 1.0 11.0 200.0 20.0 302.50 198.0 20.0
7.26 7.272790 32331.0 264.0 7.910 0.0970 0.1020 61.394170 67.658260 79.81380 72.779050 2.0 104.0 1.0 11.0 200.0 20.0 300.0 198.0 20.0
7.25 7.258650 33026.0 264.10 7.916250 0.0970 0.1020 61.403010 67.669460 79.822290 72.769210 2.0 104.0 1.0 11.0 200.0 20.0 300.0 198.0 20.0
7.24 7.24530 32999.0 264.20 7.92250 0.0970 0.1020 61.411840 67.680670 79.830780 72.759370 2.0 104.0 1.0 11.0 200.0 20.0 300.0 198.0 20.0
7.23 7.239010 32981.0 264.250 7.928750 0.0970 0.1020 61.420670 67.691880 79.839270 72.749520 2.0 104.0 1.0 11.0 200.0 18.225810 300.0 198.0 18.225810
7.22 7.232730 32963.0 264.30 7.9350 0.0970 0.1020 61.429510 67.703090 79.847760 72.739680 2.0 104.0 1.0 11.0 200.0 16.451610 300.0 198.0 16.451610
7.21 7.218590 32653.0 264.40 7.941250 0.0970 0.1020 61.421270 67.693620 79.840 72.74940 2.0 104.0 1.0 11.0 200.0 14.677420 300.0 198.0 14.677420
7.20 7.205240 32861.0 264.50 7.94750 0.0970 0.1020 61.413030 67.684140 79.832250 72.759110 2.0 104.0 1.0 11.0 200.0 12.903230 300.0 198.0 12.903230
7.19 7.198570 33026.50 264.550 7.953750 0.0970 0.1010 61.404790 67.674660 79.824490 72.768830 2.0 104.0 1.0 11.0 200.0 13.844090 300.0 198.0 13.844090
7.18 7.191890 33192.0 264.60 7.960 0.0970 0.10 61.396550 67.665190 79.816730 72.778550 2.0 104.0 1.0 11.0 200.0 14.784950 300.0 198.0 14.784950
7.17 7.179320 33050.0 264.70 7.966250 0.0970 0.1020 61.395420 67.663840 79.816450 72.778520 2.0 104.0 1.0 11.0 200.0 15.725810 300.0 198.0 15.725810
7.16 7.165970 32889.0 264.80 7.97250 0.0970 0.1020 61.39430 67.662490 79.816160 72.778480 2.0 104.0 1.0 11.0 200.0 16.666670 300.0 198.0 16.666670
7.15 7.15930 32816.50 264.850 7.978750 0.0970 0.1020 61.393170 67.661140 79.815870 72.778450 2.0 104.0 1.0 11.0 200.0 17.50 300.0 198.0 17.50
7.14 7.152620 32744.0 264.90 7.9850 0.0970 0.1020 61.392040 67.65980 79.815580 72.778420 2.0 104.0 1.0 11.0 200.0 18.333330 300.0 198.0 18.333330
7.13 7.139270 33146.0 265.0 7.991250 0.0970 0.1020 61.401780 67.669770 79.823340 72.768610 2.0 104.0 1.0 11.0 200.0 19.166670 300.0 198.0 19.166670
7.12 7.125920 32872.0 265.10 7.99750 0.0970 0.1020 61.411530 67.679750 79.83110 72.75880 2.0 104.0 1.0 11.0 200.0 20.0 300.0 198.0 20.0
7.11 7.119240 32577.0 265.150 8.003750 0.0970 0.1020 61.421270 67.689730 79.838850 72.748990 2.0 104.0 1.0 11.0 200.0 21.666670 300.0 198.0 21.666670
7.10 7.112570 32282.0 265.20 8.010 0.0970 0.1020 61.431010 67.69970 79.846610 72.739170 2.0 104.0 1.0 11.0 200.0 23.333330 300.0 198.0 23.333330
7.09 7.099210 32585.0 265.30 8.010 0.0970 0.1020 61.421550 67.690340 79.838950 72.749620 2.0 104.0 1.0 11.0 200.0 25.0 300.0 198.0 25.0
7.08 7.085860 32903.0 265.40 8.010 0.0970 0.1020 61.412090 67.680980 79.831290 72.760060 2.0 104.0 1.0 11.0 200.0 26.666670 300.0 198.0 26.666670
