~VERSION INFORMATION SECTION
VERS. 2.0 : CWLS LAS-VERSION 2.0
WRAP. NO : One line per depth step
~WELL INFORMATION SECTION
# MNEM.UNIT VALUE/NAME DESCRIPTION
#-------- -------------- ---------------------
STRT.Metres 28 : Start
STOP.Metres 0.40 : Stop
STEP.Metres -0.01 : Step
NULL.  -999.25 :NULL VALUE
DATE. 2026-16-05 : DATE
~CURVE INFORMATION SECTION
DEPTH.Metres : 0 Depth
Depth. : 1 Depth
Tension. : 2 Tension
Time. : 3 Time
Speed. : 4 Speed
Voltage. : 5 Voltage
Current. : 6 Current
X1.mm : 7 X1
X2.mm : 8 X2
Y1.mm : 9 Y1
Y2.mm : 10 Y2
MotorCurrent.mA : 11 Motor Current
HeadVoltage.V : 12 Head Voltage
WET. : 13 WET
Sig. : 14 Sig
Vth. : 15 Vth
GR.CPS : 16 GR
Timebase.ms : 17 Timebase
HeadVoltage.V : 18 Head Voltage
API.API : 19 API
~PARAMETER INFORMATION SECTION
~OTHER
#-------------------------------------------------
#Produced By: GeoVista Logger - Version 7.1.107.0
Natural Gamma Sonde - 9515
WLIS - 9387
Caliper Sonde (4 Arm) - 6341
#-------------------------------------------------
~ASCII LOG DATA
# ...
19.39 19.400910 37513.0 200.20 9.980 0.0970 0.1020 3786680.40 3483631.60 3389325.20 4215000.80 2.0 104.0 1.0 19.0 200.0 30.666670 300.0 198.0 30.666670
19.38 19.392660 37430.0 200.250 9.9850 0.0970 0.1020 3786677.20 3483626.80 3389325.60 4214996.40 2.0 104.0 1.0 19.0 200.0 32.666670 300.0 198.0 32.666670
19.37 19.384410 37347.0 200.30 9.990 0.0970 0.1020 3786674.0 3483622.0 3389326.0 4214992.0 2.0 104.0 1.0 19.0 200.0 34.666670 300.0 198.0 34.666670
19.36 19.367920 37126.0 200.40 9.9950 0.0970 0.1020 3786793.20 3483739.60 3389431.20 4214870.0 2.0 104.0 1.0 19.0 200.0 36.666670 300.0 198.0 36.666670
19.35 19.359670 37047.50 200.450 10.0 0.0970 0.1020 3786912.40 3483857.20 3389536.40 4214748.0 2.0 104.0 1.0 19.0 200.0 34.666670 300.0 198.0 34.666670
19.34 19.351430 36969.0 200.50 10.0050 0.0970 0.1020 3787031.60 3483974.80 3389641.60 4214626.0 2.0 104.0 1.0 19.0 200.0 32.666670 300.0 198.0 32.666670
19.33 19.343180 36925.50 200.550 10.010 0.0970 0.1020 3787150.80 3484092.40 3389746.80 4214504.0 2.0 104.0 1.0 19.0 200.0 30.666670 300.0 198.0 30.666670
19.32 19.334930 36882.0 200.60 10.0150 0.0970 0.1020 3787270.0 3484210.0 3389852.0 4214382.0 2.0 104.0 1.0 19.0 200.0 28.666670 300.0 198.0 28.666670
19.31 19.317650 37330.0 200.70 10.020 0.0970 0.1040 3787279.60 3484214.40 3389865.20 4214379.20 2.0 104.0 1.0 19.0 200.0 26.666670 300.0 198.0 26.666670
19.30 19.309410 37286.0 200.750 10.0250 0.0970 0.1030 3787289.20 3484218.80 3389878.40 4214376.40 2.0 104.0 1.0 19.0 200.0 28.0 300.0 198.0 28.0
19.29 19.301160 37242.0 200.80 10.030 0.0970 0.1020 3787298.80 3484223.20 3389891.60 4214373.60 2.0 104.0 1.0 19.0 200.0 29.333330 300.0 198.0 29.333330
19.28 19.292520 37155.0 200.850 10.030 0.0970 0.1020 3787308.40 3484227.60 3389904.80 4214370.80 2.0 104.0 1.0 19.0 200.0 30.666670 300.0 198.0 30.666670
19.27 19.283880 37068.0 200.90 10.030 0.0970 0.1020 3787318.0 3484232.0 3389918.0 4214368.0 2.0 104.0 1.0 19.0 200.0 32.0 300.0 198.0 32.0
19.26 19.267390 37040.0 201.0 10.030 0.0970 0.1020 3787195.20 3484109.20 3389811.20 4214488.80 2.0 104.0 1.0 19.20 200.0 33.333330 300.0 198.0 33.333330
19.25 19.258750 37014.50 201.050 10.030 0.0970 0.1020 3787072.40 3483986.40 3389704.40 4214609.60 2.0 104.0 1.0 19.40 200.0 28.333330 300.0 198.0 28.333330
19.24 19.250110 36989.0 201.10 10.030 0.0970 0.1020 3786949.60 3483863.60 3389597.60 4214730.40 2.0 104.0 1.0 19.60 200.0 23.333330 300.0 198.0 23.333330
19.23 19.241860 37037.50 201.150 10.030 0.0970 0.1020 3786826.80 3483740.80 3389490.80 4214851.20 2.0 104.0 1.0 19.80 200.0 18.333330 300.0 198.0 18.333330
19.22 19.233620 37086.0 201.20 10.030 0.0970 0.1020 3786704.0 3483618.0 3389384.0 4214972.0 2.0 104.0 1.0 20.0 200.0 13.333330 300.0 198.0 13.333330
19.21 19.217120 36975.0 201.30 10.030 0.0970 0.1020 3786810.40 3483734.0 3389485.60 4214854.40 2.0 104.0 1.0 19.80 200.0 8.333330 300.0 198.0 8.333330
19.20 19.208880 37066.0 201.350 10.030 0.0970 0.1020 3786916.80 3483850.0 3389587.20 4214736.80 2.0 104.0 1.0 19.60 200.0 3.333330 300.0 198.0 3.333330
19.19 19.200630 37157.0 201.40 10.030 0.0970 0.1020 3787023.20 3483966.0 3389688.80 4214619.20 2.0 104.0 1.0 19.40 200.0 8.333330 300.0 198.0 8.333330
19.18 19.192380 37162.0 201.450 10.0210 0.0970 0.1020 3787129.60 3484082.0 3389790.40 4214501.60 2.0 104.0 1.0 19.20 200.0 13.333330 300.0 198.0 13.333330
19.17 19.184140 37167.0 201.50 10.0120 0.0970 0.1020 3787236.0 3484198.0 3389892.0 4214384.0 2.0 104.0 1.0 19.0 200.0 18.333330 300.0 198.0 18.333330
19.16 19.168430 37356.0 201.60 10.0030 0.0970 0.1020 3787251.20 3484198.80 3389891.60 4214383.60 2.0 104.0 1.0 19.40 200.0 23.333330 300.0 198.0 23.333330
19.15 19.160180 37259.0 201.650 9.9940 0.0970 0.1020 3787266.40 3484199.60 3389891.20 4214383.20 2.0 104.0 1.0 19.80 200.0 24.666670 300.0 198.0 24.666670
19.14 19.151930 37162.0 201.70 9.9850 0.0970 0.1020 3787281.60 3484200.40 3389890.80 4214382.80 2.0 104.0 1.0 20.20 200.0 26.0 300.0 198.0 26.0
19.13 19.143690 37016.50 201.750 9.9760 0.0970 0.1020 3787296.80 3484201.20 3389890.40 4214382.40 2.0 104.0 1.0 20.60 200.0 27.333330 300.0 198.0 27.333330
19.12 19.135440 36871.0 201.80 9.9670 0.0970 0.1020 3787312.0 3484202.0 3389890.0 4214382.0 2.0 104.0 1.0 21.0 200.0 28.666670 300.0 198.0 28.666670
19.11 19.118950 36983.0 201.90 9.9580 0.0970 0.1020 3787194.80 3484102.80 3389780.0 4214497.60 2.0 104.0 1.0 20.60 200.0 30.0 300.0 198.0 30.0
19.10 19.11070 37074.0 201.950 9.9490 0.0970 0.1020 3787077.60 3484003.60 3389670.0 4214613.20 2.0 104.0 1.0 20.20 200.0 30.0 300.0 198.0 30.0
19.09 19.102450 37165.0 202.0 9.940 0.0970 0.1020 3786960.40 3483904.40 3389560.0 4214728.80 2.0 104.0 1.0 19.80 200.0 30.0 300.0 198.0 30.0
19.08 19.094210 37099.0 202.050 9.930 0.0970 0.1020 3786843.20 3483805.20 3389450.0 4214844.40 2.0 104.0 1.0 19.40 200.0 30.0 300.0 198.0 30.0
19.07 19.085960 37033.0 202.10 9.920 0.0970 0.1020 3786726.0 3483706.0 3389340.0 4214960.0 2.0 104.0 1.0 19.0 200.0 30.0 300.0 198.0 30.0
19.06 19.069470 37059.0 202.20 9.910 0.0970 0.1020 3786835.60 3483803.20 3389446.80 4214845.60 2.0 104.0 1.0 19.40 200.0 30.0 300.0 198.0 30.0
19.05 19.061220 37059.50 202.250 9.90 0.0970 0.1020 3786945.20 3483900.40 3389553.60 4214731.20 2.0 104.0 1.0 19.80 200.0 28.0 300.0 198.0 28.0
19.04 19.052970 37060.0 202.30 9.890 0.0970 0.1020 3787054.80 3483997.60 3389660.40 4214616.80 2.0 104.0 1.0 20.20 200.0 26.0 300.0 198.0 26.0
19.03 19.044730 36962.0 202.350 9.880 0.0970 0.1020 3787164.40 3484094.80 3389767.20 4214502.40 2.0 104.0 1.0 20.60 200.0 24.0 300.0 198.0 24.0
19.02 19.036480 36864.0 202.40 9.870 0.0970 0.1020 3787274.0 3484192.0 3389874.0 4214388.0 2.0 104.0 1.0 21.0 200.0 22.0 300.0 198.0 22.0
19.01 19.01920 37017.0 202.50 9.860 0.0970 0.10 3787164.0 3484085.20 3389767.60 4214507.60 2.0 104.0 1.0 20.60 200.0 20.0 300.0 198.0 20.0
19.00 19.010960 37114.0 202.550 9.850 0.0970 0.1010 3787054.0 3483978.40 3389661.20 4214627.20 2.0 104.0 1.0 20.20 200.0 23.333330 300.0 198.0 23.333330
18.99 19.002710 37211.0 202.60 9.840 0.0970 0.1020 3786944.0 3483871.60 3389554.80 4214746.80 2.0 104.0 1.0 19.80 200.0 26.666670 300.0 198.0 26.666670
18.98 18.994460 37243.0 202.650 9.8590 0.0970 0.1020 3786834.0 3483764.80 3389448.40 4214866.40 2.0 104.0 1.0 19.40 200.0 30.0 300.0 198.0 30.0
18.97 18.986220 37275.0 202.70 9.8780 0.0970 0.1020 3786724.0 3483658.0 3389342.0 4214986.0 2.0 104.0 1.0 19.0 200.0 33.333330 300.0 198.0 33.333330
18.96 18.968940 36877.0 202.80 9.8970 0.0970 0.1020 3786712.0 3483646.0 3389339.60 4214987.60 2.0 104.0 1.0 19.20 200.0 36.666670 300.0 198.0 36.666670
18.95 18.96030 37096.50 202.850 9.9160 0.0970 0.1020 3786700.0 3483634.0 3389337.20 4214989.20 2.0 104.0 1.0 19.40 200.0 31.333330 302.0 198.0 31.333330
18.94 18.951660 37316.0 202.90 9.9350 0.0970 0.1020 3786688.0 3483622.0 3389334.80 4214990.80 2.0 104.0 1.0 19.60 200.0 26.0 304.0 198.0 26.0
18.93 18.943410 37306.0 202.950 9.9540 0.0970 0.1020 3786676.0 3483610.0 3389332.40 4214992.40 2.0 104.0 1.0 19.80 200.0 20.666670 306.0 198.0 20.666670
18.92 18.935160 37296.0 203.0 9.9730 0.0970 0.1020 3786664.0 3483598.0 3389330.0 4214994.0 2.0 104.0 1.0 20.0 200.0 15.333330 308.0 198.0 15.333330
18.91 18.917890 37012.0 203.10 9.9920 0.0970 0.1020 3786790.0 3483717.20 3389437.60 4214868.40 2.0 104.0 1.0 20.0 200.0 10.0 310.0 198.0 10.0
18.90 18.909640 36834.0 203.150 10.0110 0.0970 0.1020 3786916.0 3483836.40 3389545.20 4214742.80 2.0 104.0 1.0 20.0 200.0 13.333330 308.0 198.0 13.333330
18.89 18.901390 36656.0 203.20 10.030 0.0970 0.1020 3787042.0 3483955.60 3389652.80 4214617.20 2.0 104.0 1.0 20.0 200.0 16.666670 306.0 198.0 16.666670
18.88 18.893150 36931.0 203.250 10.0350 0.0970 0.1020 3787168.0 3484074.80 3389760.40 4214491.60 2.0 104.0 1.0 20.0 200.0 20.0 304.0 198.0 20.0
18.87 18.88490 37206.0 203.30 10.040 0.0970 0.1020 3787294.0 3484194.0 3389868.0 4214366.0 2.0 104.0 1.0 20.0 200.0 23.333330 302.0 198.0 23.333330
18.86 18.868410 37172.0 203.40 10.0450 0.0970 0.1020 3787180.0 3484087.20 3389761.20 4214490.40 2.0 104.0 1.0 20.0 200.0 26.666670 300.0 198.0 26.666670
