~VERSION INFORMATION SECTION
VERS. 2.0 : CWLS LAS-VERSION 2.0
WRAP. NO : One line per depth step
~WELL INFORMATION SECTION
# MNEM.UNIT VALUE/NAME DESCRIPTION
#-------- -------------- ---------------------
STRT.Metres 28 : Start
STOP.Metres 0.40 : Stop
STEP.Metres -0.01 : Step
NULL.  -999.25 :NULL VALUE
DATE. 2026-16-05 : DATE
~CURVE INFORMATION SECTION
DEPTH.Metres : 0 Depth
Depth. : 1 Depth
Tension. : 2 Tension
Time. : 3 Time
Speed. : 4 Speed
Voltage. : 5 Voltage
Current. : 6 Current
X1.mm : 7 X1
X2.mm : 8 X2
Y1.mm : 9 Y1
Y2.mm : 10 Y2
MotorCurrent.mA : 11 Motor Current
HeadVoltage.V : 12 Head Voltage
WET. : 13 WET
Sig. : 14 Sig
Vth. : 15 Vth
GR.CPS : 16 GR
Timebase.ms : 17 Timebase
HeadVoltage.V : 18 Head Voltage
API.API : 19 API
~PARAMETER INFORMATION SECTION
~OTHER
#-------------------------------------------------
#Produced By: GeoVista Logger - Version 7.1.107.0
Natural Gamma Sonde - 9515
WLIS - 9387
Caliper Sonde (4 Arm) - 6341
#-------------------------------------------------
~ASCII LOG DATA
# ...
11.27 11.27950 36879.0 248.950 9.9480 0.0970 0.1020 3787070.0 3484028.0 3390170.0 4207960.0 2.0 104.0 1.0 19.0 200.0 15.333330 308.0 198.0 15.333330
11.26 11.271250 36737.0 249.0 9.9520 0.0970 0.1020 3787069.0 3484027.50 3390161.50 4207959.0 2.0 104.0 1.0 19.0 200.0 16.666670 310.0 198.0 16.666670
11.25 11.262610 36820.0 249.050 9.9560 0.0970 0.1020 3787068.0 3484027.0 3390153.0 4207958.0 2.0 104.0 1.0 19.0 200.0 16.666670 308.0 198.0 16.666670
11.24 11.253970 36903.0 249.10 9.960 0.0970 0.1020 3787067.0 3484026.50 3390144.50 4207957.0 2.0 104.0 1.0 19.0 200.0 16.666670 306.0 198.0 16.666670
11.23 11.237480 36829.0 249.20 9.9640 0.0970 0.10 3787066.0 3484026.0 3390136.0 4207956.0 2.0 104.0 1.0 19.0 200.0 16.666670 304.0 198.0 16.666670
11.22 11.229230 36850.0 249.250 9.9680 0.0970 0.1010 3786944.0 3483909.20 3390034.80 4208081.20 2.0 104.0 1.0 19.0 200.0 16.666670 302.0 198.0 16.666670
11.21 11.220980 36871.0 249.30 9.9720 0.0970 0.1020 3786822.0 3483792.40 3389933.60 4208206.40 2.0 104.0 1.0 19.0 200.0 16.666670 300.0 198.0 16.666670
11.20 11.212740 36916.50 249.350 9.9760 0.0970 0.1020 3786700.0 3483675.60 3389832.40 4208331.60 2.0 104.0 1.0 19.0 200.0 13.333330 300.0 198.0 13.333330
11.19 11.204490 36962.0 249.40 9.980 0.0970 0.1020 3786578.0 3483558.80 3389731.20 4208456.80 2.0 104.0 1.0 19.0 200.0 10.0 300.0 198.0 10.0
11.18 11.187210 37102.0 249.50 9.9850 0.0970 0.1020 3786456.0 3483442.0 3389630.0 4208582.0 2.0 104.0 1.0 19.0 200.0 6.666670 300.0 198.0 6.666670
11.17 11.178960 37015.50 249.550 9.990 0.0970 0.1020 3786572.40 3483550.40 3389729.60 4208453.60 2.0 104.0 1.0 19.0 200.0 3.333330 300.0 198.0 3.333330
11.16 11.170720 36929.0 249.60 9.9950 0.0970 0.1020 3786688.80 3483658.80 3389829.20 4208325.20 2.0 104.0 1.0 19.0 200.0 0.0 300.0 198.0 0.0
11.15 11.162470 36950.0 249.650 10.0 0.0970 0.1020 3786805.20 3483767.20 3389928.80 4208196.80 2.0 104.0 1.0 19.0 200.0 0.666670 300.0 198.0 0.666670
11.14 11.154220 36971.0 249.70 10.0050 0.0970 0.1020 3786921.60 3483875.60 3390028.40 4208068.40 2.0 104.0 1.0 19.0 200.0 1.333330 300.0 198.0 1.333330
11.13 11.136950 37078.0 249.80 10.010 0.0970 0.1020 3787038.0 3483984.0 3390128.0 4207940.0 2.0 104.0 1.0 19.0 200.0 2.0 300.0 198.0 2.0
11.12 11.12870 37113.50 249.850 10.0150 0.0970 0.1020 3787038.80 3483983.20 3390134.80 4207940.80 2.0 104.0 1.0 19.0 200.0 2.666670 300.0 198.0 2.666670
11.11 11.120450 37149.0 249.90 10.020 0.0970 0.1020 3787039.60 3483982.40 3390141.60 4207941.60 2.0 104.0 1.0 19.0 200.0 3.333330 300.0 198.0 3.333330
11.10 11.112210 37020.50 249.950 10.0250 0.0970 0.1020 3787040.40 3483981.60 3390148.40 4207942.40 2.0 104.0 1.0 19.0 200.0 6.0 300.0 198.0 6.0
11.09 11.103960 36892.0 250.0 10.030 0.0970 0.1020 3787041.20 3483980.80 3390155.20 4207943.20 2.0 104.0 1.0 19.0 200.0 8.666670 300.0 198.0 8.666670
11.08 11.087470 36994.0 250.10 10.0250 0.0970 0.1020 3787042.0 3483980.0 3390162.0 4207944.0 2.0 104.0 1.0 19.0 200.0 11.333330 300.0 198.0 11.333330
11.07 11.079220 37003.50 250.150 10.020 0.0970 0.1020 3786934.80 3483874.0 3390057.60 4208062.0 2.0 104.0 1.0 19.0 200.0 14.0 300.0 198.0 14.0
11.06 11.070970 37013.0 250.20 10.0150 0.0970 0.1020 3786827.60 3483768.0 3389953.20 4208180.0 2.0 104.0 1.0 18.80 200.0 16.666670 300.0 198.0 16.666670
11.05 11.062330 37104.0 250.250 10.010 0.0970 0.1020 3786720.40 3483662.0 3389848.80 4208298.0 2.0 104.0 1.0 18.60 200.0 16.666670 300.0 198.0 16.666670
11.04 11.053690 37195.0 250.30 10.0050 0.0970 0.1020 3786613.20 3483556.0 3389744.40 4208416.0 2.0 104.0 1.0 18.40 200.0 16.666670 300.0 198.0 16.666670
11.03 11.037990 37108.0 250.40 10.0 0.0970 0.1020 3786506.0 3483450.0 3389640.0 4208534.0 2.0 104.0 1.0 18.20 200.0 16.666670 300.0 198.0 16.666670
11.02 11.029350 36978.0 250.450 9.9950 0.0970 0.1020 3786487.20 3483443.60 3389628.40 4208537.20 2.0 104.0 1.0 18.0 200.0 16.666670 300.0 198.0 16.666670
11.01 11.020710 36848.0 250.50 9.990 0.0970 0.1020 3786468.40 3483437.20 3389616.80 4208540.40 2.0 104.0 1.0 18.40 200.0 16.666670 300.0 198.0 16.666670
11.00 11.012460 36830.50 250.550 9.9850 0.0970 0.1020 3786449.60 3483430.80 3389605.20 4208543.60 2.0 104.0 1.0 18.80 200.0 16.666670 300.0 198.0 16.666670
10.99 11.004210 36813.0 250.60 9.980 0.0970 0.1020 3786430.80 3483424.40 3389593.60 4208546.80 2.0 104.0 1.0 19.20 200.0 16.666670 300.0 198.0 16.666670
10.98 10.987720 36671.0 250.70 9.980 0.0970 0.1020 3786412.0 3483418.0 3389582.0 4208550.0 2.0 104.0 1.0 19.60 200.0 16.666670 300.0 198.0 16.666670
10.97 10.979470 36772.50 250.750 9.980 0.0970 0.1020 3786527.60 3483525.20 3389688.0 4208430.0 2.0 104.0 1.0 20.0 200.0 16.666670 300.0 198.0 16.666670
10.96 10.971230 36874.0 250.80 9.980 0.0970 0.1020 3786643.20 3483632.40 3389794.0 4208310.0 2.0 104.0 1.0 19.60 200.0 16.666670 300.0 198.0 16.666670
10.95 10.962980 37003.50 250.850 9.980 0.0970 0.1020 3786758.80 3483739.60 3389900.0 4208190.0 2.0 104.0 1.0 19.20 200.0 13.333330 300.0 198.0 13.333330
10.94 10.954730 37133.0 250.90 9.980 0.0970 0.1020 3786874.40 3483846.80 3390006.0 4208070.0 2.0 104.0 1.0 18.80 200.0 10.0 300.0 198.0 10.0
10.93 10.937450 37066.0 251.0 9.980 0.0970 0.1020 3786990.0 3483954.0 3390112.0 4207950.0 2.0 104.0 1.0 18.40 200.0 6.666670 300.0 198.0 6.666670
10.92 10.928820 36932.50 251.050 9.980 0.0970 0.1020 3786998.40 3483965.20 3390122.0 4207949.20 2.0 104.0 1.0 18.0 200.0 3.333330 300.0 198.0 3.333330
10.91 10.920180 36799.0 251.10 9.980 0.0970 0.1020 3787006.80 3483976.40 3390132.0 4207948.40 2.0 104.0 1.0 18.40 200.0 0.0 300.0 198.0 0.0
10.90 10.911540 36864.0 251.150 9.980 0.0970 0.1020 3787015.20 3483987.60 3390142.0 4207947.60 2.0 104.0 1.0 18.80 200.0 3.333330 300.0 198.0 3.333330
10.89 10.90290 36929.0 251.20 9.980 0.0970 0.1020 3787023.60 3483998.80 3390152.0 4207946.80 2.0 104.0 1.0 19.20 200.0 6.666670 300.0 198.0 6.666670
10.88 10.887190 37060.0 251.30 9.990 0.0970 0.10 3787032.0 3484010.0 3390162.0 4207946.0 2.0 104.0 1.0 19.60 200.0 10.0 300.0 198.0 10.0
10.87 10.878940 36881.0 251.350 10.0 0.0970 0.1010 3786918.0 3483901.60 3390050.40 4208066.80 2.0 104.0 1.0 20.0 200.0 13.333330 300.0 198.0 13.333330
10.86 10.87070 36702.0 251.40 10.010 0.0970 0.1020 3786804.0 3483793.20 3389938.80 4208187.60 2.0 104.0 1.0 19.60 200.0 16.666670 300.0 198.0 16.666670
10.85 10.862450 36849.0 251.450 10.020 0.0970 0.1020 3786690.0 3483684.80 3389827.20 4208308.40 2.0 104.0 1.0 19.20 200.0 14.666670 300.0 198.0 14.666670
10.84 10.85420 36996.0 251.50 10.030 0.0970 0.1020 3786576.0 3483576.40 3389715.60 4208429.20 2.0 104.0 1.0 18.80 200.0 12.666670 300.0 198.0 12.666670
10.83 10.836920 37044.0 251.60 10.040 0.0970 0.10 3786462.0 3483468.0 3389604.0 4208550.0 2.0 104.0 1.0 18.40 200.0 10.666670 300.0 198.0 10.666670
10.82 10.828680 37065.0 251.650 10.050 0.0970 0.1010 3786448.80 3483451.20 3389592.40 4208550.80 2.0 104.0 1.0 18.0 200.0 8.666670 300.0 198.0 8.666670
10.81 10.820430 37086.0 251.70 10.060 0.0970 0.1020 3786435.60 3483434.40 3389580.80 4208551.60 2.0 104.0 1.0 18.40 200.0 6.666670 300.0 198.0 6.666670
10.80 10.812180 37083.0 251.750 10.070 0.0970 0.1020 3786422.40 3483417.60 3389569.20 4208552.40 2.0 104.0 1.0 18.80 200.0 8.0 300.0 198.0 8.0
10.79 10.803940 37080.0 251.80 10.080 0.0970 0.1020 3786409.20 3483400.80 3389557.60 4208553.20 2.0 104.0 1.0 19.20 200.0 9.333330 300.0 198.0 9.333330
10.78 10.787440 37017.0 251.90 10.070 0.0970 0.1020 3786396.0 3483384.0 3389546.0 4208554.0 2.0 104.0 1.0 19.60 200.0 10.666670 300.0 198.0 10.666670
10.77 10.77880 37038.0 251.950 10.060 0.0970 0.1020 3786515.20 3483501.20 3389664.0 4208426.80 2.0 104.0 1.0 20.0 200.0 12.0 300.0 198.0 12.0
10.76 10.770170 37059.0 252.0 10.050 0.0970 0.1020 3786634.40 3483618.40 3389782.0 4208299.60 2.0 104.0 1.0 19.60 200.0 13.333330 300.0 198.0 13.333330
10.75 10.762310 36926.50 252.050 10.040 0.0970 0.1020 3786753.60 3483735.60 3389900.0 4208172.40 2.0 104.0 1.0 19.20 200.0 12.0 300.0 198.0 12.0
10.74 10.754460 36794.0 252.10 10.030 0.0970 0.1020 3786872.80 3483852.80 3390018.0 4208045.20 2.0 104.0 1.0 18.80 200.0 10.666670 300.0 198.0 10.666670
