~VERSION INFORMATION SECTION
VERS. 2.0 : CWLS LAS-VERSION 2.0
WRAP. NO : One line per depth step
~WELL INFORMATION SECTION
# MNEM.UNIT VALUE/NAME DESCRIPTION
#-------- -------------- ---------------------
STRT.Metres 28 : Start
STOP.Metres 0.40 : Stop
STEP.Metres -0.01 : Step
NULL.  -999.25 :NULL VALUE
DATE. 2026-16-05 : DATE
~CURVE INFORMATION SECTION
DEPTH.Metres : 0 Depth
Depth. : 1 Depth
Tension. : 2 Tension
Time. : 3 Time
Speed. : 4 Speed
Voltage. : 5 Voltage
Current. : 6 Current
X1.mm : 7 X1
X2.mm : 8 X2
Y1.mm : 9 Y1
Y2.mm : 10 Y2
MotorCurrent.mA : 11 Motor Current
HeadVoltage.V : 12 Head Voltage
WET. : 13 WET
Sig. : 14 Sig
Vth. : 15 Vth
GR.CPS : 16 GR
Timebase.ms : 17 Timebase
HeadVoltage.V : 18 Head Voltage
API.API : 19 API
~PARAMETER INFORMATION SECTION
~OTHER
#-------------------------------------------------
#Produced By: GeoVista Logger - Version 7.1.107.0
Natural Gamma Sonde - 9515
WLIS - 9387
Caliper Sonde (4 Arm) - 6341
#-------------------------------------------------
~ASCII LOG DATA
# ...
2.54 2.556470 36648.0 301.30 10.030 0.0970 0.1020 3779366.80 3483372.80 3390987.60 4203844.0 2.0 104.0 0.0 984.80 200.0 27.483870 300.0 198.0 27.483870
2.53 2.539190 37154.0 301.40 10.030 0.0970 0.1020 3779364.0 3483378.0 3390990.0 4203840.0 2.0 104.0 0.0 985.0 200.0 28.322580 300.0 198.0 28.322580
2.52 2.530950 37082.0 301.450 10.030 0.0970 0.1030 3779492.80 3483483.60 3391090.80 4203718.40 2.0 104.0 0.0 984.80 200.0 29.161290 300.0 198.0 29.161290
2.51 2.52270 37010.0 301.50 10.030 0.0970 0.1040 3779621.60 3483589.20 3391191.60 4203596.80 2.0 104.0 0.0 984.60 200.0 30.0 300.0 198.0 30.0
2.50 2.514450 36985.0 301.550 10.030 0.0970 0.1030 3779750.40 3483694.80 3391292.40 4203475.20 2.0 104.0 0.0 984.40 200.0 27.333330 300.0 198.0 27.333330
2.49 2.506210 36960.0 301.60 10.030 0.0970 0.1020 3779879.20 3483800.40 3391393.20 4203353.60 2.0 104.0 0.0 984.20 200.0 24.666670 300.0 198.0 24.666670
2.48 2.489710 36737.0 301.70 10.030 0.0970 0.1040 3780008.0 3483906.0 3391494.0 4203232.0 2.0 104.0 0.0 984.0 200.0 22.0 300.0 198.0 22.0
2.47 2.481470 36688.50 301.750 10.030 0.0970 0.1030 3779897.20 3483799.20 3391392.40 4203357.60 2.0 104.0 0.0 984.0 200.0 19.333330 300.0 198.0 19.333330
2.46 2.473220 36640.0 301.80 10.030 0.0970 0.1020 3779786.40 3483692.40 3391290.80 4203483.20 2.0 104.0 0.0 984.0 200.0 16.666670 300.0 198.0 16.666670
2.45 2.464580 36754.0 301.850 10.030 0.0970 0.1020 3779675.60 3483585.60 3391189.20 4203608.80 2.0 104.0 0.0 984.0 200.0 20.0 300.0 198.0 20.0
2.44 2.455940 36868.0 301.90 10.030 0.0970 0.1020 3779564.80 3483478.80 3391087.60 4203734.40 2.0 104.0 0.0 984.0 200.0 23.333330 300.0 198.0 23.333330
2.43 2.439450 36642.0 302.0 10.030 0.0970 0.1020 3779454.0 3483372.0 3390986.0 4203860.0 2.0 104.0 0.0 984.0 200.0 26.666670 300.0 198.0 26.666670
2.42 2.43120 36585.0 302.050 10.030 0.0970 0.1030 3779445.60 3483364.0 3390979.20 4203861.60 2.0 104.0 0.0 984.0 200.0 30.0 300.0 198.0 30.0
2.41 2.422950 36528.0 302.10 10.030 0.0970 0.1040 3779437.20 3483356.0 3390972.40 4203863.20 2.0 104.0 0.0 984.0 200.0 33.333330 300.0 198.0 33.333330
2.40 2.414310 36633.0 302.150 10.030 0.0970 0.1030 3779428.80 3483348.0 3390965.60 4203864.80 2.0 104.0 0.0 984.0 200.0 33.333330 300.0 198.0 33.333330
2.39 2.405670 36738.0 302.20 10.030 0.0970 0.1020 3779420.40 3483340.0 3390958.80 4203866.40 2.0 104.0 0.0 984.0 200.0 33.333330 300.0 198.0 33.333330
2.38 2.389970 36957.0 302.30 10.024440 0.0970 0.1020 3779412.0 3483332.0 3390952.0 4203868.0 2.0 104.0 0.0 984.0 200.0 33.333330 300.0 198.0 33.333330
2.37 2.381720 36998.0 302.350 10.018890 0.0970 0.1020 3779406.40 3483336.0 3390956.40 4203868.40 2.0 104.0 0.0 984.0 200.0 33.333330 300.0 198.0 33.333330
2.36 2.373470 37039.0 302.40 10.013330 0.0970 0.1020 3779400.80 3483340.0 3390960.80 4203868.80 2.0 104.0 0.0 984.0 200.0 33.333330 300.0 198.0 33.333330
2.35 2.364830 36940.50 302.450 10.007780 0.0970 0.1020 3779395.20 3483344.0 3390965.20 4203869.20 2.0 104.0 0.0 984.0 200.0 36.666670 300.0 198.0 36.666670
2.34 2.356190 36842.0 302.50 10.002220 0.0970 0.1020 3779389.60 3483348.0 3390969.60 4203869.60 2.0 104.0 0.0 984.0 200.0 40.0 300.0 198.0 40.0
2.33 2.338920 36709.0 302.60 9.996670 0.0970 0.1020 3779384.0 3483352.0 3390974.0 4203870.0 2.0 104.0 0.0 984.0 200.0 43.333330 300.0 198.0 43.333330
2.32 2.330670 36776.50 302.650 9.991110 0.0970 0.1030 3779504.80 3483459.60 3391082.0 4203742.0 2.0 104.0 0.0 983.80 200.0 46.666670 300.0 198.0 46.666670
2.31 2.322420 36844.0 302.70 9.985560 0.0970 0.1040 3779625.60 3483567.20 3391190.0 4203614.0 2.0 104.0 0.0 983.60 200.0 50.0 300.0 198.0 50.0
2.30 2.306710 36779.0 302.80 9.980 0.0970 0.1020 3779746.40 3483674.80 3391298.0 4203486.0 2.0 104.0 0.0 983.40 200.0 43.333330 300.0 198.0 43.333330
2.29 2.298470 36750.0 302.850 9.976360 0.0970 0.1020 3779867.20 3483782.40 3391406.0 4203358.0 2.0 104.0 0.0 983.20 200.0 36.666670 300.0 198.0 36.666670
2.28 2.290220 36721.0 302.90 9.972730 0.0970 0.1020 3779988.0 3483890.0 3391514.0 4203230.0 2.0 104.0 0.0 983.0 200.0 30.0 300.0 198.0 30.0
2.27 2.281970 36741.50 302.950 9.969090 0.0970 0.1030 3779995.60 3483897.60 3391517.20 4203231.20 2.0 104.0 0.0 983.20 200.0 23.333330 300.0 198.0 23.333330
2.26 2.273730 36762.0 303.0 9.965450 0.0970 0.1040 3780003.20 3483905.20 3391520.40 4203232.40 2.0 104.0 0.0 983.40 200.0 16.666670 300.0 198.0 16.666670
2.25 2.257230 36896.0 303.10 9.961820 0.0970 0.1020 3780010.80 3483912.80 3391523.60 4203233.60 2.0 104.0 0.0 983.60 200.0 17.333330 300.0 198.0 17.333330
2.24 2.248990 36750.50 303.150 9.958180 0.0970 0.1020 3780018.40 3483920.40 3391526.80 4203234.80 2.0 104.0 0.0 983.80 200.0 18.0 300.0 198.0 18.0
2.23 2.240740 36605.0 303.20 9.954550 0.0970 0.1020 3780026.0 3483928.0 3391530.0 4203236.0 2.0 104.0 0.0 984.0 200.0 18.666670 300.0 198.0 18.666670
2.22 2.232890 36701.0 303.250 9.950910 0.0970 0.1030 3780021.60 3483928.80 3391532.80 4203236.40 2.0 104.0 0.0 983.80 200.0 19.333330 300.0 198.0 19.333330
2.21 2.225030 36797.0 303.30 9.947270 0.0970 0.1040 3780017.20 3483929.60 3391535.60 4203236.80 2.0 104.0 0.0 983.60 200.0 20.0 300.0 198.0 20.0
2.20 2.216390 36974.0 303.350 9.943640 0.0970 0.1030 3780012.80 3483930.40 3391538.40 4203237.20 2.0 104.0 0.0 983.40 200.0 21.333330 300.0 198.0 21.333330
2.19 2.207750 37151.0 303.40 9.940 0.0970 0.1020 3780008.40 3483931.20 3391541.20 4203237.60 2.0 104.0 0.0 983.20 200.0 22.666670 300.0 198.0 22.666670
2.18 2.189690 37183.0 303.50 9.95750 0.0970 0.1020 3780004.0 3483932.0 3391544.0 4203238.0 2.0 104.0 0.0 983.0 200.0 24.0 300.0 198.0 24.0
2.17 2.181050 36950.50 303.550 9.9750 0.0970 0.1030 3779894.40 3483816.0 3391434.40 4203356.0 2.0 104.0 0.0 983.20 200.0 25.333330 300.0 198.0 25.333330
2.16 2.172410 36718.0 303.60 9.99250 0.0970 0.1040 3779784.80 3483700.0 3391324.80 4203474.0 2.0 104.0 0.0 983.40 200.0 26.666670 300.0 198.0 26.666670
2.15 2.164160 36736.50 303.650 10.010 0.0970 0.1030 3779675.20 3483584.0 3391215.20 4203592.0 2.0 104.0 0.0 983.60 200.0 26.0 300.0 198.0 26.0
2.14 2.155920 36755.0 303.70 10.02750 0.0970 0.1020 3779565.60 3483468.0 3391105.60 4203710.0 2.0 104.0 0.0 983.80 200.0 25.333330 300.0 198.0 25.333330
2.13 2.138640 36866.0 303.80 10.0450 0.0970 0.1020 3779456.0 3483352.0 3390996.0 4203828.0 2.0 104.0 0.0 984.0 200.0 24.666670 300.0 198.0 24.666670
2.12 2.130390 36703.0 303.850 10.06250 0.0970 0.1030 3779557.20 3483464.40 3391095.60 4203703.20 2.0 104.0 0.0 983.80 200.0 24.0 300.0 198.0 24.0
2.11 2.122150 36540.0 303.90 10.080 0.0970 0.1040 3779658.40 3483576.80 3391195.20 4203578.40 2.0 104.0 0.0 983.60 200.0 23.333330 300.0 198.0 23.333330
2.10 2.104080 36633.50 304.050 8.710 0.0970 0.1020 3779759.60 3483689.20 3391294.80 4203453.60 2.0 104.0 0.0 983.40 200.0 20.666670 300.0 198.0 20.666670
2.09 -999.25 -999.25 -999.25 -999.25 -999.25 -999.25 3779860.80 3483801.60 3391394.40 4203328.80 2.0 104.0 0.0 983.20 200.0 18.0 300.0 198.0 18.0
2.08 -999.25 -999.25 -999.25 -999.25 -999.25 -999.25 3779962.0 3483914.0 3391494.0 4203204.0 2.0 104.0 0.0 983.0 200.0 15.333330 300.0 198.0 15.333330
2.07 -999.25 -999.25 -999.25 -999.25 -999.25 -999.25 3779853.20 3483805.20 3391395.60 4203334.40 2.0 104.0 0.0 983.0 200.0 12.666670 300.0 198.0 12.666670
2.06 -999.25 -999.25 -999.25 -999.25 -999.25 -999.25 3779744.40 3483696.40 3391297.20 4203464.80 2.0 104.0 0.0 983.0 200.0 10.0 300.0 198.0 10.0
2.05 -999.25 -999.25 -999.25 -999.25 -999.25 -999.25 3779635.60 3483587.60 3391198.80 4203595.20 2.0 104.0 0.0 983.0 200.0 10.666670 300.0 198.0 10.666670
2.04 -999.25 -999.25 -999.25 -999.25 -999.25 -999.25 3779526.80 3483478.80 3391100.40 4203725.60 2.0 104.0 0.0 983.0 200.0 11.333330 300.0 198.0 11.333330
2.03 -999.25 -999.25 -999.25 -999.25 -999.25 -999.25 3779418.0 3483370.0 3391002.0 4203856.0 2.0 104.0 0.0 983.0 200.0 12.0 300.0 198.0 12.0
2.02 -999.25 -999.25 -999.25 -999.25 -999.25 -999.25 3779529.60 3483474.80 3391098.80 4203726.40 2.0 104.0 0.0 983.0 200.0 12.666670 300.0 198.0 12.666670
2.01 -999.25 -999.25 -999.25 -999.25 -999.25 -999.25 3779641.20 3483579.60 3391195.60 4203596.80 2.0 104.0 0.0 983.0 200.0 13.333330 300.0 198.0 13.333330
