~VERSION INFORMATION SECTION
VERS. 2.0 : CWLS LAS-VERSION 2.0
WRAP. NO : One line per depth step
~WELL INFORMATION SECTION
# MNEM.UNIT VALUE/NAME DESCRIPTION
#-------- -------------- ---------------------
STRT.Metres 28 : Start
STOP.Metres 0.40 : Stop
STEP.Metres -0.01 : Step
NULL.  -999.25 :NULL VALUE
DATE. 2026-16-05 : DATE
~CURVE INFORMATION SECTION
DEPTH.Metres : 0 Depth
Depth. : 1 Depth
Tension. : 2 Tension
Time. : 3 Time
Speed. : 4 Speed
Voltage. : 5 Voltage
Current. : 6 Current
X1.mm : 7 X1
X2.mm : 8 X2
Y1.mm : 9 Y1
Y2.mm : 10 Y2
MotorCurrent.mA : 11 Motor Current
HeadVoltage.V : 12 Head Voltage
WET. : 13 WET
Sig. : 14 Sig
Vth. : 15 Vth
GR.CPS : 16 GR
Timebase.ms : 17 Timebase
HeadVoltage.V : 18 Head Voltage
API.API : 19 API
~PARAMETER INFORMATION SECTION
~OTHER
#-------------------------------------------------
#Produced By: GeoVista Logger - Version 7.1.107.0
Natural Gamma Sonde - 9515
WLIS - 9387
Caliper Sonde (4 Arm) - 6341
#-------------------------------------------------
~ASCII LOG DATA
# ...
7.44 7.44950 36812.50 271.950 10.040 0.0970 0.1020 3780032.80 3483774.80 3389963.20 4203524.0 2.0 104.0 1.0 14.60 200.0 18.0 306.0 198.0 18.0
7.43 7.440860 36741.0 272.0 10.050 0.0970 0.1020 3780132.0 3483876.0 3390066.0 4203390.0 2.0 104.0 1.0 15.0 200.0 18.666670 304.0 198.0 18.666670
7.42 7.432620 36887.50 272.050 10.060 0.0970 0.1020 3780145.60 3483887.60 3390072.80 4203390.0 2.0 104.0 1.0 14.40 200.0 19.333330 302.0 198.0 19.333330
7.41 7.424370 37034.0 272.10 10.070 0.0970 0.1020 3780159.20 3483899.20 3390079.60 4203390.0 2.0 104.0 1.0 13.80 200.0 20.0 300.0 198.0 20.0
7.40 7.407090 37207.0 272.20 10.080 0.0970 0.1020 3780172.80 3483910.80 3390086.40 4203390.0 2.0 104.0 1.0 13.20 200.0 21.806450 300.0 198.0 21.806450
7.39 7.398840 37069.50 272.250 10.0850 0.0970 0.1020 3780186.40 3483922.40 3390093.20 4203390.0 2.0 104.0 1.0 12.60 200.0 23.61290 300.0 198.0 23.61290
7.38 7.39060 36932.0 272.30 10.090 0.0970 0.1020 3780200.0 3483934.0 3390100.0 4203390.0 2.0 104.0 1.0 12.0 200.0 25.419350 300.0 198.0 25.419350
7.37 7.382350 36921.0 272.350 10.0950 0.0970 0.1020 3780199.20 3483929.60 3390100.80 4203394.40 2.0 104.0 1.0 12.40 200.0 27.225810 300.0 198.0 27.225810
7.36 7.37410 36910.0 272.40 10.10 0.0970 0.1020 3780198.40 3483925.20 3390101.60 4203398.80 2.0 104.0 1.0 12.80 200.0 29.032260 300.0 198.0 29.032260
7.35 7.357610 37299.0 272.50 10.1050 0.0970 0.1020 3780197.60 3483920.80 3390102.40 4203403.20 2.0 104.0 1.0 13.20 200.0 29.225810 300.0 198.0 29.225810
7.34 7.348970 37220.50 272.550 10.110 0.0970 0.1020 3780196.80 3483916.40 3390103.20 4203407.60 2.0 104.0 1.0 13.60 200.0 29.419350 300.0 198.0 29.419350
7.33 7.340330 37142.0 272.60 10.1150 0.0970 0.1020 3780196.0 3483912.0 3390104.0 4203412.0 2.0 104.0 1.0 14.0 200.0 29.61290 300.0 198.0 29.61290
7.32 7.332080 37128.0 272.650 10.120 0.0970 0.1020 3780190.0 3483905.60 3390106.80 4203408.80 2.0 104.0 1.0 13.80 200.0 29.806450 300.0 198.0 29.806450
7.31 7.323840 37114.0 272.70 10.1250 0.0970 0.1020 3780184.0 3483899.20 3390109.60 4203405.60 2.0 104.0 1.0 13.60 200.0 30.0 300.0 198.0 30.0
7.30 7.307340 37022.0 272.80 10.130 0.0970 0.10 3780178.0 3483892.80 3390112.40 4203402.40 2.0 104.0 1.0 13.40 200.0 27.333330 300.0 198.0 27.333330
7.29 7.29910 37048.50 272.850 10.1150 0.0970 0.1010 3780172.0 3483886.40 3390115.20 4203399.20 2.0 104.0 1.0 13.20 200.0 24.666670 300.0 198.0 24.666670
7.28 7.290850 37075.0 272.90 10.10 0.0970 0.1020 3780166.0 3483880.0 3390118.0 4203396.0 2.0 104.0 1.0 13.0 200.0 22.0 300.0 198.0 22.0
7.27 7.28260 36983.50 272.950 10.0850 0.0970 0.1020 3780166.0 3483882.0 3390117.20 4203401.60 2.0 104.0 1.0 13.20 200.0 19.333330 300.0 198.0 19.333330
7.26 7.274360 36892.0 273.0 10.070 0.0970 0.1020 3780166.0 3483884.0 3390116.40 4203407.20 2.0 104.0 1.0 13.40 200.0 16.666670 300.0 198.0 16.666670
7.25 7.257080 36816.0 273.10 10.0550 0.0970 0.1020 3780166.0 3483886.0 3390115.60 4203412.80 2.0 104.0 1.0 13.60 200.0 15.333330 300.0 198.0 15.333330
7.24 7.248830 36843.0 273.150 10.040 0.0970 0.1020 3780166.0 3483888.0 3390114.80 4203418.40 2.0 104.0 1.0 13.80 200.0 14.0 300.0 198.0 14.0
7.23 7.240590 36870.0 273.20 10.0250 0.0970 0.1020 3780166.0 3483890.0 3390114.0 4203424.0 2.0 104.0 1.0 14.0 200.0 12.666670 300.0 198.0 12.666670
7.22 7.232340 36888.0 273.250 10.010 0.0970 0.1020 3780168.0 3483896.40 3390112.80 4203419.60 2.0 104.0 1.0 13.80 200.0 11.333330 300.0 198.0 11.333330
7.21 7.224090 36906.0 273.30 9.9950 0.0970 0.1020 3780170.0 3483902.80 3390111.60 4203415.20 2.0 104.0 1.0 13.60 200.0 10.0 300.0 198.0 10.0
7.20 7.20760 37039.0 273.40 9.980 0.0970 0.1020 3780172.0 3483909.20 3390110.40 4203410.80 2.0 104.0 1.0 13.40 200.0 10.666670 300.0 198.0 10.666670
7.19 7.199740 36896.50 273.450 9.9710 0.0970 0.1020 3780174.0 3483915.60 3390109.20 4203406.40 2.0 104.0 1.0 13.20 200.0 11.333330 300.0 198.0 11.333330
7.18 7.191890 36754.0 273.50 9.9620 0.0970 0.1020 3780176.0 3483922.0 3390108.0 4203402.0 2.0 104.0 1.0 13.0 200.0 12.0 300.0 198.0 12.0
7.17 7.183250 36722.50 273.550 9.9530 0.0970 0.1020 3780060.0 3483802.80 3390000.40 4203522.40 2.0 104.0 1.0 13.0 200.0 12.666670 300.0 198.0 12.666670
7.16 7.174610 36691.0 273.60 9.9440 0.0970 0.1020 3779944.0 3483683.60 3389892.80 4203642.80 2.0 104.0 1.0 13.0 200.0 13.333330 300.0 198.0 13.333330
7.15 7.158120 36797.0 273.70 9.9350 0.0970 0.1020 3779828.0 3483564.40 3389785.20 4203763.20 2.0 104.0 1.0 13.0 200.0 15.333330 300.0 198.0 15.333330
7.14 7.149870 36731.0 273.750 9.9260 0.0970 0.1020 3779712.0 3483445.20 3389677.60 4203883.60 2.0 104.0 1.0 13.0 200.0 17.333330 300.0 198.0 17.333330
7.13 7.141630 36665.0 273.80 9.9170 0.0970 0.1020 3779596.0 3483326.0 3389570.0 4204004.0 2.0 104.0 1.0 13.0 200.0 19.333330 300.0 198.0 19.333330
7.12 7.133380 36809.50 273.850 9.9080 0.0970 0.1020 3779697.60 3483438.80 3389668.40 4203879.60 2.0 104.0 1.0 13.0 200.0 21.333330 300.0 198.0 21.333330
7.11 7.125130 36954.0 273.90 9.8990 0.0970 0.1020 3779799.20 3483551.60 3389766.80 4203755.20 2.0 104.0 1.0 13.0 200.0 23.333330 300.0 198.0 23.333330
7.10 7.108640 36942.0 274.0 9.890 0.0970 0.1020 3779900.80 3483664.40 3389865.20 4203630.80 2.0 104.0 1.0 13.0 200.0 23.333330 300.0 198.0 23.333330
7.09 7.100390 37037.50 274.050 9.8950 0.0970 0.1010 3780002.40 3483777.20 3389963.60 4203506.40 2.0 104.0 1.0 13.0 200.0 23.333330 300.0 198.0 23.333330
7.08 7.092150 37133.0 274.10 9.90 0.0970 0.10 3780104.0 3483890.0 3390062.0 4203382.0 2.0 104.0 1.0 13.0 200.0 23.333330 300.0 198.0 23.333330
7.07 7.08390 37223.50 274.150 9.9050 0.0970 0.1010 3780111.60 3483893.20 3390068.40 4203382.80 2.0 104.0 1.0 13.0 200.0 23.333330 300.0 198.0 23.333330
7.06 7.075650 37314.0 274.20 9.910 0.0970 0.1020 3780119.20 3483896.40 3390074.80 4203383.60 2.0 104.0 1.0 13.0 200.0 23.333330 300.0 198.0 23.333330
7.05 7.058370 37093.0 274.30 9.9150 0.0970 0.1020 3780126.80 3483899.60 3390081.20 4203384.40 2.0 104.0 1.0 13.0 200.0 20.0 300.0 198.0 20.0
7.04 7.050130 36929.0 274.350 9.920 0.0970 0.1020 3780134.40 3483902.80 3390087.60 4203385.20 2.0 104.0 1.0 13.0 200.0 16.666670 300.0 198.0 16.666670
7.03 7.041880 36765.0 274.40 9.9250 0.0970 0.1020 3780142.0 3483906.0 3390094.0 4203386.0 2.0 104.0 1.0 13.0 200.0 13.333330 300.0 198.0 13.333330
7.02 7.033630 36765.50 274.450 9.930 0.0970 0.1020 3780030.80 3483784.0 3389983.20 4203512.40 2.0 104.0 1.0 13.0 200.0 10.0 300.0 198.0 10.0
7.01 7.025390 36766.0 274.50 9.9350 0.0970 0.1020 3779919.60 3483662.0 3389872.40 4203638.80 2.0 104.0 1.0 13.0 200.0 6.666670 300.0 198.0 6.666670
7.00 7.008890 36692.0 274.60 9.940 0.0970 0.1020 3779808.40 3483540.0 3389761.60 4203765.20 2.0 104.0 1.0 13.0 200.0 8.0 300.0 198.0 8.0
6.99 7.000650 36741.50 274.650 9.9440 0.0970 0.1020 3779697.20 3483418.0 3389650.80 4203891.60 2.0 104.0 1.0 13.0 200.0 9.333330 300.0 198.0 9.333330
6.98 6.99240 36791.0 274.70 9.9480 0.0970 0.1020 3779586.0 3483296.0 3389540.0 4204018.0 2.0 104.0 1.0 13.0 200.0 10.666670 300.0 198.0 10.666670
6.97 6.983760 36919.0 274.750 9.9520 0.0970 0.1020 3779582.40 3483300.40 3389533.20 4204014.0 2.0 104.0 1.0 13.0 200.0 12.0 300.0 198.0 12.0
6.96 6.975120 37047.0 274.80 9.9560 0.0970 0.1020 3779578.80 3483304.80 3389526.40 4204010.0 2.0 104.0 1.0 13.0 200.0 13.333330 300.0 198.0 13.333330
6.95 6.958630 36921.0 274.90 9.960 0.0970 0.1020 3779575.20 3483309.20 3389519.60 4204006.0 2.0 104.0 1.0 13.0 200.0 16.0 300.0 198.0 16.0
6.94 6.950380 36912.0 274.950 9.9640 0.0970 0.1020 3779571.60 3483313.60 3389512.80 4204002.0 2.0 104.0 1.0 13.0 200.0 18.666670 300.0 198.0 18.666670
6.93 6.942130 36903.0 275.0 9.9680 0.0970 0.1020 3779568.0 3483318.0 3389506.0 4203998.0 2.0 104.0 1.0 13.0 200.0 21.333330 300.0 198.0 21.333330
6.92 6.933890 37091.0 275.050 9.9720 0.0970 0.1020 3779556.80 3483311.60 3389506.40 4203996.40 2.0 104.0 1.0 13.0 200.0 24.0 300.0 198.0 24.0
6.91 6.925640 37279.0 275.10 9.9760 0.0970 0.1020 3779545.60 3483305.20 3389506.80 4203994.80 2.0 104.0 1.0 13.0 200.0 26.666670 300.0 198.0 26.666670
6.90 6.909150 36679.0 275.20 9.980 0.0970 0.1020 3779534.40 3483298.80 3389507.20 4203993.20 2.0 104.0 1.0 13.0 200.0 24.666670 300.0 198.0 24.666670
