~VERSION INFORMATION SECTION
VERS. 2.0 : CWLS LAS-VERSION 2.0
WRAP. NO : One line per depth step
~WELL INFORMATION SECTION
# MNEM.UNIT VALUE/NAME DESCRIPTION
#-------- -------------- ---------------------
STRT.Metres 28 : Start
STOP.Metres 0.40 : Stop
STEP.Metres -0.01 : Step
NULL.  -999.25 :NULL VALUE
DATE. 2026-16-05 : DATE
~CURVE INFORMATION SECTION
DEPTH.Metres : 0 Depth
Depth. : 1 Depth
Tension. : 2 Tension
Time. : 3 Time
Speed. : 4 Speed
Voltage. : 5 Voltage
Current. : 6 Current
X1.mm : 7 X1
X2.mm : 8 X2
Y1.mm : 9 Y1
Y2.mm : 10 Y2
MotorCurrent.mA : 11 Motor Current
HeadVoltage.V : 12 Head Voltage
WET. : 13 WET
Sig. : 14 Sig
Vth. : 15 Vth
GR.CPS : 16 GR
Timebase.ms : 17 Timebase
HeadVoltage.V : 18 Head Voltage
API.API : 19 API
~PARAMETER INFORMATION SECTION
~OTHER
#-------------------------------------------------
#Produced By: GeoVista Logger - Version 7.1.107.0
Natural Gamma Sonde - 9515
WLIS - 9387
Caliper Sonde (4 Arm) - 6341
#-------------------------------------------------
~ASCII LOG DATA
# ...
5.80 5.807230 36976.0 281.80 9.980 0.0970 0.1020 3779760.0 3483517.60 3389726.80 4203653.60 2.0 104.0 1.0 12.0 200.0 24.0 300.0 198.0 24.0
5.79 5.798990 37002.0 281.850 9.9850 0.0970 0.1020 3779650.0 3483410.80 3389624.40 4203776.80 2.0 104.0 1.0 12.0 200.0 24.666670 300.0 198.0 24.666670
5.78 5.790740 37028.0 281.90 9.990 0.0970 0.1020 3779540.0 3483304.0 3389522.0 4203900.0 2.0 104.0 1.0 12.0 200.0 25.333330 300.0 198.0 25.333330
5.77 5.782490 37014.50 281.950 9.9950 0.0970 0.1020 3779524.80 3483294.0 3389518.40 4203898.40 2.0 104.0 1.0 12.0 200.0 26.0 300.0 198.0 26.0
5.76 5.774250 37001.0 282.0 10.0 0.0970 0.1020 3779509.60 3483284.0 3389514.80 4203896.80 2.0 104.0 1.0 12.0 200.0 26.666670 300.0 198.0 26.666670
5.75 5.756970 36975.0 282.10 10.0050 0.0970 0.1020 3779494.40 3483274.0 3389511.20 4203895.20 2.0 104.0 1.0 12.0 200.0 26.0 300.0 198.0 26.0
5.74 5.748720 36963.50 282.150 10.010 0.0970 0.1020 3779479.20 3483264.0 3389507.60 4203893.60 2.0 104.0 1.0 12.0 200.0 25.333330 300.0 198.0 25.333330
5.73 5.740480 36952.0 282.20 10.0150 0.0970 0.1020 3779464.0 3483254.0 3389504.0 4203892.0 2.0 104.0 1.0 12.0 200.0 24.666670 300.0 198.0 24.666670
5.72 5.732230 36853.50 282.250 10.020 0.0970 0.1030 3779589.20 3483373.20 3389610.80 4203777.60 2.0 104.0 1.0 12.0 200.0 24.0 300.0 198.0 24.0
5.71 5.723980 36755.0 282.30 10.0250 0.0970 0.1040 3779714.40 3483492.40 3389717.60 4203663.20 2.0 104.0 1.0 12.0 200.0 23.333330 300.0 198.0 23.333330
5.70 5.707490 36832.0 282.40 10.030 0.0970 0.1020 3779839.60 3483611.60 3389824.40 4203548.80 2.0 104.0 1.0 12.0 200.0 24.666670 300.0 198.0 24.666670
5.69 5.699240 36806.0 282.450 10.0250 0.0970 0.1030 3779964.80 3483730.80 3389931.20 4203434.40 2.0 104.0 1.0 12.0 200.0 26.0 300.0 198.0 26.0
5.68 5.6910 36780.0 282.50 10.020 0.0970 0.1040 3780090.0 3483850.0 3390038.0 4203320.0 2.0 104.0 1.0 12.0 200.0 27.333330 300.0 198.0 27.333330
5.67 5.682750 36895.0 282.550 10.0150 0.0970 0.1030 3779971.60 3483740.80 3389933.20 4203438.80 2.0 104.0 1.0 12.0 200.0 28.666670 300.0 198.0 28.666670
5.66 5.67450 37010.0 282.60 10.010 0.0970 0.1020 3779853.20 3483631.60 3389828.40 4203557.60 2.0 104.0 1.0 12.0 200.0 30.0 300.0 198.0 30.0
5.65 5.658010 36837.0 282.70 10.0050 0.0970 0.1020 3779734.80 3483522.40 3389723.60 4203676.40 2.0 104.0 1.0 12.0 200.0 30.666670 300.0 198.0 30.666670
5.64 5.649760 36828.50 282.750 10.0 0.0970 0.1020 3779616.40 3483413.20 3389618.80 4203795.20 2.0 104.0 1.0 12.0 200.0 31.333330 300.0 198.0 31.333330
5.63 5.641520 36820.0 282.80 9.9950 0.0970 0.1020 3779498.0 3483304.0 3389514.0 4203914.0 2.0 104.0 1.0 12.0 200.0 32.0 300.0 198.0 32.0
5.62 5.633270 36759.50 282.850 9.990 0.0970 0.1020 3779497.60 3483294.80 3389506.40 4203908.40 2.0 104.0 1.0 12.0 200.0 32.666670 300.0 198.0 32.666670
5.61 5.625020 36699.0 282.90 9.9850 0.0970 0.1020 3779497.20 3483285.60 3389498.80 4203902.80 2.0 104.0 1.0 12.0 200.0 33.333330 300.0 198.0 33.333330
5.60 5.608530 36685.0 283.0 9.980 0.0970 0.1020 3779496.80 3483276.40 3389491.20 4203897.20 2.0 104.0 1.0 12.0 200.0 34.0 302.0 198.0 34.0
5.59 5.600280 36699.50 283.050 9.9710 0.0970 0.1020 3779496.40 3483267.20 3389483.60 4203891.60 2.0 104.0 1.0 12.0 200.0 34.666670 304.0 198.0 34.666670
5.58 5.592030 36714.0 283.10 9.9620 0.0970 0.1020 3779496.0 3483258.0 3389476.0 4203886.0 2.0 104.0 1.0 12.0 200.0 35.333330 306.0 198.0 35.333330
5.57 5.583790 36828.50 283.150 9.9530 0.0970 0.1020 3779613.20 3483378.40 3389587.20 4203759.20 2.0 104.0 1.0 12.0 200.0 36.0 308.0 198.0 36.0
5.56 5.575540 36943.0 283.20 9.9440 0.0970 0.1020 3779730.40 3483498.80 3389698.40 4203632.40 2.0 104.0 1.0 12.0 200.0 36.666670 310.0 198.0 36.666670
5.55 5.558260 37030.0 283.30 9.9350 0.0970 0.1020 3779847.60 3483619.20 3389809.60 4203505.60 2.0 104.0 1.0 12.0 200.0 32.0 308.0 198.0 32.0
5.54 5.550020 36970.0 283.350 9.9260 0.0970 0.1020 3779964.80 3483739.60 3389920.80 4203378.80 2.0 104.0 1.0 12.0 200.0 27.333330 306.0 198.0 27.333330
5.53 5.541770 36910.0 283.40 9.9170 0.0970 0.1020 3780082.0 3483860.0 3390032.0 4203252.0 2.0 104.0 1.0 12.0 200.0 22.666670 304.0 198.0 22.666670
5.52 5.533520 36905.50 283.450 9.9080 0.0970 0.1020 3780086.80 3483862.0 3390035.60 4203261.20 2.0 104.0 1.0 12.0 200.0 18.0 302.0 198.0 18.0
5.51 5.525280 36901.0 283.50 9.8990 0.0970 0.1020 3780091.60 3483864.0 3390039.20 4203270.40 2.0 104.0 1.0 12.0 200.0 13.333330 300.0 198.0 13.333330
5.50 5.5080 36777.0 283.60 9.890 0.0970 0.1020 3780096.40 3483866.0 3390042.80 4203279.60 2.0 104.0 1.0 12.0 200.0 17.763440 300.0 198.0 17.763440
5.49 5.499750 36884.50 283.650 9.9140 0.0970 0.1020 3780101.20 3483868.0 3390046.40 4203288.80 2.0 104.0 1.0 12.0 200.0 22.193550 300.0 198.0 22.193550
5.48 5.49150 36992.0 283.70 9.9380 0.0970 0.1020 3780106.0 3483870.0 3390050.0 4203298.0 2.0 104.0 1.0 12.0 200.0 26.623660 300.0 198.0 26.623660
5.47 5.482860 36971.50 283.750 9.9620 0.0970 0.1020 3779986.40 3483752.0 3389940.80 4203416.40 2.0 104.0 1.0 12.0 200.0 31.053760 300.0 198.0 31.053760
5.46 5.474230 36951.0 283.80 9.9860 0.0970 0.1020 3779866.80 3483634.0 3389831.60 4203534.80 2.0 104.0 1.0 12.0 200.0 35.483870 300.0 198.0 35.483870
5.45 5.457730 36794.0 283.90 10.010 0.0970 0.1020 3779747.20 3483516.0 3389722.40 4203653.20 2.0 104.0 1.0 12.0 200.0 32.38710 300.0 198.0 32.38710
5.44 5.449490 36827.50 283.950 10.0340 0.0970 0.1020 3779627.60 3483398.0 3389613.20 4203771.60 2.0 104.0 1.0 12.0 200.0 29.290320 300.0 198.0 29.290320
5.43 5.441240 36861.0 284.0 10.0580 0.0970 0.1020 3779508.0 3483280.0 3389504.0 4203890.0 2.0 104.0 1.0 12.0 200.0 26.193550 300.0 198.0 26.193550
5.42 5.43260 36784.0 284.050 10.0820 0.0970 0.1020 3779497.60 3483267.60 3389498.80 4203893.20 2.0 104.0 1.0 12.0 200.0 23.096770 300.0 198.0 23.096770
5.41 5.423960 36707.0 284.10 10.1060 0.0970 0.1020 3779487.20 3483255.20 3389493.60 4203896.40 2.0 104.0 1.0 12.0 200.0 20.0 300.0 198.0 20.0
5.40 5.407470 36826.0 284.20 10.130 0.0970 0.1020 3779476.80 3483242.80 3389488.40 4203899.60 2.0 104.0 1.0 12.0 200.0 19.333330 300.0 198.0 19.333330
5.39 5.398830 36827.0 284.250 10.130 0.0970 0.1020 3779466.40 3483230.40 3389483.20 4203902.80 2.0 104.0 1.0 12.0 200.0 18.666670 300.0 198.0 18.666670
5.38 5.390190 36828.0 284.30 10.130 0.0970 0.1020 3779456.0 3483218.0 3389478.0 4203906.0 2.0 104.0 1.0 12.0 200.0 18.0 300.0 198.0 18.0
5.37 5.381940 37000.0 284.350 10.130 0.0970 0.1020 3779579.60 3483332.40 3389590.80 4203780.0 2.0 104.0 1.0 12.0 200.0 17.333330 300.0 198.0 17.333330
5.36 5.373690 37172.0 284.40 10.130 0.0970 0.1020 3779703.20 3483446.80 3389703.60 4203654.0 2.0 104.0 1.0 12.0 200.0 16.666670 300.0 198.0 16.666670
5.35 5.365450 37167.0 284.450 10.130 0.0970 0.1030 3779826.80 3483561.20 3389816.40 4203528.0 2.0 104.0 1.0 12.0 200.0 21.333330 300.0 198.0 21.333330
5.34 5.35720 37162.0 284.50 10.130 0.0970 0.1040 3779950.40 3483675.60 3389929.20 4203402.0 2.0 104.0 1.0 12.0 200.0 26.0 300.0 198.0 26.0
5.33 5.339920 37168.0 284.60 10.130 0.0970 0.1020 3780074.0 3483790.0 3390042.0 4203276.0 2.0 104.0 1.0 12.0 200.0 30.666670 300.0 198.0 30.666670
5.32 5.331680 37047.50 284.650 10.130 0.0970 0.1020 3780086.80 3483797.20 3390048.80 4203274.80 2.0 104.0 1.0 12.0 200.0 35.333330 300.0 198.0 35.333330
5.31 5.323430 36927.0 284.70 10.130 0.0970 0.1020 3780099.60 3483804.40 3390055.60 4203273.60 2.0 104.0 1.0 12.0 200.0 40.0 300.0 198.0 40.0
5.30 5.315180 36948.0 284.750 10.130 0.0970 0.1020 3780112.40 3483811.60 3390062.40 4203272.40 2.0 104.0 1.0 12.0 200.0 39.333330 300.0 198.0 39.333330
5.29 5.306940 36969.0 284.80 10.130 0.0970 0.1020 3780125.20 3483818.80 3390069.20 4203271.20 2.0 104.0 1.0 12.0 200.0 38.666670 300.0 198.0 38.666670
5.28 5.289660 36873.0 284.90 10.120 0.0970 0.1020 3780138.0 3483826.0 3390076.0 4203270.0 2.0 104.0 1.0 12.0 200.0 38.0 300.0 198.0 38.0
5.27 5.281410 36793.50 284.950 10.110 0.0970 0.1020 3780133.60 3483837.60 3390074.40 4203278.0 2.0 104.0 1.0 12.0 200.0 37.333330 300.0 198.0 37.333330
5.26 5.273160 36714.0 285.0 10.10 0.0970 0.1020 3780129.20 3483849.20 3390072.80 4203286.0 2.0 104.0 1.0 12.0 200.0 36.666670 300.0 198.0 36.666670
