~VERSION INFORMATION SECTION
VERS. 2.0 : CWLS LAS-VERSION 2.0
WRAP. NO : One line per depth step
~WELL INFORMATION SECTION
# MNEM.UNIT VALUE/NAME DESCRIPTION
#-------- -------------- ---------------------
STRT.Metres 28 : Start
STOP.Metres 0.40 : Stop
STEP.Metres -0.01 : Step
NULL.  -999.25 :NULL VALUE
DATE. 2026-16-05 : DATE
~CURVE INFORMATION SECTION
DEPTH.Metres : 0 Depth
Depth. : 1 Depth
Tension. : 2 Tension
Time. : 3 Time
Speed. : 4 Speed
Voltage. : 5 Voltage
Current. : 6 Current
X1.mm : 7 X1
X2.mm : 8 X2
Y1.mm : 9 Y1
Y2.mm : 10 Y2
MotorCurrent.mA : 11 Motor Current
HeadVoltage.V : 12 Head Voltage
WET. : 13 WET
Sig. : 14 Sig
Vth. : 15 Vth
GR.CPS : 16 GR
Timebase.ms : 17 Timebase
HeadVoltage.V : 18 Head Voltage
API.API : 19 API
~PARAMETER INFORMATION SECTION
~OTHER
#-------------------------------------------------
#Produced By: GeoVista Logger - Version 7.1.107.0
Natural Gamma Sonde - 9515
WLIS - 9387
Caliper Sonde (4 Arm) - 6341
#-------------------------------------------------
~ASCII LOG DATA
# ...
9.64 9.65490 36529.0 258.70 9.940 0.0970 0.1020 3779804.40 3483535.60 3389733.60 4203994.80 2.0 104.0 1.0 17.60 200.0 14.0 300.0 198.0 14.0
9.63 9.638410 37170.0 258.80 9.940 0.0970 0.1020 3779692.0 3483418.0 3389624.0 4204116.0 2.0 104.0 1.0 17.80 200.0 12.666670 300.0 198.0 12.666670
9.62 9.630160 37312.0 258.850 9.940 0.0970 0.1020 3779791.20 3483518.0 3389726.40 4203997.20 2.0 104.0 1.0 18.0 200.0 11.333330 300.0 198.0 11.333330
9.61 9.621910 37454.0 258.90 9.940 0.0970 0.1020 3779890.40 3483618.0 3389828.80 4203878.40 2.0 104.0 1.0 17.60 200.0 10.0 300.0 198.0 10.0
9.60 9.613670 37355.0 258.950 9.940 0.0970 0.1020 3779989.60 3483718.0 3389931.20 4203759.60 2.0 104.0 1.0 17.20 200.0 10.0 300.0 198.0 10.0
9.59 9.605420 37256.0 259.0 9.940 0.0970 0.1020 3780088.80 3483818.0 3390033.60 4203640.80 2.0 104.0 1.0 16.80 200.0 10.0 300.0 198.0 10.0
9.58 9.588930 37099.0 259.10 9.940 0.0970 0.1020 3780188.0 3483918.0 3390136.0 4203522.0 2.0 104.0 1.0 16.40 200.0 10.0 300.0 198.0 10.0
9.57 9.580290 37007.50 259.150 9.940 0.0970 0.1020 3780078.80 3483809.20 3390035.20 4203635.20 2.0 104.0 1.0 16.0 200.0 10.0 300.0 198.0 10.0
9.56 9.571650 36916.0 259.20 9.940 0.0970 0.1020 3779969.60 3483700.40 3389934.40 4203748.40 2.0 104.0 1.0 16.20 200.0 10.0 300.0 198.0 10.0
9.55 9.56340 36902.0 259.250 9.940 0.0970 0.1020 3779860.40 3483591.60 3389833.60 4203861.60 2.0 104.0 1.0 16.40 200.0 10.0 300.0 198.0 10.0
9.54 9.555150 36888.0 259.30 9.940 0.0970 0.1020 3779751.20 3483482.80 3389732.80 4203974.80 2.0 104.0 1.0 16.60 200.0 10.0 300.0 198.0 10.0
9.53 9.538660 36906.0 259.40 9.940 0.0970 0.1020 3779642.0 3483374.0 3389632.0 4204088.0 2.0 104.0 1.0 16.80 200.0 10.0 300.0 198.0 10.0
9.52 9.530410 36886.50 259.450 9.940 0.0970 0.1020 3779756.80 3483492.80 3389735.20 4203978.0 2.0 104.0 1.0 17.0 200.0 10.0 300.0 198.0 10.0
9.51 9.522170 36867.0 259.50 9.940 0.0970 0.1020 3779871.60 3483611.60 3389838.40 4203868.0 2.0 104.0 1.0 16.80 200.0 10.0 300.0 198.0 10.0
9.50 9.513530 36990.0 259.550 9.940 0.0970 0.1020 3779986.40 3483730.40 3389941.60 4203758.0 2.0 104.0 1.0 16.60 200.0 8.666670 300.0 198.0 8.666670
9.49 9.504890 37113.0 259.60 9.940 0.0970 0.1020 3780101.20 3483849.20 3390044.80 4203648.0 2.0 104.0 1.0 16.40 200.0 7.333330 300.0 198.0 7.333330
9.48 9.48840 37061.0 259.70 9.9490 0.0970 0.1040 3780216.0 3483968.0 3390148.0 4203538.0 2.0 104.0 1.0 16.20 200.0 6.0 300.0 198.0 6.0
9.47 9.480150 36929.0 259.750 9.9580 0.0970 0.1030 3780227.20 3483974.40 3390152.80 4203536.40 2.0 104.0 1.0 16.0 200.0 4.666670 300.0 198.0 4.666670
9.46 9.47190 36797.0 259.80 9.9670 0.0970 0.1020 3780238.40 3483980.80 3390157.60 4203534.80 2.0 104.0 1.0 16.0 200.0 3.333330 300.0 198.0 3.333330
9.45 9.463660 36910.50 259.850 9.9760 0.0970 0.1020 3780249.60 3483987.20 3390162.40 4203533.20 2.0 104.0 1.0 16.0 200.0 7.333330 300.0 198.0 7.333330
9.44 9.455410 37024.0 259.90 9.9850 0.0970 0.1020 3780260.80 3483993.60 3390167.20 4203531.60 2.0 104.0 1.0 16.0 200.0 11.333330 300.0 198.0 11.333330
9.43 9.438920 37215.0 260.0 9.9940 0.0970 0.10 3780272.0 3484000.0 3390172.0 4203530.0 2.0 104.0 1.0 16.0 200.0 15.333330 300.0 198.0 15.333330
9.42 9.430670 37125.0 260.050 10.0030 0.0970 0.1010 3780149.60 3483878.80 3390064.80 4203640.40 2.0 104.0 1.0 16.0 200.0 19.333330 300.0 198.0 19.333330
9.41 9.422420 37035.0 260.10 10.0120 0.0970 0.1020 3780027.20 3483757.60 3389957.60 4203750.80 2.0 104.0 1.0 16.0 200.0 23.333330 300.0 198.0 23.333330
9.40 9.414180 36972.50 260.150 10.0210 0.0970 0.1020 3779904.80 3483636.40 3389850.40 4203861.20 2.0 104.0 1.0 16.0 200.0 22.0 302.0 198.0 22.0
9.39 9.405930 36910.0 260.20 10.030 0.0970 0.1020 3779782.40 3483515.20 3389743.20 4203971.60 2.0 104.0 1.0 16.0 200.0 20.666670 304.0 198.0 20.666670
9.38 9.389440 36870.0 260.30 10.014440 0.0970 0.1020 3779660.0 3483394.0 3389636.0 4204082.0 2.0 104.0 1.0 16.0 200.0 19.333330 306.0 198.0 19.333330
9.37 9.381190 37048.50 260.350 9.998890 0.0970 0.1020 3779766.40 3483497.20 3389733.60 4203963.60 2.0 104.0 1.0 16.0 200.0 18.0 308.0 198.0 18.0
9.36 9.372940 37227.0 260.40 9.983330 0.0970 0.1020 3779872.80 3483600.40 3389831.20 4203845.20 2.0 104.0 1.0 16.0 200.0 16.666670 310.0 198.0 16.666670
9.35 9.36470 37190.0 260.450 9.967780 0.0970 0.1020 3779979.20 3483703.60 3389928.80 4203726.80 2.0 104.0 1.0 16.0 200.0 17.333330 308.0 198.0 17.333330
9.34 9.356450 37153.0 260.50 9.952220 0.0970 0.1020 3780085.60 3483806.80 3390026.40 4203608.40 2.0 104.0 1.0 16.0 200.0 18.0 306.0 198.0 18.0
9.33 9.339950 36945.0 260.60 9.936670 0.0970 0.1020 3780192.0 3483910.0 3390124.0 4203490.0 2.0 104.0 1.0 16.0 200.0 18.666670 304.0 198.0 18.666670
9.32 9.331710 37016.0 260.650 9.921110 0.0970 0.1010 3780201.60 3483926.0 3390128.0 4203486.80 2.0 104.0 1.0 16.0 200.0 19.333330 302.0 198.0 19.333330
9.31 9.323460 37087.0 260.70 9.905560 0.0970 0.10 3780211.20 3483942.0 3390132.0 4203483.60 2.0 104.0 1.0 16.0 200.0 20.0 300.0 198.0 20.0
9.30 9.306970 37261.0 260.80 9.890 0.0970 0.1020 3780220.80 3483958.0 3390136.0 4203480.40 2.0 104.0 1.0 16.0 200.0 18.580650 300.0 198.0 18.580650
9.29 9.298720 37220.0 260.850 9.894550 0.0970 0.1020 3780230.40 3483974.0 3390140.0 4203477.20 2.0 104.0 1.0 16.0 200.0 17.161290 300.0 198.0 17.161290
9.28 9.290470 37179.0 260.90 9.899090 0.0970 0.1020 3780240.0 3483990.0 3390144.0 4203474.0 2.0 104.0 1.0 16.0 200.0 15.741940 300.0 198.0 15.741940
9.27 9.281840 36999.0 260.950 9.903640 0.0970 0.1020 3780120.0 3483876.80 3390036.80 4203598.80 2.0 104.0 1.0 16.0 200.0 14.322580 300.0 198.0 14.322580
9.26 9.27320 36819.0 261.0 9.908180 0.0970 0.1020 3780000.0 3483763.60 3389929.60 4203723.60 2.0 104.0 1.0 16.0 200.0 12.903230 300.0 198.0 12.903230
9.25 9.25670 36881.0 261.10 9.912730 0.0970 0.1020 3779880.0 3483650.40 3389822.40 4203848.40 2.0 104.0 1.0 16.0 200.0 13.655910 300.0 198.0 13.655910
9.24 9.248460 36760.0 261.150 9.917270 0.0970 0.1020 3779760.0 3483537.20 3389715.20 4203973.20 2.0 104.0 1.0 16.0 200.0 14.40860 300.0 198.0 14.40860
9.23 9.240210 36639.0 261.20 9.921820 0.0970 0.1020 3779640.0 3483424.0 3389608.0 4204098.0 2.0 104.0 1.0 16.0 200.0 15.161290 300.0 198.0 15.161290
9.22 9.231960 36891.0 261.250 9.926360 0.0970 0.1020 3779756.0 3483525.20 3389713.20 4203978.40 2.0 104.0 1.0 16.0 200.0 15.913980 300.0 198.0 15.913980
9.21 9.223720 37143.0 261.30 9.930910 0.0970 0.1020 3779872.0 3483626.40 3389818.40 4203858.80 2.0 104.0 1.0 16.0 200.0 16.666670 300.0 198.0 16.666670
9.20 9.215080 37314.0 261.350 9.935450 0.0970 0.1020 3779988.0 3483727.60 3389923.60 4203739.20 2.0 104.0 1.0 16.0 200.0 16.0 300.0 198.0 16.0
9.19 9.206440 37485.0 261.40 9.940 0.0970 0.1020 3780104.0 3483828.80 3390028.80 4203619.60 2.0 104.0 1.0 16.0 200.0 15.333330 300.0 198.0 15.333330
9.18 9.189940 37143.0 261.50 9.944440 0.0970 0.1020 3780220.0 3483930.0 3390134.0 4203500.0 2.0 104.0 1.0 16.0 200.0 14.666670 300.0 198.0 14.666670
9.17 9.18170 37065.50 261.550 9.948890 0.0970 0.1020 3780218.40 3483937.20 3390137.60 4203497.20 2.0 104.0 1.0 16.0 200.0 14.0 300.0 198.0 14.0
9.16 9.173450 36988.0 261.60 9.953330 0.0970 0.1020 3780216.80 3483944.40 3390141.20 4203494.40 2.0 104.0 1.0 16.0 200.0 13.333330 300.0 198.0 13.333330
9.15 9.156960 36822.0 261.70 9.957780 0.0970 0.1020 3780215.20 3483951.60 3390144.80 4203491.60 2.0 104.0 1.0 16.0 200.0 12.666670 300.0 198.0 12.666670
9.14 9.148710 36959.0 261.750 9.962220 0.0970 0.1020 3780213.60 3483958.80 3390148.40 4203488.80 2.0 104.0 1.0 16.0 200.0 12.0 300.0 198.0 12.0
9.13 9.140460 37096.0 261.80 9.966670 0.0970 0.1020 3780212.0 3483966.0 3390152.0 4203486.0 2.0 104.0 1.0 16.0 200.0 11.333330 300.0 198.0 11.333330
9.12 9.131820 37211.50 261.850 9.971110 0.0970 0.1020 3780214.40 3483968.40 3390153.60 4203482.0 2.0 104.0 1.0 16.0 200.0 10.666670 300.0 198.0 10.666670
9.11 9.123190 37327.0 261.90 9.975560 0.0970 0.1020 3780216.80 3483970.80 3390155.20 4203478.0 2.0 104.0 1.0 16.0 200.0 10.0 300.0 198.0 10.0
9.10 9.106690 36900.0 262.0 9.980 0.0970 0.1020 3780219.20 3483973.20 3390156.80 4203474.0 2.0 104.0 1.0 16.0 200.0 12.666670 300.0 198.0 12.666670
