~VERSION INFORMATION SECTION
VERS. 2.0 : CWLS LAS-VERSION 2.0
WRAP. NO : One line per depth step
~WELL INFORMATION SECTION
# MNEM.UNIT VALUE/NAME DESCRIPTION
#-------- -------------- ---------------------
STRT.Metres 28 : Start
STOP.Metres 0.40 : Stop
STEP.Metres -0.01 : Step
NULL.  -999.25 :NULL VALUE
DATE. 2026-16-05 : DATE
~CURVE INFORMATION SECTION
DEPTH.Metres : 0 Depth
Depth. : 1 Depth
Tension. : 2 Tension
Time. : 3 Time
Speed. : 4 Speed
Voltage. : 5 Voltage
Current. : 6 Current
X1.mm : 7 X1
X2.mm : 8 X2
Y1.mm : 9 Y1
Y2.mm : 10 Y2
MotorCurrent.mA : 11 Motor Current
HeadVoltage.V : 12 Head Voltage
WET. : 13 WET
Sig. : 14 Sig
Vth. : 15 Vth
GR.CPS : 16 GR
Timebase.ms : 17 Timebase
HeadVoltage.V : 18 Head Voltage
API.API : 19 API
~PARAMETER INFORMATION SECTION
~OTHER
#-------------------------------------------------
#Produced By: GeoVista Logger - Version 7.1.107.0
Natural Gamma Sonde - 9515
WLIS - 9387
Caliper Sonde (4 Arm) - 6341
#-------------------------------------------------
~ASCII LOG DATA
# ...
14.53 14.543610 36957.50 229.350 9.9260 0.0970 0.1020 3786534.80 3483496.0 3389699.20 4208675.60 2.0 104.0 1.0 20.0 200.0 8.0 300.0 198.0 8.0
14.52 14.535360 37109.0 229.40 9.9170 0.0970 0.1020 3786526.0 3483486.0 3389690.0 4208680.0 2.0 104.0 1.0 20.0 200.0 7.333330 300.0 198.0 7.333330
14.51 14.518870 36895.0 229.50 9.9080 0.0970 0.1020 3786521.60 3483487.60 3389692.80 4208675.20 2.0 104.0 1.0 20.0 200.0 6.666670 300.0 198.0 6.666670
14.50 14.510620 36929.50 229.550 9.8990 0.0970 0.1020 3786517.20 3483489.20 3389695.60 4208670.40 2.0 104.0 1.0 20.0 200.0 10.666670 300.0 198.0 10.666670
14.49 14.502380 36964.0 229.60 9.890 0.0970 0.1020 3786512.80 3483490.80 3389698.40 4208665.60 2.0 104.0 1.0 20.0 200.0 14.666670 300.0 198.0 14.666670
14.48 14.494130 36840.50 229.650 9.8990 0.0970 0.1020 3786508.40 3483492.40 3389701.20 4208660.80 2.0 104.0 1.0 20.0 200.0 18.666670 300.0 198.0 18.666670
14.47 14.485880 36717.0 229.70 9.9080 0.0970 0.1020 3786504.0 3483494.0 3389704.0 4208656.0 2.0 104.0 1.0 20.0 200.0 22.666670 300.0 198.0 22.666670
14.46 14.46860 36761.0 229.80 9.9170 0.0970 0.1020 3786506.40 3483492.40 3389703.60 4208654.80 2.0 104.0 1.0 20.20 200.0 26.666670 300.0 198.0 26.666670
14.45 14.460360 36900.50 229.850 9.9260 0.0970 0.1020 3786508.80 3483490.80 3389703.20 4208653.60 2.0 104.0 1.0 20.40 200.0 26.666670 300.0 198.0 26.666670
14.44 14.452110 37040.0 229.90 9.9350 0.0970 0.1020 3786511.20 3483489.20 3389702.80 4208652.40 2.0 104.0 1.0 20.60 200.0 26.666670 300.0 198.0 26.666670
14.43 14.443860 36951.50 229.950 9.9440 0.0970 0.1020 3786513.60 3483487.60 3389702.40 4208651.20 2.0 104.0 1.0 20.80 200.0 26.666670 300.0 198.0 26.666670
14.42 14.435620 36863.0 230.0 9.9530 0.0970 0.1020 3786516.0 3483486.0 3389702.0 4208650.0 2.0 104.0 1.0 21.0 200.0 26.666670 300.0 198.0 26.666670
14.41 14.419120 36753.0 230.10 9.9620 0.0970 0.1020 3786515.20 3483488.80 3389694.40 4208652.0 2.0 104.0 1.0 20.60 200.0 26.666670 300.0 198.0 26.666670
14.40 14.410880 36883.0 230.150 9.9710 0.0970 0.1020 3786514.40 3483491.60 3389686.80 4208654.0 2.0 104.0 1.0 20.20 200.0 24.0 300.0 198.0 24.0
14.39 14.402630 37013.0 230.20 9.980 0.0970 0.1020 3786513.60 3483494.40 3389679.20 4208656.0 2.0 104.0 1.0 19.80 200.0 21.333330 300.0 198.0 21.333330
14.38 14.393990 37036.50 230.250 9.980 0.0970 0.1020 3786512.80 3483497.20 3389671.60 4208658.0 2.0 104.0 1.0 19.40 200.0 18.666670 300.0 198.0 18.666670
14.37 14.385350 37060.0 230.30 9.980 0.0970 0.1020 3786512.0 3483500.0 3389664.0 4208660.0 2.0 104.0 1.0 19.0 200.0 16.0 300.0 198.0 16.0
14.36 14.368860 36927.0 230.40 9.980 0.0970 0.1020 3786637.20 3483619.20 3389780.0 4208540.0 2.0 104.0 1.0 19.40 200.0 13.333330 300.0 198.0 13.333330
14.35 14.360610 36875.50 230.450 9.980 0.0970 0.1020 3786762.40 3483738.40 3389896.0 4208420.0 2.0 104.0 1.0 19.80 200.0 12.0 300.0 198.0 12.0
14.34 14.352370 36824.0 230.50 9.980 0.0970 0.1020 3786887.60 3483857.60 3390012.0 4208300.0 2.0 104.0 1.0 20.20 200.0 10.666670 300.0 198.0 10.666670
14.33 14.344120 36795.0 230.550 9.980 0.0970 0.1020 3787012.80 3483976.80 3390128.0 4208180.0 2.0 104.0 1.0 20.60 200.0 9.333330 300.0 198.0 9.333330
14.32 14.335870 36766.0 230.60 9.980 0.0970 0.1020 3787138.0 3484096.0 3390244.0 4208060.0 2.0 104.0 1.0 21.0 200.0 8.0 300.0 198.0 8.0
14.31 14.319380 36894.0 230.70 9.980 0.0970 0.1020 3787017.60 3483980.0 3390134.80 4208180.40 2.0 104.0 1.0 20.80 200.0 6.666670 300.0 198.0 6.666670
14.30 14.310740 36991.0 230.750 9.980 0.0970 0.1020 3786897.20 3483864.0 3390025.60 4208300.80 2.0 104.0 1.0 20.60 200.0 6.666670 300.0 198.0 6.666670
14.29 14.30210 37088.0 230.80 9.980 0.0970 0.1020 3786776.80 3483748.0 3389916.40 4208421.20 2.0 104.0 1.0 20.40 200.0 6.666670 300.0 198.0 6.666670
14.28 14.293850 37020.0 230.850 9.980 0.0970 0.1020 3786656.40 3483632.0 3389807.20 4208541.60 2.0 104.0 1.0 20.20 200.0 6.666670 300.0 198.0 6.666670
14.27 14.285610 36952.0 230.90 9.980 0.0970 0.1020 3786536.0 3483516.0 3389698.0 4208662.0 2.0 104.0 1.0 20.0 200.0 6.666670 300.0 198.0 6.666670
14.26 14.269110 37019.0 231.0 9.980 0.0970 0.1020 3786658.0 3483630.40 3389800.40 4208535.60 2.0 104.0 1.0 20.20 200.0 6.666670 300.0 198.0 6.666670
14.25 14.260870 37191.0 231.050 9.980 0.0970 0.1020 3786780.0 3483744.80 3389902.80 4208409.20 2.0 104.0 1.0 20.40 200.0 6.666670 300.0 198.0 6.666670
14.24 14.252620 37363.0 231.10 9.980 0.0970 0.1020 3786902.0 3483859.20 3390005.20 4208282.80 2.0 104.0 1.0 20.60 200.0 6.666670 300.0 198.0 6.666670
14.23 14.243980 37385.50 231.150 9.980 0.0970 0.1020 3787024.0 3483973.60 3390107.60 4208156.40 2.0 104.0 1.0 20.80 200.0 6.666670 300.0 198.0 6.666670
14.22 14.235340 37408.0 231.20 9.980 0.0970 0.1020 3787146.0 3484088.0 3390210.0 4208030.0 2.0 104.0 1.0 21.0 200.0 6.666670 300.0 198.0 6.666670
14.21 14.218850 37152.0 231.30 9.980 0.0970 0.1020 3787028.0 3483978.0 3390105.20 4208153.60 2.0 104.0 1.0 20.80 200.0 6.666670 300.0 198.0 6.666670
14.20 14.21060 37063.0 231.350 9.980 0.0970 0.1030 3786910.0 3483868.0 3390000.40 4208277.20 2.0 104.0 1.0 20.60 200.0 8.0 300.0 198.0 8.0
14.19 14.202350 36974.0 231.40 9.980 0.0970 0.1040 3786792.0 3483758.0 3389895.60 4208400.80 2.0 104.0 1.0 20.40 200.0 9.333330 300.0 198.0 9.333330
14.18 14.194110 37028.50 231.450 9.980 0.0970 0.1030 3786674.0 3483648.0 3389790.80 4208524.40 2.0 104.0 1.0 20.20 200.0 10.666670 300.0 198.0 10.666670
14.17 14.185860 37083.0 231.50 9.980 0.0970 0.1020 3786556.0 3483538.0 3389686.0 4208648.0 2.0 104.0 1.0 20.0 200.0 12.0 300.0 198.0 12.0
14.16 14.169370 37227.0 231.60 9.980 0.0970 0.1020 3786675.20 3483648.0 3389798.0 4208528.40 2.0 104.0 1.0 20.20 200.0 13.333330 300.0 198.0 13.333330
14.15 14.160730 37249.50 231.650 9.980 0.0970 0.1020 3786794.40 3483758.0 3389910.0 4208408.80 2.0 104.0 1.0 20.40 200.0 12.666670 302.0 198.0 12.666670
14.14 14.152090 37272.0 231.70 9.980 0.0970 0.1020 3786913.60 3483868.0 3390022.0 4208289.20 2.0 104.0 1.0 20.60 200.0 12.0 304.0 198.0 12.0
14.13 14.143840 37132.0 231.750 9.980 0.0970 0.1020 3787032.80 3483978.0 3390134.0 4208169.60 2.0 104.0 1.0 20.80 200.0 11.333330 306.0 198.0 11.333330
14.12 14.13560 36992.0 231.80 9.980 0.0970 0.1020 3787152.0 3484088.0 3390246.0 4208050.0 2.0 104.0 1.0 21.0 200.0 10.666670 308.0 198.0 10.666670
14.11 14.11910 36959.0 231.90 9.980 0.0970 0.1020 3787036.0 3483975.60 3390135.60 4208167.60 2.0 104.0 1.0 20.80 200.0 10.0 310.0 198.0 10.0
14.10 14.110460 36877.50 231.950 9.980 0.0970 0.1020 3786920.0 3483863.20 3390025.20 4208285.20 2.0 104.0 1.0 20.60 200.0 9.333330 308.0 198.0 9.333330
14.09 14.101820 36796.0 232.0 9.980 0.0970 0.1020 3786804.0 3483750.80 3389914.80 4208402.80 2.0 104.0 1.0 20.40 200.0 8.666670 306.0 198.0 8.666670
14.08 14.093580 36915.50 232.050 9.990 0.0970 0.1020 3786688.0 3483638.40 3389804.40 4208520.40 2.0 104.0 1.0 20.20 200.0 8.0 304.0 198.0 8.0
14.07 14.085330 37035.0 232.10 10.0 0.0970 0.1020 3786572.0 3483526.0 3389694.0 4208638.0 2.0 104.0 1.0 20.0 200.0 7.333330 302.0 198.0 7.333330
14.06 14.068050 37270.0 232.20 10.010 0.0970 0.1020 3786558.50 3483522.50 3389684.0 4208639.50 2.0 104.0 1.0 20.20 200.0 6.666670 300.0 198.0 6.666670
14.05 14.059810 37216.0 232.250 10.020 0.0970 0.1020 3786545.0 3483519.0 3389674.0 4208641.0 2.0 104.0 1.0 20.40 200.0 9.20430 300.0 198.0 9.20430
14.04 14.051560 37162.0 232.30 10.030 0.0970 0.1020 3786531.50 3483515.50 3389664.0 4208642.50 2.0 104.0 1.0 20.60 200.0 11.741940 300.0 198.0 11.741940
14.03 14.04370 37140.0 232.350 10.040 0.0970 0.1020 3786518.0 3483512.0 3389654.0 4208644.0 2.0 104.0 1.0 20.80 200.0 14.279570 300.0 198.0 14.279570
14.02 14.035850 37118.0 232.40 10.050 0.0970 0.1020 3786619.333330 3483604.666670 3389748.0 4208540.666670 2.0 104.0 1.0 21.0 200.0 16.81720 300.0 198.0 16.81720
14.01 14.018570 37101.0 232.50 10.060 0.0970 0.1020 3786720.666670 3483697.333330 3389842.0 4208437.333330 2.0 104.0 1.0 20.80 200.0 19.354840 300.0 198.0 19.354840
14.00 14.010330 37237.50 232.550 10.070 0.0970 0.1020 3786822.0 3483790.0 3389936.0 4208334.0 2.0 104.0 1.0 20.60 200.0 18.81720 300.0 198.0 18.81720
