~VERSION INFORMATION SECTION
VERS. 2.0 : CWLS LAS-VERSION 2.0
WRAP. NO : One line per depth step
~WELL INFORMATION SECTION
# MNEM.UNIT VALUE/NAME DESCRIPTION
#-------- -------------- ---------------------
STRT.Metres 28 : Start
STOP.Metres 0.40 : Stop
STEP.Metres -0.01 : Step
NULL.  -999.25 :NULL VALUE
DATE. 2026-16-05 : DATE
~CURVE INFORMATION SECTION
DEPTH.Metres : 0 Depth
Depth. : 1 Depth
Tension. : 2 Tension
Time. : 3 Time
Speed. : 4 Speed
Voltage. : 5 Voltage
Current. : 6 Current
X1.mm : 7 X1
X2.mm : 8 X2
Y1.mm : 9 Y1
Y2.mm : 10 Y2
MotorCurrent.mA : 11 Motor Current
HeadVoltage.V : 12 Head Voltage
WET. : 13 WET
Sig. : 14 Sig
Vth. : 15 Vth
GR.CPS : 16 GR
Timebase.ms : 17 Timebase
HeadVoltage.V : 18 Head Voltage
API.API : 19 API
~PARAMETER INFORMATION SECTION
~OTHER
#-------------------------------------------------
#Produced By: GeoVista Logger - Version 7.1.107.0
Natural Gamma Sonde - 9515
WLIS - 9387
Caliper Sonde (4 Arm) - 6341
#-------------------------------------------------
~ASCII LOG DATA
# ...
12.91 12.919010 36667.0 239.10 10.020 0.0970 0.1020 3786722.0 3483722.40 3389873.20 4208367.60 2.0 104.0 1.0 20.0 200.0 13.333330 300.0 198.0 13.333330
12.90 12.910770 36715.50 239.150 10.0250 0.0970 0.1020 3786842.0 3483829.60 3389974.80 4208244.40 2.0 104.0 1.0 20.0 200.0 14.0 300.0 198.0 14.0
12.89 12.902520 36764.0 239.20 10.030 0.0970 0.1020 3786962.0 3483936.80 3390076.40 4208121.20 2.0 104.0 1.0 20.0 200.0 14.666670 300.0 198.0 14.666670
12.88 12.894270 37002.0 239.250 10.0250 0.0970 0.1020 3787082.0 3484044.0 3390178.0 4207998.0 2.0 104.0 1.0 20.0 200.0 15.333330 300.0 198.0 15.333330
12.87 12.886030 37240.0 239.30 10.020 0.0970 0.1020 3786973.60 3483932.0 3390076.0 4208116.80 2.0 104.0 1.0 20.0 200.0 16.0 300.0 198.0 16.0
12.86 12.869530 36790.0 239.40 10.0150 0.0970 0.1020 3786865.20 3483820.0 3389974.0 4208235.60 2.0 104.0 1.0 20.0 200.0 16.666670 300.0 198.0 16.666670
12.85 12.861290 36882.0 239.450 10.010 0.0970 0.1010 3786756.80 3483708.0 3389872.0 4208354.40 2.0 104.0 1.0 20.0 200.0 15.333330 300.0 198.0 15.333330
12.84 12.853040 36974.0 239.50 10.0050 0.0970 0.10 3786648.40 3483596.0 3389770.0 4208473.20 2.0 104.0 1.0 20.0 200.0 14.0 300.0 198.0 14.0
12.83 12.844790 36999.50 239.550 10.0 0.0970 0.1010 3786540.0 3483484.0 3389668.0 4208592.0 2.0 104.0 1.0 20.0 200.0 12.666670 300.0 198.0 12.666670
12.82 12.836550 37025.0 239.60 9.9950 0.0970 0.1020 3786629.0 3483572.0 3389753.333330 4208489.0 2.0 104.0 1.0 20.0 200.0 11.333330 300.0 198.0 11.333330
12.81 12.819270 36825.0 239.70 9.990 0.0970 0.1020 3786718.0 3483660.0 3389838.666670 4208386.0 2.0 104.0 1.0 20.0 200.0 10.0 300.0 198.0 10.0
12.80 12.811020 36748.0 239.750 9.9850 0.0970 0.1020 3786807.0 3483748.0 3389924.0 4208283.0 2.0 104.0 1.0 20.0 200.0 8.666670 300.0 198.0 8.666670
12.79 12.802780 36671.0 239.80 9.980 0.0970 0.1020 3786896.0 3483836.0 3390009.333330 4208180.0 2.0 104.0 1.0 20.0 200.0 7.333330 300.0 198.0 7.333330
12.78 12.794530 36978.50 239.850 9.980 0.0970 0.1020 3786985.0 3483924.0 3390094.666670 4208077.0 2.0 104.0 1.0 20.0 200.0 6.0 300.0 198.0 6.0
12.77 12.786280 37286.0 239.90 9.980 0.0970 0.1020 3787074.0 3484012.0 3390180.0 4207974.0 2.0 104.0 1.0 20.0 200.0 4.666670 300.0 198.0 4.666670
12.76 12.769790 37116.0 240.0 9.980 0.0970 0.1020 3786960.80 3483909.20 3390077.60 4208104.0 2.0 104.0 1.0 20.0 200.0 3.333330 300.0 198.0 3.333330
12.75 12.761150 37007.0 240.050 9.980 0.0970 0.1010 3786847.60 3483806.40 3389975.20 4208234.0 2.0 104.0 1.0 20.0 200.0 4.0 300.0 198.0 4.0
12.74 12.752510 36898.0 240.10 9.980 0.0970 0.10 3786734.40 3483703.60 3389872.80 4208364.0 2.0 104.0 1.0 20.0 200.0 4.666670 300.0 198.0 4.666670
12.73 12.744260 36745.0 240.150 9.980 0.0970 0.1020 3786621.20 3483600.80 3389770.40 4208494.0 2.0 104.0 1.0 20.0 200.0 5.333330 300.0 198.0 5.333330
12.72 12.736020 36592.0 240.20 9.980 0.0970 0.1040 3786508.0 3483498.0 3389668.0 4208624.0 2.0 104.0 1.0 20.0 200.0 6.0 300.0 198.0 6.0
12.71 12.719520 36675.0 240.30 9.980 0.0970 0.1020 3786648.0 3483624.50 3389794.50 4208466.0 2.0 104.0 1.0 20.0 200.0 6.666670 300.0 198.0 6.666670
12.70 12.710880 36690.50 240.350 9.980 0.0970 0.1020 3786788.0 3483751.0 3389921.0 4208308.0 2.0 104.0 1.0 20.0 200.0 9.333330 300.0 198.0 9.333330
12.69 12.702240 36706.0 240.40 9.980 0.0970 0.1020 3786928.0 3483877.50 3390047.50 4208150.0 2.0 104.0 1.0 20.0 200.0 12.0 300.0 198.0 12.0
12.68 12.6940 36676.50 240.450 9.990 0.0970 0.1020 3787068.0 3484004.0 3390174.0 4207992.0 2.0 104.0 1.0 20.0 200.0 14.666670 300.0 198.0 14.666670
12.67 12.685750 36647.0 240.50 10.0 0.0970 0.1020 3787072.333330 3484017.333330 3390180.0 4207993.666670 2.0 104.0 1.0 20.0 200.0 17.333330 300.0 198.0 17.333330
12.66 12.669260 36799.0 240.60 10.010 0.0970 0.1020 3787076.666670 3484030.666670 3390186.0 4207995.333330 2.0 104.0 1.0 20.0 200.0 20.0 300.0 198.0 20.0
12.65 12.660620 36969.0 240.650 10.020 0.0970 0.1020 3787081.0 3484044.0 3390192.0 4207997.0 2.0 104.0 1.0 20.0 200.0 17.333330 300.0 198.0 17.333330
12.64 12.651980 37139.0 240.70 10.030 0.0970 0.1020 3787085.333330 3484057.333330 3390198.0 4207998.666670 2.0 104.0 1.0 20.0 200.0 14.666670 300.0 198.0 14.666670
12.63 12.643730 37060.50 240.750 10.040 0.0970 0.1020 3787089.666670 3484070.666670 3390204.0 4208000.333330 2.0 104.0 1.0 20.0 200.0 12.0 300.0 198.0 12.0
12.62 12.635490 36982.0 240.80 10.050 0.0970 0.1020 3787094.0 3484084.0 3390210.0 4208002.0 2.0 104.0 1.0 20.0 200.0 9.333330 300.0 198.0 9.333330
12.61 12.618990 36797.0 240.90 10.060 0.0970 0.10 3787103.50 3484077.50 3390210.0 4208002.0 2.0 104.0 1.0 20.0 200.0 6.666670 300.0 198.0 6.666670
12.60 12.610350 36898.0 240.950 10.070 0.0970 0.1010 3787113.0 3484071.0 3390210.0 4208002.0 2.0 104.0 1.0 20.0 200.0 8.0 300.0 198.0 8.0
12.59 12.601710 36999.0 241.0 10.080 0.0970 0.1020 3787122.50 3484064.50 3390210.0 4208002.0 2.0 104.0 1.0 20.0 200.0 9.333330 300.0 198.0 9.333330
12.58 12.593860 36811.50 241.050 10.0750 0.0970 0.1020 3787132.0 3484058.0 3390210.0 4208002.0 2.0 104.0 1.0 20.0 200.0 10.666670 300.0 198.0 10.666670
12.57 12.586010 36624.0 241.10 10.070 0.0970 0.1020 3787122.80 3484048.40 3390212.80 4208001.20 2.0 104.0 1.0 20.0 200.0 12.0 300.0 198.0 12.0
12.56 12.569510 37020.0 241.20 10.0650 0.0970 0.1020 3787113.60 3484038.80 3390215.60 4208000.40 2.0 104.0 1.0 20.0 200.0 13.333330 300.0 198.0 13.333330
12.55 12.561270 37017.50 241.250 10.060 0.0970 0.1020 3787104.40 3484029.20 3390218.40 4207999.60 2.0 104.0 1.0 20.0 200.0 14.0 300.0 198.0 14.0
12.54 12.553020 37015.0 241.30 10.0550 0.0970 0.1020 3787095.20 3484019.60 3390221.20 4207998.80 2.0 104.0 1.0 20.0 200.0 14.666670 300.0 198.0 14.666670
12.53 12.536530 36742.0 241.40 10.050 0.0970 0.1020 3787086.0 3484010.0 3390224.0 4207998.0 2.0 104.0 1.0 20.0 200.0 15.333330 300.0 198.0 15.333330
12.52 12.528280 36692.0 241.450 10.0450 0.0970 0.1020 3786965.60 3483908.40 3390110.80 4208122.0 2.0 104.0 1.0 20.0 200.0 16.0 300.0 198.0 16.0
12.51 12.520030 36642.0 241.50 10.040 0.0970 0.1020 3786845.20 3483806.80 3389997.60 4208246.0 2.0 104.0 1.0 20.0 200.0 16.666670 300.0 198.0 16.666670
12.50 12.511790 36641.50 241.550 10.0350 0.0970 0.1020 3786724.80 3483705.20 3389884.40 4208370.0 2.0 104.0 1.0 20.0 200.0 16.0 300.0 198.0 16.0
12.49 12.503540 36641.0 241.60 10.030 0.0970 0.1020 3786604.40 3483603.60 3389771.20 4208494.0 2.0 104.0 1.0 20.0 200.0 15.333330 300.0 198.0 15.333330
12.48 12.49490 36761.0 241.650 10.0160 0.0970 0.1020 3786484.0 3483502.0 3389658.0 4208618.0 2.0 104.0 1.0 20.0 200.0 14.666670 300.0 198.0 14.666670
12.47 12.486260 36881.0 241.70 10.0020 0.0970 0.1020 3786488.40 3483492.0 3389656.80 4208616.0 2.0 104.0 1.0 20.0 200.0 14.0 300.0 198.0 14.0
12.46 12.469770 36498.0 241.80 9.9880 0.0970 0.1020 3786492.80 3483482.0 3389655.60 4208614.0 2.0 104.0 1.0 20.0 200.0 13.333330 300.0 198.0 13.333330
12.45 12.461520 36570.0 241.850 9.9740 0.0970 0.1020 3786497.20 3483472.0 3389654.40 4208612.0 2.0 104.0 1.0 20.0 200.0 10.666670 300.0 198.0 10.666670
12.44 12.453270 36642.0 241.90 9.960 0.0970 0.1020 3786501.60 3483462.0 3389653.20 4208610.0 2.0 104.0 1.0 20.0 200.0 8.0 300.0 198.0 8.0
12.43 12.436780 37059.0 242.0 9.9460 0.0970 0.1020 3786506.0 3483452.0 3389652.0 4208608.0 2.0 104.0 1.0 20.0 200.0 5.333330 300.0 198.0 5.333330
12.42 12.428530 37068.0 242.050 9.9320 0.0970 0.1020 3786500.0 3483447.60 3389650.80 4208604.40 2.0 104.0 1.0 20.0 200.0 2.666670 300.0 198.0 2.666670
12.41 12.420290 37077.0 242.10 9.9180 0.0970 0.1020 3786494.0 3483443.20 3389649.60 4208600.80 2.0 104.0 1.0 20.0 200.0 0.0 300.0 198.0 0.0
12.40 12.412040 37174.0 242.150 9.9040 0.0970 0.1010 3786488.0 3483438.80 3389648.40 4208597.20 2.0 104.0 1.0 20.0 200.0 2.0 300.0 198.0 2.0
12.39 12.403790 37271.0 242.20 9.890 0.0970 0.10 3786482.0 3483434.40 3389647.20 4208593.60 2.0 104.0 1.0 20.0 200.0 4.0 300.0 198.0 4.0
12.38 12.386510 36853.0 242.30 9.8950 0.0970 0.1020 3786476.0 3483430.0 3389646.0 4208590.0 2.0 104.0 1.0 20.0 200.0 6.0 300.0 198.0 6.0
12.37 12.378270 36758.50 242.350 9.90 0.0970 0.1020 3786579.333330 3483528.333330 3389737.666670 4208488.666670 2.0 104.0 1.0 20.0 200.0 8.0 300.0 198.0 8.0
