~VERSION INFORMATION SECTION
VERS. 2.0 : CWLS LAS-VERSION 2.0
WRAP. NO : One line per depth step
~WELL INFORMATION SECTION
# MNEM.UNIT VALUE/NAME DESCRIPTION
#-------- -------------- ---------------------
STRT.Metres 28 : Start
STOP.Metres 0.40 : Stop
STEP.Metres -0.01 : Step
NULL.  -999.25 :NULL VALUE
DATE. 2026-16-05 : DATE
~CURVE INFORMATION SECTION
DEPTH.Metres : 0 Depth
Depth. : 1 Depth
Tension. : 2 Tension
Time. : 3 Time
Speed. : 4 Speed
Voltage. : 5 Voltage
Current. : 6 Current
X1.mm : 7 X1
X2.mm : 8 X2
Y1.mm : 9 Y1
Y2.mm : 10 Y2
MotorCurrent.mA : 11 Motor Current
HeadVoltage.V : 12 Head Voltage
WET. : 13 WET
Sig. : 14 Sig
Vth. : 15 Vth
GR.CPS : 16 GR
Timebase.ms : 17 Timebase
HeadVoltage.V : 18 Head Voltage
API.API : 19 API
~PARAMETER INFORMATION SECTION
~OTHER
#-------------------------------------------------
#Produced By: GeoVista Logger - Version 7.1.107.0
Natural Gamma Sonde - 9515
WLIS - 9387
Caliper Sonde (4 Arm) - 6341
#-------------------------------------------------
~ASCII LOG DATA
# ...
21.00 21.016470 37151.0 190.50 9.9760 0.0970 0.1020 3786952.0 3483887.20 3389610.0 4214792.0 2.0 104.0 1.0 13.40 200.0 32.0 300.0 198.0 32.0
20.99 20.999980 37138.0 190.60 9.980 0.0970 0.1020 3787076.0 3484002.80 3389720.0 4214666.0 2.0 104.0 1.0 13.60 200.0 30.666670 300.0 198.0 30.666670
20.98 20.991730 37114.0 190.650 9.9850 0.0970 0.1020 3787200.0 3484118.40 3389830.0 4214540.0 2.0 104.0 1.0 13.80 200.0 29.333330 300.0 198.0 29.333330
20.97 20.983480 37090.0 190.70 9.990 0.0970 0.1020 3787324.0 3484234.0 3389940.0 4214414.0 2.0 104.0 1.0 14.0 200.0 28.0 300.0 198.0 28.0
20.96 20.974840 37053.0 190.750 9.9950 0.0970 0.1020 3787329.20 3484237.60 3389946.80 4214422.80 2.0 104.0 1.0 14.0 200.0 26.666670 300.0 198.0 26.666670
20.95 20.96620 37016.0 190.80 10.0 0.0970 0.1020 3787334.40 3484241.20 3389953.60 4214431.60 2.0 104.0 1.0 14.0 200.0 29.333330 300.0 198.0 29.333330
20.94 20.949710 37093.0 190.90 10.0050 0.0970 0.1020 3787339.60 3484244.80 3389960.40 4214440.40 2.0 104.0 1.0 14.0 200.0 32.0 300.0 198.0 32.0
20.93 20.941070 37237.0 190.950 10.010 0.0970 0.1020 3787344.80 3484248.40 3389967.20 4214449.20 2.0 104.0 1.0 14.0 200.0 34.666670 300.0 198.0 34.666670
20.92 20.932430 37381.0 191.0 10.0150 0.0970 0.1020 3787350.0 3484252.0 3389974.0 4214458.0 2.0 104.0 1.0 14.0 200.0 37.333330 300.0 198.0 37.333330
20.91 20.924190 37369.50 191.050 10.020 0.0970 0.1030 3787226.40 3484134.80 3389862.40 4214569.60 2.0 104.0 1.0 14.0 200.0 40.0 300.0 198.0 40.0
20.90 20.915940 37358.0 191.10 10.0250 0.0970 0.1040 3787102.80 3484017.60 3389750.80 4214681.20 2.0 104.0 1.0 14.0 200.0 35.333330 300.0 198.0 35.333330
20.89 20.899450 37204.0 191.20 10.030 0.0970 0.1020 3786979.20 3483900.40 3389639.20 4214792.80 2.0 104.0 1.0 14.0 200.0 30.666670 300.0 198.0 30.666670
20.88 20.89120 37082.50 191.250 10.0350 0.0970 0.1020 3786855.60 3483783.20 3389527.60 4214904.40 2.0 104.0 1.0 14.0 200.0 26.0 300.0 198.0 26.0
20.87 20.882950 36961.0 191.30 10.040 0.0970 0.1020 3786732.0 3483666.0 3389416.0 4215016.0 2.0 104.0 1.0 14.0 200.0 21.333330 300.0 198.0 21.333330
20.86 20.874710 36990.0 191.350 10.0450 0.0970 0.1020 3786848.40 3483784.40 3389514.0 4214895.20 2.0 104.0 1.0 14.0 200.0 16.666670 300.0 198.0 16.666670
20.85 20.866460 37019.0 191.40 10.050 0.0970 0.1020 3786964.80 3483902.80 3389612.0 4214774.40 2.0 104.0 1.0 14.0 200.0 18.666670 300.0 198.0 18.666670
20.84 20.849970 37113.0 191.50 10.0550 0.0970 0.1020 3787081.20 3484021.20 3389710.0 4214653.60 2.0 104.0 1.0 14.0 200.0 20.666670 302.0 198.0 20.666670
20.83 20.841720 37113.0 191.550 10.060 0.0970 0.1020 3787197.60 3484139.60 3389808.0 4214532.80 2.0 104.0 1.0 14.0 200.0 22.666670 304.0 198.0 22.666670
20.82 20.833470 37113.0 191.60 10.0650 0.0970 0.1020 3787314.0 3484258.0 3389906.0 4214412.0 2.0 104.0 1.0 14.0 200.0 24.666670 306.0 198.0 24.666670
20.81 20.816980 37273.0 191.70 10.070 0.0970 0.1020 3787198.80 3484152.40 3389804.0 4214536.0 2.0 104.0 1.0 14.0 200.0 26.666670 308.0 197.80 26.666670
20.80 20.808730 37240.50 191.750 10.0750 0.0970 0.1020 3787083.60 3484046.80 3389702.0 4214660.0 2.0 104.0 1.0 14.0 200.0 30.666670 310.0 197.60 30.666670
20.79 20.800480 37208.0 191.80 10.080 0.0970 0.1020 3786968.40 3483941.20 3389600.0 4214784.0 2.0 104.0 1.0 14.0 200.0 34.666670 308.0 197.40 34.666670
20.78 20.792240 37065.0 191.850 10.0660 0.0970 0.1020 3786853.20 3483835.60 3389498.0 4214908.0 2.0 104.0 1.0 14.0 200.0 38.666670 306.0 197.20 38.666670
20.77 20.783990 36922.0 191.90 10.0520 0.0970 0.1020 3786738.0 3483730.0 3389396.0 4215032.0 2.0 104.0 1.0 14.0 200.0 42.666670 304.0 197.0 42.666670
20.76 20.766710 36939.0 192.0 10.0380 0.0970 0.1020 3786851.20 3483830.80 3389504.40 4214908.0 2.0 104.0 1.0 14.20 200.0 46.666670 302.0 197.20 46.666670
20.75 20.758860 36987.0 192.050 10.0240 0.0970 0.1020 3786964.40 3483931.60 3389612.80 4214784.0 2.0 104.0 1.0 14.40 200.0 43.189960 300.0 197.40 43.189960
20.74 20.7510 37035.0 192.10 10.010 0.0970 0.1020 3787077.60 3484032.40 3389721.20 4214660.0 2.0 104.0 1.0 14.60 200.0 39.713260 300.0 197.60 39.713260
20.73 20.742370 37137.0 192.150 9.9960 0.0970 0.1020 3787190.80 3484133.20 3389829.60 4214536.0 2.0 104.0 1.0 14.80 200.0 36.236560 300.0 197.80 36.236560
20.72 20.733730 37239.0 192.20 9.9820 0.0970 0.1020 3787304.0 3484234.0 3389938.0 4214412.0 2.0 104.0 1.0 15.0 200.0 32.759860 300.0 198.0 32.759860
20.71 20.717230 37414.0 192.30 9.9680 0.0970 0.1020 3787307.60 3484240.0 3389943.20 4214407.60 2.0 104.0 1.0 15.0 200.0 29.283150 300.0 198.0 29.283150
20.70 20.708990 37245.50 192.350 9.9540 0.0970 0.1020 3787311.20 3484246.0 3389948.40 4214403.20 2.0 104.0 1.0 15.0 200.0 25.806450 300.0 198.0 25.806450
20.69 20.700740 37077.0 192.40 9.940 0.0970 0.1020 3787314.80 3484252.0 3389953.60 4214398.80 2.0 104.0 1.0 15.0 200.0 23.978490 300.0 198.0 23.978490
20.68 20.692490 37116.50 192.450 9.940 0.0970 0.1020 3787318.40 3484258.0 3389958.80 4214394.40 2.0 104.0 1.0 15.0 200.0 22.150540 300.0 198.0 22.150540
20.67 20.684250 37156.0 192.50 9.940 0.0970 0.1020 3787322.0 3484264.0 3389964.0 4214390.0 2.0 104.0 1.0 15.0 200.0 20.322580 300.0 198.0 20.322580
20.66 20.666970 36720.0 192.60 9.940 0.0970 0.1020 3787327.60 3484265.60 3389957.20 4214389.60 2.0 104.0 1.0 15.0 200.0 18.494620 300.0 198.0 18.494620
20.65 20.658720 36705.0 192.650 9.940 0.0970 0.1020 3787333.20 3484267.20 3389950.40 4214389.20 2.0 104.0 1.0 15.0 200.0 16.666670 300.0 198.0 16.666670
20.64 20.650470 36690.0 192.70 9.940 0.0970 0.1020 3787338.80 3484268.80 3389943.60 4214388.80 2.0 104.0 1.0 15.0 200.0 16.666670 300.0 198.0 16.666670
20.63 20.642230 36525.50 192.750 9.940 0.0970 0.1020 3787344.40 3484270.40 3389936.80 4214388.40 2.0 104.0 1.0 15.0 200.0 16.666670 300.0 198.0 16.666670
20.62 20.633980 36361.0 192.80 9.940 0.0970 0.1020 3787350.0 3484272.0 3389930.0 4214388.0 2.0 104.0 1.0 15.0 200.0 16.666670 300.0 198.0 16.666670
20.61 20.617490 37060.0 192.90 9.940 0.0970 0.1020 3787346.80 3484275.60 3389938.80 4214390.80 2.0 104.0 1.0 15.0 200.0 16.666670 300.0 198.0 16.666670
20.60 20.609240 37148.0 192.950 9.940 0.0970 0.1020 3787343.60 3484279.20 3389947.60 4214393.60 2.0 104.0 1.0 15.0 200.0 16.111110 300.0 198.0 16.111110
20.59 20.600990 37236.0 193.0 9.940 0.0970 0.1020 3787340.40 3484282.80 3389956.40 4214396.40 2.0 104.0 1.0 15.0 200.0 15.555560 300.0 198.0 15.555560
20.58 20.592350 37280.50 193.050 9.9440 0.0970 0.1020 3787337.20 3484286.40 3389965.20 4214399.20 2.0 104.0 1.0 15.0 200.0 15.0 300.0 198.0 15.0
20.57 20.583720 37325.0 193.10 9.9480 0.0970 0.1020 3787334.0 3484290.0 3389974.0 4214402.0 2.0 104.0 1.0 15.0 200.0 14.444440 300.0 198.0 14.444440
20.56 20.567220 37301.0 193.20 9.9520 0.0970 0.1020 3787212.80 3484176.0 3389854.40 4214528.40 2.0 104.0 1.0 15.0 200.0 13.888890 300.0 198.0 13.888890
20.55 20.558980 37380.50 193.250 9.9560 0.0970 0.1020 3787091.60 3484062.0 3389734.80 4214654.80 2.0 104.0 1.0 15.0 200.0 13.333330 300.0 198.0 13.333330
20.54 20.550730 37460.0 193.30 9.960 0.0970 0.1020 3786970.40 3483948.0 3389615.20 4214781.20 2.0 104.0 1.0 15.0 200.0 13.333330 300.0 198.0 13.333330
20.53 20.542480 37234.50 193.350 9.9640 0.0970 0.1020 3786849.20 3483834.0 3389495.60 4214907.60 2.0 104.0 1.0 15.0 200.0 13.333330 300.0 198.0 13.333330
20.52 20.534230 37009.0 193.40 9.9680 0.0970 0.1020 3786728.0 3483720.0 3389376.0 4215034.0 2.0 104.0 1.0 15.0 200.0 13.333330 300.0 198.0 13.333330
20.51 20.516960 36923.0 193.50 9.9720 0.0970 0.1020 3786839.20 3483821.20 3389483.20 4214916.40 2.0 104.0 1.0 15.0 200.0 13.333330 300.0 198.0 13.333330
20.50 20.508710 36883.50 193.550 9.9760 0.0970 0.1020 3786950.40 3483922.40 3389590.40 4214798.80 2.0 104.0 1.0 15.0 200.0 14.666670 300.0 198.0 14.666670
20.49 20.500460 36844.0 193.60 9.980 0.0970 0.1020 3787061.60 3484023.60 3389697.60 4214681.20 2.0 104.0 1.0 15.0 200.0 16.0 300.0 198.0 16.0
20.48 20.492220 36975.50 193.650 9.980 0.0970 0.1020 3787172.80 3484124.80 3389804.80 4214563.60 2.0 104.0 1.0 15.0 200.0 17.333330 300.0 198.0 17.333330
