~VERSION INFORMATION SECTION
VERS. 2.0 : CWLS LAS-VERSION 2.0
WRAP. NO : One line per depth step
~WELL INFORMATION SECTION
# MNEM.UNIT VALUE/NAME DESCRIPTION
#-------- -------------- ---------------------
STRT.Metres 28 : Start
STOP.Metres 0.40 : Stop
STEP.Metres -0.01 : Step
NULL.  -999.25 :NULL VALUE
DATE. 2026-16-05 : DATE
~CURVE INFORMATION SECTION
DEPTH.Metres : 0 Depth
Depth. : 1 Depth
Tension. : 2 Tension
Time. : 3 Time
Speed. : 4 Speed
Voltage. : 5 Voltage
Current. : 6 Current
X1.mm : 7 X1
X2.mm : 8 X2
Y1.mm : 9 Y1
Y2.mm : 10 Y2
MotorCurrent.mA : 11 Motor Current
HeadVoltage.V : 12 Head Voltage
WET. : 13 WET
Sig. : 14 Sig
Vth. : 15 Vth
GR.CPS : 16 GR
Timebase.ms : 17 Timebase
HeadVoltage.V : 18 Head Voltage
API.API : 19 API
~PARAMETER INFORMATION SECTION
~OTHER
#-------------------------------------------------
#Produced By: GeoVista Logger - Version 7.1.107.0
Natural Gamma Sonde - 9515
WLIS - 9387
Caliper Sonde (4 Arm) - 6341
#-------------------------------------------------
~ASCII LOG DATA
# ...
24.82 24.832720 37635.0 167.60 9.8970 0.0970 0.1020 3385684.0 3143112.0 3027632.0 3810526.0 2.0 104.0 1.0 0.0 200.0 19.333330 300.0 198.0 19.333330
24.81 24.824470 37682.50 167.650 9.8780 0.0970 0.1020 3385580.80 3143002.0 3027527.20 3810703.20 2.0 104.0 1.0 0.20 200.0 16.666670 300.0 198.0 16.666670
24.80 24.816230 37730.0 167.70 9.8590 0.0970 0.1020 3385477.60 3142892.0 3027422.40 3810880.40 2.0 104.0 1.0 0.40 200.0 18.0 300.0 198.0 18.0
24.79 24.799730 37938.0 167.80 9.840 0.0970 0.1020 3385374.40 3142782.0 3027317.60 3811057.60 2.0 104.0 1.0 0.60 200.0 19.333330 300.0 198.0 19.333330
24.78 24.791490 37849.50 167.850 9.8540 0.0970 0.1020 3385271.20 3142672.0 3027212.80 3811234.80 2.0 104.0 1.0 0.80 200.0 20.666670 300.0 198.0 20.666670
24.77 24.783240 37761.0 167.90 9.8680 0.0970 0.1020 3385168.0 3142562.0 3027108.0 3811412.0 2.0 104.0 1.0 1.0 200.0 22.0 300.0 198.0 22.0
24.76 24.77460 37670.50 167.950 9.8820 0.0970 0.1020 3385154.80 3142549.60 3027114.0 3811432.40 2.0 104.0 1.0 0.80 200.0 23.333330 300.0 198.0 23.333330
24.75 24.765960 37580.0 168.0 9.8960 0.0970 0.1020 3385141.60 3142537.20 3027120.0 3811452.80 2.0 104.0 1.0 0.60 200.0 21.666670 300.0 198.0 21.666670
24.74 24.749470 37344.0 168.10 9.910 0.0970 0.1020 3385128.40 3142524.80 3027126.0 3811473.20 2.0 104.0 1.0 0.40 200.0 20.0 300.0 198.0 20.0
24.73 24.741220 37474.0 168.150 9.9240 0.0970 0.1020 3385115.20 3142512.40 3027132.0 3811493.60 2.0 104.0 1.0 0.20 200.0 18.333330 300.0 198.0 18.333330
24.72 24.732970 37604.0 168.20 9.9380 0.0970 0.1020 3385102.0 3142500.0 3027138.0 3811514.0 2.0 104.0 1.0 0.0 200.0 16.666670 300.0 198.0 16.666670
24.71 24.724730 37676.0 168.250 9.9520 0.0970 0.1020 3385220.80 3142613.20 3027234.0 3811417.20 2.0 104.0 1.0 0.20 200.0 15.0 300.0 198.0 15.0
24.70 24.716480 37748.0 168.30 9.9660 0.0970 0.1020 3385339.60 3142726.40 3027330.0 3811320.40 2.0 104.0 1.0 0.40 200.0 13.333330 300.0 198.0 13.333330
24.69 24.699990 37489.0 168.40 9.980 0.0970 0.1020 3385458.40 3142839.60 3027426.0 3811223.60 2.0 104.0 1.0 0.60 200.0 13.333330 300.0 198.0 13.333330
24.68 24.691350 37362.0 168.450 9.980 0.0970 0.1020 3385577.20 3142952.80 3027522.0 3811126.80 2.0 104.0 1.0 0.80 200.0 13.333330 300.0 198.0 13.333330
24.67 24.682710 37235.0 168.50 9.980 0.0970 0.1020 3385696.0 3143066.0 3027618.0 3811030.0 2.0 104.0 1.0 1.0 200.0 13.333330 300.0 198.0 13.333330
24.66 24.674460 37173.0 168.550 9.980 0.0970 0.1020 3385587.60 3142960.40 3027522.80 3811174.40 2.0 104.0 1.0 0.80 200.0 13.333330 300.0 198.0 13.333330
24.65 24.666210 37111.0 168.60 9.980 0.0970 0.1020 3385479.20 3142854.80 3027427.60 3811318.80 2.0 104.0 1.0 0.60 200.0 13.333330 300.0 198.0 13.333330
24.64 24.649720 37500.0 168.70 9.980 0.0970 0.1020 3385370.80 3142749.20 3027332.40 3811463.20 2.0 104.0 1.0 0.40 200.0 13.333330 302.0 198.0 13.333330
24.63 24.641470 37511.0 168.750 9.980 0.0970 0.1020 3385262.40 3142643.60 3027237.20 3811607.60 2.0 104.0 1.0 0.20 200.0 13.333330 304.0 198.0 13.333330
24.62 24.633230 37522.0 168.80 9.980 0.0970 0.1020 3385154.0 3142538.0 3027142.0 3811752.0 2.0 104.0 1.0 0.0 200.0 13.333330 306.0 198.0 13.333330
24.61 24.624590 37561.50 168.850 9.980 0.0970 0.1020 3385154.80 3142527.20 3027135.20 3811767.60 2.0 104.0 1.0 0.0 200.0 13.333330 308.0 198.0 13.333330
24.60 24.615950 37601.0 168.90 9.980 0.0970 0.1020 3385155.60 3142516.40 3027128.40 3811783.20 2.0 104.0 1.0 0.0 200.0 13.333330 310.0 198.0 13.333330
24.59 24.599460 37307.0 169.0 9.980 0.0970 0.10 3385156.40 3142505.60 3027121.60 3811798.80 2.0 104.0 1.0 0.0 200.0 13.333330 308.0 198.0 13.333330
24.58 24.591210 37257.50 169.050 9.980 0.0970 0.1010 3385157.20 3142494.80 3027114.80 3811814.40 2.0 104.0 1.0 0.0 200.0 13.333330 306.0 198.0 13.333330
24.57 24.582960 37208.0 169.10 9.980 0.0970 0.1020 3385158.0 3142484.0 3027108.0 3811830.0 2.0 104.0 1.0 0.0 200.0 13.333330 304.0 198.0 13.333330
24.56 24.574720 37418.0 169.150 9.980 0.0970 0.1020 3385150.0 3142490.40 3027109.60 3811860.0 2.0 104.0 1.0 0.0 200.0 13.333330 302.0 198.0 13.333330
24.55 24.566470 37628.0 169.20 9.980 0.0970 0.1020 3385142.0 3142496.80 3027111.20 3811890.0 2.0 104.0 1.0 0.0 200.0 13.333330 300.0 198.0 13.333330
24.54 24.549980 37631.0 169.30 9.980 0.0970 0.1020 3385134.0 3142503.20 3027112.80 3811920.0 2.0 104.0 1.0 0.0 200.0 16.473120 300.0 198.0 16.473120
24.53 24.541340 37462.0 169.350 9.980 0.0970 0.1020 3385126.0 3142509.60 3027114.40 3811950.0 2.0 104.0 1.0 0.0 200.0 19.61290 300.0 198.0 19.61290
24.52 24.53270 37293.0 169.40 9.980 0.0970 0.1020 3385118.0 3142516.0 3027116.0 3811980.0 2.0 104.0 1.0 0.0 200.0 22.752690 300.0 198.0 22.752690
24.51 24.524450 37421.0 169.450 9.980 0.0970 0.1020 3385232.0 3142625.60 3027221.60 3811900.0 2.0 104.0 1.0 0.0 200.0 25.892470 300.0 198.0 25.892470
24.50 24.51620 37549.0 169.50 9.980 0.0970 0.1020 3385346.0 3142735.20 3027327.20 3811820.0 2.0 104.0 1.0 0.0 200.0 29.032260 300.0 198.0 29.032260
24.49 24.499710 37577.0 169.60 9.980 0.0970 0.1020 3385460.0 3142844.80 3027432.80 3811740.0 2.0 104.0 1.0 0.0 200.0 29.274190 300.0 198.0 29.274190
24.48 24.491460 37619.0 169.650 9.9850 0.0970 0.1020 3385574.0 3142954.40 3027538.40 3811660.0 2.0 104.0 1.0 0.0 200.0 29.516130 300.0 198.0 29.516130
24.47 24.483220 37661.0 169.70 9.990 0.0970 0.1020 3385688.0 3143064.0 3027644.0 3811580.0 2.0 104.0 1.0 0.0 200.0 29.758060 300.0 198.0 29.758060
24.46 24.474970 37509.0 169.750 9.9950 0.0970 0.1020 3385693.60 3143068.80 3027644.80 3811583.60 2.0 104.0 1.0 0.0 200.0 30.0 300.0 198.0 30.0
24.45 24.466720 37357.0 169.80 10.0 0.0970 0.1020 3385699.20 3143073.60 3027645.60 3811587.20 2.0 104.0 1.0 0.0 200.0 28.888890 300.0 198.0 28.888890
24.44 24.449440 37478.0 169.90 10.0050 0.0970 0.1020 3385704.80 3143078.40 3027646.40 3811590.80 2.0 104.0 1.0 0.0 200.0 27.777780 300.0 198.0 27.777780
24.43 24.44120 37428.50 169.950 10.010 0.0970 0.1020 3385710.40 3143083.20 3027647.20 3811594.40 2.0 104.0 1.0 0.0 200.0 26.666670 300.0 198.0 26.666670
24.42 24.432950 37379.0 170.0 10.0150 0.0970 0.1020 3385716.0 3143088.0 3027648.0 3811598.0 2.0 104.0 1.0 0.0 200.0 25.555560 300.0 198.0 25.555560
24.41 24.424310 37533.50 170.050 10.020 0.0970 0.1020 3385596.80 3142978.80 3027547.20 3811722.0 2.0 104.0 1.0 0.0 200.0 24.444440 300.0 198.0 24.444440
24.40 24.415670 37688.0 170.10 10.0250 0.0970 0.1020 3385477.60 3142869.60 3027446.40 3811846.0 2.0 104.0 1.0 0.0 200.0 23.333330 300.0 198.0 23.333330
24.39 24.398390 37806.0 170.20 10.030 0.0970 0.1020 3385358.40 3142760.40 3027345.60 3811970.0 2.0 104.0 1.0 0.0 200.0 21.333330 300.0 198.0 21.333330
24.38 24.390150 37599.0 170.250 10.0440 0.0970 0.1020 3385239.20 3142651.20 3027244.80 3812094.0 2.0 104.0 1.0 0.0 200.0 19.333330 300.0 198.0 19.333330
24.37 24.38190 37392.0 170.30 10.0580 0.0970 0.1020 3385120.0 3142542.0 3027144.0 3812218.0 2.0 104.0 1.0 0.0 200.0 17.333330 300.0 198.0 17.333330
24.36 24.373650 37301.50 170.350 10.0720 0.0970 0.1020 3385233.60 3142642.40 3027243.20 3812106.0 2.0 104.0 1.0 0.0 200.0 15.333330 300.0 198.0 15.333330
24.35 24.365410 37211.0 170.40 10.0860 0.0970 0.1020 3385347.20 3142742.80 3027342.40 3811994.0 2.0 104.0 1.0 0.0 200.0 13.333330 300.0 198.0 13.333330
24.34 24.348910 37330.0 170.50 10.10 0.0970 0.1020 3385460.80 3142843.20 3027441.60 3811882.0 2.0 104.0 1.0 0.0 200.0 14.0 300.0 198.0 14.0
24.33 24.340670 37466.0 170.550 10.1140 0.0970 0.1020 3385574.40 3142943.60 3027540.80 3811770.0 2.0 104.0 1.0 0.0 200.0 14.666670 300.0 198.0 14.666670
24.32 24.332420 37602.0 170.60 10.1280 0.0970 0.1020 3385688.0 3143044.0 3027640.0 3811658.0 2.0 104.0 1.0 0.0 200.0 15.333330 300.0 198.0 15.333330
24.31 24.324170 37697.0 170.650 10.1420 0.0970 0.1020 3385578.0 3142947.20 3027536.80 3811784.80 2.0 104.0 1.0 0.0 200.0 16.0 300.0 198.0 16.0
24.30 24.315930 37792.0 170.70 10.1560 0.0970 0.1020 3385468.0 3142850.40 3027433.60 3811911.60 2.0 104.0 1.0 0.0 200.0 16.666670 300.0 198.0 16.666670
24.29 24.299430 37690.0 170.80 10.170 0.0970 0.1020 3385358.0 3142753.60 3027330.40 3812038.40 2.0 104.0 1.0 0.0 200.0 13.333330 300.0 198.0 13.333330
