~VERSION INFORMATION SECTION
VERS. 2.0 : CWLS LAS-VERSION 2.0
WRAP. NO : One line per depth step
~WELL INFORMATION SECTION
# MNEM.UNIT VALUE/NAME DESCRIPTION
#-------- -------------- ---------------------
STRT.Metres 28 : Start
STOP.Metres 0.40 : Stop
STEP.Metres -0.01 : Step
NULL.  -999.25 :NULL VALUE
DATE. 2026-16-05 : DATE
~CURVE INFORMATION SECTION
DEPTH.Metres : 0 Depth
Depth. : 1 Depth
Tension. : 2 Tension
Time. : 3 Time
Speed. : 4 Speed
Voltage. : 5 Voltage
Current. : 6 Current
X1.mm : 7 X1
X2.mm : 8 X2
Y1.mm : 9 Y1
Y2.mm : 10 Y2
MotorCurrent.mA : 11 Motor Current
HeadVoltage.V : 12 Head Voltage
WET. : 13 WET
Sig. : 14 Sig
Vth. : 15 Vth
GR.CPS : 16 GR
Timebase.ms : 17 Timebase
HeadVoltage.V : 18 Head Voltage
API.API : 19 API
~PARAMETER INFORMATION SECTION
~OTHER
#-------------------------------------------------
#Produced By: GeoVista Logger - Version 7.1.107.0
Natural Gamma Sonde - 9515
WLIS - 9387
Caliper Sonde (4 Arm) - 6341
#-------------------------------------------------
~ASCII LOG DATA
# ...
26.44 26.449850 37391.0 157.90 10.0050 0.0970 0.1020 3385431.60 3142858.0 3027378.80 3808371.20 2.0 104.0 1.0 0.0 200.0 25.118280 300.0 197.0 25.118280
26.43 26.441610 37212.50 157.950 10.010 0.0970 0.1020 3385328.80 3142748.0 3027286.40 3808487.60 2.0 104.0 1.0 0.0 200.0 26.903230 300.0 197.0 26.903230
26.42 26.433360 37034.0 158.0 10.0150 0.0970 0.1020 3385226.0 3142638.0 3027194.0 3808604.0 2.0 104.0 1.0 0.0 200.0 28.688170 300.0 197.0 28.688170
26.41 26.424720 37168.50 158.050 10.020 0.0970 0.1020 3385214.40 3142633.20 3027176.0 3808596.80 2.0 104.0 1.0 0.0 200.0 30.473120 300.0 197.0 30.473120
26.40 26.416080 37303.0 158.10 10.0250 0.0970 0.1020 3385202.80 3142628.40 3027158.0 3808589.60 2.0 104.0 1.0 0.0 200.0 32.258060 300.0 197.0 32.258060
26.39 26.399590 37688.0 158.20 10.030 0.0970 0.1020 3385191.20 3142623.60 3027140.0 3808582.40 2.0 104.0 1.0 0.0 200.0 31.806450 300.0 197.0 31.806450
26.38 26.391340 37499.0 158.250 10.030 0.0970 0.1020 3385179.60 3142618.80 3027122.0 3808575.20 2.0 104.0 1.0 0.0 200.0 31.354840 300.0 197.0 31.354840
26.37 26.38310 37310.0 158.30 10.030 0.0970 0.1020 3385168.0 3142614.0 3027104.0 3808568.0 2.0 104.0 1.0 0.0 200.0 30.903230 300.0 197.0 30.903230
26.36 26.374460 37332.0 158.350 10.030 0.0970 0.1020 3385283.20 3142727.20 3027221.60 3808452.40 2.0 104.0 1.0 0.0 200.0 30.451610 300.0 197.0 30.451610
26.35 26.365820 37354.0 158.40 10.030 0.0970 0.1020 3385398.40 3142840.40 3027339.20 3808336.80 2.0 104.0 1.0 0.0 200.0 30.0 300.0 197.0 30.0
26.34 26.349320 37668.0 158.50 10.030 0.0970 0.1020 3385513.60 3142953.60 3027456.80 3808221.20 2.0 104.0 1.0 0.0 200.0 26.666670 300.0 197.0 26.666670
26.33 26.340680 37446.50 158.550 10.030 0.0970 0.1020 3385628.80 3143066.80 3027574.40 3808105.60 2.0 104.0 1.0 0.0 200.0 23.333330 300.0 197.0 23.333330
26.32 26.332040 37225.0 158.60 10.030 0.0970 0.1020 3385744.0 3143180.0 3027692.0 3807990.0 2.0 104.0 1.0 0.0 200.0 20.0 300.0 197.0 20.0
26.31 26.32380 37322.50 158.650 10.030 0.0970 0.1020 3385744.40 3143181.60 3027696.40 3807990.40 2.0 104.0 1.0 0.0 200.0 16.666670 300.0 197.0 16.666670
26.30 26.315550 37420.0 158.70 10.030 0.0970 0.1020 3385744.80 3143183.20 3027700.80 3807990.80 2.0 104.0 1.0 0.0 200.0 13.333330 300.0 197.0 13.333330
26.29 26.299060 37499.0 158.80 10.030 0.0970 0.10 3385745.20 3143184.80 3027705.20 3807991.20 2.0 104.0 1.0 0.0 200.0 20.0 300.0 197.0 20.0
26.28 26.290420 37497.0 158.850 10.040 0.0970 0.1010 3385745.60 3143186.40 3027709.60 3807991.60 2.0 104.0 1.0 0.0 200.0 26.666670 300.0 197.0 26.666670
26.27 26.281780 37495.0 158.90 10.050 0.0970 0.1020 3385746.0 3143188.0 3027714.0 3807992.0 2.0 104.0 1.0 0.0 200.0 33.333330 300.0 197.0 33.333330
26.26 26.273530 37592.50 158.950 10.060 0.0970 0.1020 3385751.60 3143186.80 3027714.80 3807988.40 2.0 104.0 1.0 0.0 200.0 40.0 300.0 197.20 40.0
26.25 26.265290 37690.0 159.0 10.070 0.0970 0.1020 3385757.20 3143185.60 3027715.60 3807984.80 2.0 104.0 1.0 0.0 200.0 36.0 300.0 197.40 36.0
26.24 26.248790 37863.0 159.10 10.080 0.0970 0.1020 3385762.80 3143184.40 3027716.40 3807981.20 2.0 104.0 1.0 0.0 200.0 32.0 300.0 197.60 32.0
26.23 26.240550 37658.50 159.150 10.090 0.0970 0.1020 3385768.40 3143183.20 3027717.20 3807977.60 2.0 104.0 1.0 0.0 200.0 28.0 300.0 197.80 28.0
26.22 26.23230 37454.0 159.20 10.10 0.0970 0.1020 3385774.0 3143182.0 3027718.0 3807974.0 2.0 104.0 1.0 0.0 200.0 24.0 300.0 198.0 24.0
26.21 26.224050 37526.0 159.250 10.110 0.0970 0.1020 3385766.80 3143182.80 3027714.80 3807972.80 2.0 104.0 1.0 0.0 200.0 20.0 300.0 197.750 20.0
26.20 26.215810 37598.0 159.30 10.120 0.0970 0.1020 3385759.60 3143183.60 3027711.60 3807971.60 2.0 104.0 1.0 0.0 200.0 23.333330 300.0 197.50 23.333330
26.19 26.199310 37423.0 159.40 10.130 0.0970 0.1020 3385752.40 3143184.40 3027708.40 3807970.40 2.0 104.0 1.0 0.0 200.0 26.666670 300.0 197.250 26.666670
26.18 26.190670 37435.0 159.450 10.1110 0.0970 0.1020 3385745.20 3143185.20 3027705.20 3807969.20 2.0 104.0 1.0 0.0 200.0 30.0 300.0 197.0 30.0
26.17 26.182030 37447.0 159.50 10.0920 0.0970 0.1020 3385738.0 3143186.0 3027702.0 3807968.0 2.0 104.0 1.0 0.0 200.0 33.333330 300.0 197.0 33.333330
26.16 26.174180 37443.50 159.550 10.0730 0.0970 0.1020 3385631.60 3143082.0 3027595.20 3808089.20 2.0 104.0 1.0 0.20 200.0 36.666670 300.0 197.0 36.666670
26.15 26.166330 37440.0 159.60 10.0540 0.0970 0.1020 3385525.20 3142978.0 3027488.40 3808210.40 2.0 104.0 1.0 0.40 200.0 32.666670 300.0 197.0 32.666670
26.14 26.149830 37147.0 159.70 10.0350 0.0970 0.1020 3385418.80 3142874.0 3027381.60 3808331.60 2.0 104.0 1.0 0.60 200.0 28.666670 300.0 197.0 28.666670
26.13 26.141590 37232.0 159.750 10.0160 0.0970 0.1020 3385312.40 3142770.0 3027274.80 3808452.80 2.0 104.0 1.0 0.80 200.0 24.666670 300.0 197.0 24.666670
26.12 26.133340 37317.0 159.80 9.9970 0.0970 0.1020 3385206.0 3142666.0 3027168.0 3808574.0 2.0 104.0 1.0 1.0 200.0 20.666670 300.0 197.0 20.666670
26.11 26.12470 37320.50 159.850 9.9780 0.0970 0.1020 3385309.60 3142758.80 3027264.0 3808451.60 2.0 104.0 1.0 0.80 200.0 16.666670 300.0 197.20 16.666670
26.10 26.116060 37324.0 159.90 9.9590 0.0970 0.1020 3385413.20 3142851.60 3027360.0 3808329.20 2.0 104.0 1.0 0.60 200.0 20.0 300.0 197.40 20.0
26.09 26.099570 37109.0 160.0 9.940 0.0970 0.1020 3385516.80 3142944.40 3027456.0 3808206.80 2.0 104.0 1.0 0.40 200.0 23.333330 300.0 197.60 23.333330
26.08 26.090930 37258.0 160.050 9.9440 0.0970 0.1020 3385620.40 3143037.20 3027552.0 3808084.40 2.0 104.0 1.0 0.20 200.0 26.666670 300.0 197.80 26.666670
26.07 26.082290 37407.0 160.10 9.9480 0.0970 0.1020 3385724.0 3143130.0 3027648.0 3807962.0 2.0 104.0 1.0 0.0 200.0 30.0 300.0 198.0 30.0
26.06 26.074040 37385.50 160.150 9.9520 0.0970 0.1020 3385734.80 3143137.20 3027658.0 3807964.0 2.0 104.0 1.0 0.20 200.0 33.333330 300.0 197.750 33.333330
26.05 26.065790 37364.0 160.20 9.9560 0.0970 0.1020 3385745.60 3143144.40 3027668.0 3807966.0 2.0 104.0 1.0 0.40 200.0 34.0 300.0 197.50 34.0
26.04 26.04930 37130.0 160.30 9.960 0.0970 0.1020 3385756.40 3143151.60 3027678.0 3807968.0 2.0 104.0 1.0 0.60 200.0 34.666670 300.0 197.250 34.666670
26.03 26.041050 37259.50 160.350 9.9640 0.0970 0.1020 3385767.20 3143158.80 3027688.0 3807970.0 2.0 104.0 1.0 0.80 200.0 35.333330 300.0 197.0 35.333330
26.02 26.032810 37389.0 160.40 9.9680 0.0970 0.1020 3385778.0 3143166.0 3027698.0 3807972.0 2.0 104.0 1.0 1.0 200.0 36.0 300.0 197.0 36.0
26.01 26.024170 37437.0 160.450 9.9720 0.0970 0.1020 3385773.60 3143166.80 3027696.0 3807977.60 2.0 104.0 1.0 0.80 200.0 36.666670 300.0 197.0 36.666670
26.00 26.015530 37485.0 160.50 9.9760 0.0970 0.1020 3385769.20 3143167.60 3027694.0 3807983.20 2.0 104.0 1.0 0.60 200.0 32.666670 300.0 197.0 32.666670
25.99 25.999040 37366.0 160.60 9.980 0.0970 0.1020 3385764.80 3143168.40 3027692.0 3807988.80 2.0 104.0 1.0 0.40 200.0 28.666670 300.0 197.0 28.666670
25.98 25.990790 37553.0 160.650 9.980 0.0970 0.1020 3385760.40 3143169.20 3027690.0 3807994.40 2.0 104.0 1.0 0.20 200.0 24.666670 300.0 197.0 24.666670
25.97 25.982540 37740.0 160.70 9.980 0.0970 0.1020 3385756.0 3143170.0 3027688.0 3808000.0 2.0 104.0 1.0 0.0 200.0 20.666670 300.0 197.0 20.666670
25.96 25.97430 37596.0 160.750 9.980 0.0970 0.1020 3385641.20 3143059.20 3027584.80 3808114.40 2.0 104.0 1.0 0.20 200.0 16.666670 300.0 197.0 16.666670
25.95 25.966050 37452.0 160.80 9.980 0.0970 0.1020 3385526.40 3142948.40 3027481.60 3808228.80 2.0 104.0 1.0 0.40 200.0 16.0 300.0 197.0 16.0
25.94 25.949560 37906.0 160.90 9.980 0.0970 0.1020 3385411.60 3142837.60 3027378.40 3808343.20 2.0 104.0 1.0 0.60 200.0 15.333330 300.0 197.0 15.333330
25.93 25.940920 37779.50 160.950 9.980 0.0970 0.1020 3385296.80 3142726.80 3027275.20 3808457.60 2.0 104.0 1.0 0.80 200.0 14.666670 300.0 197.0 14.666670
25.92 25.932280 37653.0 161.0 9.980 0.0970 0.1020 3385182.0 3142616.0 3027172.0 3808572.0 2.0 104.0 1.0 1.0 200.0 14.0 300.0 197.0 14.0
25.91 25.924030 37515.0 161.050 9.980 0.0970 0.1020 3385171.20 3142621.60 3027169.60 3808565.20 2.0 104.0 1.0 0.80 200.0 13.333330 300.0 197.20 13.333330
