~VERSION INFORMATION SECTION
VERS. 2.0 : CWLS LAS-VERSION 2.0
WRAP. NO : One line per depth step
~WELL INFORMATION SECTION
# MNEM.UNIT VALUE/NAME DESCRIPTION
#-------- -------------- ---------------------
STRT.Metres 28 : Start
STOP.Metres 0.40 : Stop
STEP.Metres -0.01 : Step
NULL.  -999.25 :NULL VALUE
DATE. 2026-16-05 : DATE
~CURVE INFORMATION SECTION
DEPTH.Metres : 0 Depth
Depth. : 1 Depth
Tension. : 2 Tension
Time. : 3 Time
Speed. : 4 Speed
Voltage. : 5 Voltage
Current. : 6 Current
X1.mm : 7 X1
X2.mm : 8 X2
Y1.mm : 9 Y1
Y2.mm : 10 Y2
MotorCurrent.mA : 11 Motor Current
HeadVoltage.V : 12 Head Voltage
WET. : 13 WET
Sig. : 14 Sig
Vth. : 15 Vth
GR.CPS : 16 GR
Timebase.ms : 17 Timebase
HeadVoltage.V : 18 Head Voltage
API.API : 19 API
~PARAMETER INFORMATION SECTION
~OTHER
#-------------------------------------------------
#Produced By: GeoVista Logger - Version 7.1.107.0
Natural Gamma Sonde - 9515
WLIS - 9387
Caliper Sonde (4 Arm) - 6341
#-------------------------------------------------
~ASCII LOG DATA
# ...
4.16 4.175180 37003.0 291.60 9.980 0.0970 0.1020 3779709.60 3483629.60 3391250.80 4203659.20 2.0 104.0 1.0 12.0 200.0 33.333330 300.0 198.0 33.333330
4.15 4.158680 36879.0 291.70 9.980 0.0970 0.1020 3779832.40 3483736.40 3391355.20 4203550.80 2.0 104.0 1.0 12.0 200.0 37.333330 300.0 198.0 37.333330
4.14 4.150440 36847.0 291.750 9.980 0.0970 0.1020 3779955.20 3483843.20 3391459.60 4203442.40 2.0 104.0 1.0 12.0 200.0 41.333330 300.0 198.0 41.333330
4.13 4.142190 36815.0 291.80 9.980 0.0970 0.1020 3780078.0 3483950.0 3391564.0 4203334.0 2.0 104.0 1.0 12.0 200.0 45.333330 300.0 198.0 45.333330
4.12 4.133550 36734.50 291.850 9.980 0.0970 0.1020 3779965.20 3483843.20 3391462.40 4203449.20 2.0 104.0 1.0 12.0 200.0 49.333330 300.0 198.0 49.333330
4.11 4.124910 36654.0 291.90 9.980 0.0970 0.1020 3779852.40 3483736.40 3391360.80 4203564.40 2.0 104.0 1.0 12.0 200.0 53.333330 300.0 198.0 53.333330
4.10 4.108420 36487.0 292.0 9.980 0.0970 0.1020 3779739.60 3483629.60 3391259.20 4203679.60 2.0 104.0 1.0 12.0 200.0 48.666670 300.0 198.0 48.666670
4.09 4.100170 36282.0 292.050 9.980 0.0970 0.1020 3779626.80 3483522.80 3391157.60 4203794.80 2.0 104.0 1.0 12.0 200.0 44.0 300.0 198.0 44.0
4.08 4.091920 36077.0 292.10 9.980 0.0970 0.1020 3779514.0 3483416.0 3391056.0 4203910.0 2.0 104.0 1.0 12.0 200.0 39.333330 300.0 198.0 39.333330
4.07 4.083680 36458.0 292.150 9.980 0.0970 0.1030 3779621.20 3483526.0 3391159.60 4203788.40 2.0 104.0 1.0 12.0 200.0 34.666670 300.0 198.0 34.666670
4.06 4.075430 36839.0 292.20 9.980 0.0970 0.1040 3779728.40 3483636.0 3391263.20 4203666.80 2.0 104.0 0.750 208.250 200.0 30.0 300.0 198.0 30.0
4.05 4.058150 36611.0 292.30 9.980 0.0970 0.1020 3779835.60 3483746.0 3391366.80 4203545.20 2.0 104.0 0.50 404.50 200.0 33.333330 300.0 198.0 33.333330
4.04 4.049910 36626.50 292.350 9.980 0.0970 0.1020 3779942.80 3483856.0 3391470.40 4203423.60 2.0 104.0 0.250 600.750 200.0 36.666670 300.0 198.0 36.666670
4.03 4.041660 36642.0 292.40 9.980 0.0970 0.1020 3780050.0 3483966.0 3391574.0 4203302.0 2.0 104.0 0.0 797.0 200.0 40.0 300.0 198.0 40.0
4.02 4.033410 36581.50 292.450 9.980 0.0970 0.1030 3779937.60 3483860.40 3391472.80 4203428.0 2.0 104.0 0.0 833.80 200.0 43.333330 300.0 198.0 43.333330
4.01 4.025170 36521.0 292.50 9.980 0.0970 0.1040 3779825.20 3483754.80 3391371.60 4203554.0 2.0 104.0 0.0 870.60 200.0 46.666670 300.0 198.0 46.666670
4.00 4.007890 36792.0 292.60 9.980 0.0970 0.1040 3779712.80 3483649.20 3391270.40 4203680.0 2.0 104.0 0.0 907.40 200.0 50.0 300.0 198.0 50.0
3.99 3.999640 36655.0 292.650 9.9850 0.0970 0.1040 3779600.40 3483543.60 3391169.20 4203806.0 2.0 104.0 0.0 944.20 200.0 53.333330 300.0 198.0 53.333330
3.98 3.991390 36518.0 292.70 9.990 0.0970 0.1040 3779488.0 3483438.0 3391068.0 4203932.0 2.0 104.0 0.0 981.0 200.0 56.666670 300.0 198.0 56.666670
3.97 3.983150 36595.0 292.750 9.9950 0.0970 0.1040 3779599.20 3483541.20 3391168.0 4203798.40 2.0 104.0 0.0 981.40 200.0 60.0 300.0 198.0 60.0
3.96 3.97490 36672.0 292.80 10.0 0.0970 0.1040 3779710.40 3483644.40 3391268.0 4203664.80 2.0 104.0 0.0 981.80 200.0 63.333330 300.0 198.0 63.333330
3.95 3.958410 36797.0 292.90 10.0050 0.0970 0.1020 3779821.60 3483747.60 3391368.0 4203531.20 2.0 104.0 0.0 982.20 200.0 61.333330 300.0 198.0 61.333330
3.94 3.950160 36860.0 292.950 10.010 0.0970 0.1020 3779932.80 3483850.80 3391468.0 4203397.60 2.0 104.0 0.0 982.60 200.0 59.333330 300.0 198.0 59.333330
3.93 3.941910 36923.0 293.0 10.0150 0.0970 0.1020 3780044.0 3483954.0 3391568.0 4203264.0 2.0 104.0 0.0 983.0 200.0 57.333330 300.0 198.0 57.333330
3.92 3.933270 36767.50 293.050 10.020 0.0970 0.1030 3780050.40 3483960.40 3391572.40 4203270.0 2.0 104.0 0.0 982.60 200.0 55.333330 300.0 198.0 55.333330
3.91 3.924630 36612.0 293.10 10.0250 0.0970 0.1040 3780056.80 3483966.80 3391576.80 4203276.0 2.0 104.0 0.0 982.20 200.0 53.333330 300.0 198.0 53.333330
3.90 3.908140 36529.0 293.20 10.030 0.0970 0.1020 3780063.20 3483973.20 3391581.20 4203282.0 2.0 104.0 0.0 981.80 200.0 50.0 300.0 198.0 50.0
3.89 3.899890 36671.50 293.250 10.0250 0.0970 0.1020 3780069.60 3483979.60 3391585.60 4203288.0 2.0 104.0 0.0 981.40 200.0 46.666670 300.0 198.0 46.666670
3.88 3.891650 36814.0 293.30 10.020 0.0970 0.1020 3780076.0 3483986.0 3391590.0 4203294.0 2.0 104.0 0.0 981.0 200.0 43.333330 300.0 198.0 43.333330
3.87 3.88340 36903.0 293.350 10.0150 0.0970 0.1020 3780074.0 3483992.0 3391587.60 4203291.60 2.0 104.0 0.0 981.40 200.0 40.0 300.0 198.0 40.0
3.86 3.875150 36992.0 293.40 10.010 0.0970 0.1020 3780072.0 3483998.0 3391585.20 4203289.20 2.0 104.0 0.0 981.80 200.0 36.666670 300.0 198.0 36.666670
3.85 3.858660 36655.0 293.50 10.0050 0.0970 0.1020 3780070.0 3484004.0 3391582.80 4203286.80 2.0 104.0 0.0 982.20 200.0 34.666670 300.0 198.0 34.666670
3.84 3.850020 36563.50 293.550 10.0 0.0970 0.1020 3780068.0 3484010.0 3391580.40 4203284.40 2.0 104.0 0.0 982.60 200.0 32.666670 300.0 198.0 32.666670
3.83 3.841380 36472.0 293.60 9.9950 0.0970 0.1020 3780066.0 3484016.0 3391578.0 4203282.0 2.0 104.0 0.0 983.0 200.0 30.666670 300.0 198.0 30.666670
3.82 3.833140 36487.50 293.650 9.990 0.0970 0.1020 3779958.80 3483898.80 3391474.80 4203402.0 2.0 104.0 0.0 983.20 200.0 28.666670 300.0 198.0 28.666670
3.81 3.824890 36503.0 293.70 9.9850 0.0970 0.1020 3779851.60 3483781.60 3391371.60 4203522.0 2.0 104.0 0.0 983.40 200.0 26.666670 300.0 198.0 26.666670
3.80 3.80840 36503.0 293.80 9.980 0.0970 0.1020 3779744.40 3483664.40 3391268.40 4203642.0 2.0 104.0 0.0 983.60 200.0 25.333330 300.0 198.0 25.333330
3.79 3.799760 36794.0 293.850 9.980 0.0970 0.1020 3779637.20 3483547.20 3391165.20 4203762.0 2.0 104.0 0.0 983.80 200.0 24.0 300.0 198.0 24.0
3.78 3.791120 37085.0 293.90 9.980 0.0970 0.1020 3779530.0 3483430.0 3391062.0 4203882.0 2.0 104.0 0.0 984.0 200.0 22.666670 300.0 198.0 22.666670
3.77 3.782870 36970.0 293.950 9.980 0.0970 0.1030 3779630.40 3483534.0 3391164.0 4203759.60 2.0 104.0 0.0 984.0 200.0 21.333330 300.0 198.0 21.333330
3.76 3.774620 36855.0 294.0 9.980 0.0970 0.1040 3779730.80 3483638.0 3391266.0 4203637.20 2.0 104.0 0.0 984.0 200.0 20.0 300.0 198.0 20.0
3.75 3.758130 37203.0 294.10 9.980 0.0970 0.1020 3779831.20 3483742.0 3391368.0 4203514.80 2.0 104.0 0.0 984.0 200.0 22.666670 300.0 198.0 22.666670
3.74 3.749880 36944.50 294.150 9.980 0.0970 0.1020 3779931.60 3483846.0 3391470.0 4203392.40 2.0 104.0 0.0 984.0 200.0 25.333330 300.0 198.0 25.333330
3.73 3.741640 36686.0 294.20 9.980 0.0970 0.1020 3780032.0 3483950.0 3391572.0 4203270.0 2.0 104.0 0.0 984.0 200.0 28.0 300.0 198.0 28.0
3.72 3.733390 36590.50 294.250 9.980 0.0970 0.1030 3779919.20 3483841.60 3391462.40 4203391.60 2.0 104.0 0.0 984.20 200.0 30.666670 300.0 198.0 30.666670
3.71 3.725140 36495.0 294.30 9.980 0.0970 0.1040 3779806.40 3483733.20 3391352.80 4203513.20 2.0 104.0 0.0 984.40 200.0 33.333330 300.0 198.0 33.333330
3.70 3.707860 36902.0 294.40 9.980 0.0970 0.1020 3779693.60 3483624.80 3391243.20 4203634.80 2.0 104.0 0.0 984.60 200.0 32.666670 300.0 198.0 32.666670
3.69 3.699620 36759.50 294.450 9.980 0.0970 0.1020 3779580.80 3483516.40 3391133.60 4203756.40 2.0 104.0 0.0 984.80 200.0 32.0 300.0 198.0 32.0
3.68 3.691370 36617.0 294.50 9.980 0.0970 0.1020 3779468.0 3483408.0 3391024.0 4203878.0 2.0 104.0 0.0 985.0 200.0 31.333330 300.0 198.0 31.333330
3.67 3.683120 36750.0 294.550 9.980 0.0970 0.1020 3779458.80 3483405.20 3391023.60 4203879.60 2.0 104.0 0.0 984.80 200.0 30.666670 300.0 198.0 30.666670
3.66 3.674880 36883.0 294.60 9.980 0.0970 0.1020 3779449.60 3483402.40 3391023.20 4203881.20 2.0 104.0 0.0 984.60 200.0 30.0 300.0 198.0 30.0
3.65 3.65760 36921.0 294.70 9.980 0.0970 0.1020 3779440.40 3483399.60 3391022.80 4203882.80 2.0 104.0 0.0 984.40 200.0 32.666670 302.0 198.0 32.666670
3.64 3.649350 37067.0 294.750 9.980 0.0970 0.1020 3779431.20 3483396.80 3391022.40 4203884.40 2.0 104.0 0.0 984.20 200.0 35.333330 304.0 198.0 35.333330
3.63 3.641110 37213.0 294.80 9.980 0.0970 0.1020 3779422.0 3483394.0 3391022.0 4203886.0 2.0 104.0 0.0 984.0 200.0 38.0 306.0 198.0 38.0
