~VERSION INFORMATION SECTION
VERS. 2.0 : CWLS LAS-VERSION 2.0
WRAP. NO : One line per depth step
~WELL INFORMATION SECTION
# MNEM.UNIT VALUE/NAME DESCRIPTION
#-------- -------------- ---------------------
STRT.Metres 28 : Start
STOP.Metres 0.40 : Stop
STEP.Metres -0.01 : Step
NULL.  -999.25 :NULL VALUE
DATE. 2026-16-05 : DATE
~CURVE INFORMATION SECTION
DEPTH.Metres : 0 Depth
Depth. : 1 Depth
Tension. : 2 Tension
Time. : 3 Time
Speed. : 4 Speed
Voltage. : 5 Voltage
Current. : 6 Current
X1.mm : 7 X1
X2.mm : 8 X2
Y1.mm : 9 Y1
Y2.mm : 10 Y2
MotorCurrent.mA : 11 Motor Current
HeadVoltage.V : 12 Head Voltage
WET. : 13 WET
Sig. : 14 Sig
Vth. : 15 Vth
GR.CPS : 16 GR
Timebase.ms : 17 Timebase
HeadVoltage.V : 18 Head Voltage
API.API : 19 API
~PARAMETER INFORMATION SECTION
~OTHER
#-------------------------------------------------
#Produced By: GeoVista Logger - Version 7.1.107.0
Natural Gamma Sonde - 9515
WLIS - 9387
Caliper Sonde (4 Arm) - 6341
#-------------------------------------------------
~ASCII LOG DATA
# ...
23.17 23.183380 36858.0 177.50 9.9480 0.0970 0.1020 3385634.0 3142994.0 3027592.0 3811794.0 2.0 104.0 1.0 0.0 200.0 39.166670 300.0 198.0 39.166670
23.16 23.175140 37014.50 177.550 9.9520 0.0970 0.1020 3385638.0 3143003.60 3027601.20 3811800.40 2.0 104.0 1.0 0.0 200.0 36.666670 300.0 198.0 36.666670
23.15 23.166890 37171.0 177.60 9.9560 0.0970 0.1020 3385642.0 3143013.20 3027610.40 3811806.80 2.0 104.0 1.0 0.0 200.0 34.666670 300.0 198.0 34.666670
23.14 23.149610 37145.0 177.70 9.960 0.0970 0.10 3385646.0 3143022.80 3027619.60 3811813.20 2.0 104.0 1.0 0.0 200.0 32.666670 300.0 198.0 32.666670
23.13 23.141360 37187.0 177.750 9.9640 0.0970 0.1010 3385650.0 3143032.40 3027628.80 3811819.60 2.0 104.0 1.0 0.0 200.0 30.666670 300.0 198.0 30.666670
23.12 23.133120 37229.0 177.80 9.9680 0.0970 0.1020 3385654.0 3143042.0 3027638.0 3811826.0 2.0 104.0 1.0 0.0 200.0 28.666670 300.0 198.0 28.666670
23.11 23.124870 37146.50 177.850 9.9720 0.0970 0.1020 3385541.60 3142936.0 3027528.0 3811943.60 2.0 104.0 1.0 0.0 200.0 26.666670 300.0 198.0 26.666670
23.10 23.116620 37064.0 177.90 9.9760 0.0970 0.1020 3385429.20 3142830.0 3027418.0 3812061.20 2.0 104.0 1.0 0.0 200.0 27.222220 300.0 198.0 27.222220
23.09 23.099350 37208.0 178.0 9.980 0.0970 0.1020 3385316.80 3142724.0 3027308.0 3812178.80 2.0 104.0 1.0 0.0 200.0 27.777780 300.0 198.0 27.777780
23.08 23.09110 37102.0 178.050 9.9850 0.0970 0.1020 3385204.40 3142618.0 3027198.0 3812296.40 2.0 104.0 1.0 0.0 200.0 28.333330 300.0 198.0 28.333330
23.07 23.082850 36996.0 178.10 9.990 0.0970 0.1020 3385092.0 3142512.0 3027088.0 3812414.0 2.0 104.0 1.0 0.0 200.0 28.888890 300.0 198.0 28.888890
23.06 23.074610 37102.0 178.150 9.9950 0.0970 0.1020 3385200.40 3142608.40 3027190.0 3812296.80 2.0 104.0 1.0 0.0 200.0 29.444440 300.0 198.0 29.444440
23.05 23.066360 37208.0 178.20 10.0 0.0970 0.1020 3385308.80 3142704.80 3027292.0 3812179.60 2.0 104.0 1.0 0.0 200.0 30.0 300.0 198.0 30.0
23.04 23.049870 37546.0 178.30 10.0050 0.0970 0.1020 3385417.20 3142801.20 3027394.0 3812062.40 2.0 104.0 1.0 0.0 200.0 26.666670 300.0 198.0 26.666670
23.03 23.041620 37382.0 178.350 10.010 0.0970 0.1020 3385525.60 3142897.60 3027496.0 3811945.20 2.0 104.0 1.0 0.0 200.0 23.333330 300.0 198.0 23.333330
23.02 23.033370 37218.0 178.40 10.0150 0.0970 0.1020 3385634.0 3142994.0 3027598.0 3811828.0 2.0 104.0 1.0 0.0 200.0 20.0 300.0 198.0 20.0
23.01 23.023950 37333.0 178.450 10.020 0.0970 0.1020 3385637.20 3142998.40 3027602.0 3811822.80 2.0 104.0 1.0 0.0 200.0 16.666670 300.0 198.0 16.666670
23.00 23.014520 37448.0 178.50 10.0250 0.0970 0.1020 3385640.40 3143002.80 3027606.0 3811817.60 2.0 104.0 1.0 0.0 200.0 19.333330 300.0 198.0 19.333330
22.99 22.998030 37424.0 178.60 10.030 0.0970 0.1020 3385643.60 3143007.20 3027610.0 3811812.40 2.0 104.0 1.0 0.0 200.0 22.0 300.0 198.0 22.0
22.98 22.990570 37163.0 178.650 10.0250 0.0970 0.1020 3385646.80 3143011.60 3027614.0 3811807.20 2.0 104.0 1.0 0.0 200.0 24.666670 300.0 198.0 24.666670
22.97 22.983110 36902.0 178.70 10.020 0.0970 0.1020 3385650.0 3143016.0 3027618.0 3811802.0 2.0 104.0 1.0 0.0 200.0 27.333330 300.0 198.0 27.333330
22.96 22.974470 37056.50 178.750 10.0150 0.0970 0.1020 3385657.60 3143010.40 3027621.20 3811808.0 2.0 104.0 1.0 0.0 200.0 30.0 300.0 198.0 30.0
22.95 22.965830 37211.0 178.80 10.010 0.0970 0.1020 3385665.20 3143004.80 3027624.40 3811814.0 2.0 104.0 1.0 0.0 200.0 27.777780 300.0 198.0 27.777780
22.94 22.948550 37118.0 178.90 10.0050 0.0970 0.1020 3385672.80 3142999.20 3027627.60 3811820.0 2.0 104.0 1.0 0.0 200.0 25.555560 300.0 198.0 25.555560
22.93 22.94030 37254.0 178.950 10.0 0.0970 0.1020 3385680.40 3142993.60 3027630.80 3811826.0 2.0 104.0 1.0 0.0 200.0 23.333330 300.0 198.0 23.333330
22.92 22.932060 37390.0 179.0 9.9950 0.0970 0.1020 3385688.0 3142988.0 3027634.0 3811832.0 2.0 104.0 1.0 0.0 200.0 21.111110 300.0 198.0 21.111110
22.91 22.92420 37397.50 179.050 9.990 0.0970 0.1020 3385574.40 3142883.60 3027519.20 3811943.20 2.0 104.0 1.0 0.0 200.0 18.888890 300.0 198.0 18.888890
22.90 22.916350 37405.0 179.10 9.9850 0.0970 0.1020 3385460.80 3142779.20 3027404.40 3812054.40 2.0 104.0 1.0 0.0 200.0 16.666670 300.0 198.0 16.666670
22.89 22.899850 36826.0 179.20 9.980 0.0970 0.1020 3385347.20 3142674.80 3027289.60 3812165.60 2.0 104.0 1.0 0.0 200.0 19.166670 300.0 198.0 19.166670
22.88 22.891210 36915.0 179.250 9.980 0.0970 0.1020 3385233.60 3142570.40 3027174.80 3812276.80 2.0 104.0 1.0 0.0 200.0 21.666670 300.0 198.0 21.666670
22.87 22.882580 37004.0 179.30 9.980 0.0970 0.1020 3385120.0 3142466.0 3027060.0 3812388.0 2.0 104.0 1.0 0.0 200.0 24.166670 300.0 198.0 24.166670
22.86 22.874330 36983.50 179.350 9.980 0.0970 0.1030 3385221.20 3142574.40 3027159.20 3812272.80 2.0 104.0 1.0 0.0 200.0 26.666670 300.0 198.0 26.666670
22.85 22.866080 36963.0 179.40 9.980 0.0970 0.1040 3385322.40 3142682.80 3027258.40 3812157.60 2.0 104.0 1.0 0.0 200.0 28.666670 300.0 198.0 28.666670
22.84 22.849590 37047.0 179.50 9.980 0.0970 0.1020 3385423.60 3142791.20 3027357.60 3812042.40 2.0 104.0 1.0 0.0 200.0 30.666670 300.0 198.0 30.666670
22.83 22.841340 37174.0 179.550 9.980 0.0970 0.1020 3385524.80 3142899.60 3027456.80 3811927.20 2.0 104.0 1.0 0.0 200.0 32.666670 300.0 198.0 32.666670
22.82 22.83310 37301.0 179.60 9.980 0.0970 0.1020 3385626.0 3143008.0 3027556.0 3811812.0 2.0 104.0 1.0 0.0 200.0 34.666670 300.0 198.0 34.666670
22.81 22.81660 37388.0 179.70 9.980 0.0970 0.1020 3385527.60 3142902.0 3027460.80 3811930.40 2.0 104.0 1.0 0.0 200.0 36.666670 300.0 198.0 36.666670
22.80 22.808360 37296.0 179.750 9.980 0.0970 0.1020 3385429.20 3142796.0 3027365.60 3812048.80 2.0 104.0 1.0 0.0 200.0 34.444440 300.0 198.0 34.444440
22.79 22.800110 37204.0 179.80 9.980 0.0970 0.1020 3385330.80 3142690.0 3027270.40 3812167.20 2.0 104.0 1.0 0.0 200.0 32.222220 300.0 198.0 32.222220
22.78 22.791470 37254.0 179.850 9.9760 0.0970 0.1020 3385232.40 3142584.0 3027175.20 3812285.60 2.0 104.0 1.0 0.0 200.0 30.0 300.0 198.0 30.0
22.77 22.782830 37304.0 179.90 9.9720 0.0970 0.1020 3385134.0 3142478.0 3027080.0 3812404.0 2.0 104.0 1.0 0.0 200.0 27.777780 300.0 198.0 27.777780
22.76 22.774580 37213.0 179.950 9.9680 0.0970 0.1020 3385116.80 3142471.60 3027074.40 3812407.60 2.0 104.0 1.0 0.0 200.0 25.555560 300.0 198.0 25.555560
22.75 22.766340 37122.0 180.0 9.9640 0.0970 0.1020 3385099.60 3142465.20 3027068.80 3812411.20 2.0 104.0 1.0 0.0 200.0 23.333330 300.0 198.0 23.333330
22.74 22.749840 37073.0 180.10 9.960 0.0970 0.1020 3385082.40 3142458.80 3027063.20 3812414.80 2.0 104.0 1.0 0.0 200.0 22.666670 302.0 198.0 22.666670
22.73 22.74160 37142.50 180.150 9.9560 0.0970 0.1020 3385065.20 3142452.40 3027057.60 3812418.40 2.0 104.0 1.0 0.0 200.0 22.0 304.0 198.0 22.0
22.72 22.733350 37212.0 180.20 9.9520 0.0970 0.1020 3385048.0 3142446.0 3027052.0 3812422.0 2.0 104.0 1.0 0.0 200.0 21.333330 306.0 198.0 21.333330
22.71 22.716070 37351.0 180.30 9.9480 0.0970 0.1020 3385040.40 3142447.60 3027050.0 3812417.20 2.0 104.0 1.0 0.20 200.0 20.666670 308.0 197.80 20.666670
22.70 22.708220 37246.50 180.350 9.9440 0.0970 0.1020 3385032.80 3142449.20 3027048.0 3812412.40 2.0 104.0 1.0 0.40 200.0 20.0 310.0 197.60 20.0
22.69 22.700360 37142.0 180.40 9.940 0.0970 0.1020 3385025.20 3142450.80 3027046.0 3812407.60 2.0 104.0 1.0 0.60 200.0 17.333330 308.0 197.40 17.333330
22.68 22.691720 36999.50 180.450 9.940 0.0970 0.1020 3385017.60 3142452.40 3027044.0 3812402.80 2.0 104.0 1.0 0.80 200.0 14.666670 306.0 197.20 14.666670
22.67 22.683080 36857.0 180.50 9.940 0.0970 0.1020 3385010.0 3142454.0 3027042.0 3812398.0 2.0 104.0 1.0 1.0 200.0 12.0 304.0 197.0 12.0
22.66 22.666590 37153.0 180.60 9.940 0.0970 0.1020 3469212.0 3210565.20 3099219.20 3892957.20 2.0 104.0 1.0 0.80 200.0 9.333330 302.0 197.20 9.333330
22.65 22.658340 37060.50 180.650 9.940 0.0970 0.1020 3553414.0 3278676.40 3171396.40 3973516.40 2.0 104.0 1.0 0.60 200.0 6.666670 300.0 197.40 6.666670
22.64 22.65010 36968.0 180.70 9.940 0.0970 0.1020 3637616.0 3346787.60 3243573.60 4054075.60 2.0 104.0 1.0 0.40 200.0 10.494620 300.0 197.60 10.494620
