~VERSION INFORMATION SECTION
VERS. 2.0 : CWLS LAS-VERSION 2.0
WRAP. NO : One line per depth step
~WELL INFORMATION SECTION
# MNEM.UNIT VALUE/NAME DESCRIPTION
#-------- -------------- ---------------------
STRT.Metres 28 : Start
STOP.Metres 0.40 : Stop
STEP.Metres -0.01 : Step
NULL.  -999.25 :NULL VALUE
DATE. 2026-16-05 : DATE
~CURVE INFORMATION SECTION
DEPTH.Metres : 0 Depth
Depth. : 1 Depth
Tension. : 2 Tension
Time. : 3 Time
Speed. : 4 Speed
Voltage. : 5 Voltage
Current. : 6 Current
X1.mm : 7 X1
X2.mm : 8 X2
Y1.mm : 9 Y1
Y2.mm : 10 Y2
MotorCurrent.mA : 11 Motor Current
HeadVoltage.V : 12 Head Voltage
WET. : 13 WET
Sig. : 14 Sig
Vth. : 15 Vth
GR.CPS : 16 GR
Timebase.ms : 17 Timebase
HeadVoltage.V : 18 Head Voltage
API.API : 19 API
~PARAMETER INFORMATION SECTION
~OTHER
#-------------------------------------------------
#Produced By: GeoVista Logger - Version 7.1.107.0
Natural Gamma Sonde - 9515
WLIS - 9387
Caliper Sonde (4 Arm) - 6341
#-------------------------------------------------
~ASCII LOG DATA
# ...
17.78 17.79320 37134.50 209.850 10.070 0.0970 0.1020 3787127.60 3484052.40 3389745.20 4214454.0 2.0 104.0 1.0 21.60 200.0 22.0 300.0 198.0 22.0
17.77 17.784560 37188.0 209.90 10.060 0.0970 0.1020 3787250.0 3484166.0 3389854.0 4214338.0 2.0 104.0 1.0 22.0 200.0 22.666670 300.0 198.0 22.666670
17.76 17.768060 37091.0 210.0 10.050 0.0970 0.1020 3787247.20 3484176.40 3389854.40 4214338.80 2.0 104.0 1.0 21.80 200.0 23.333330 300.0 198.0 23.333330
17.75 17.759820 37083.0 210.050 10.040 0.0970 0.1010 3787244.40 3484186.80 3389854.80 4214339.60 2.0 104.0 1.0 21.60 200.0 24.0 300.0 198.0 24.0
17.74 17.751570 37075.0 210.10 10.030 0.0970 0.10 3787241.60 3484197.20 3389855.20 4214340.40 2.0 104.0 1.0 21.40 200.0 24.666670 300.0 198.0 24.666670
17.73 17.743320 36999.50 210.150 10.020 0.0970 0.1010 3787238.80 3484207.60 3389855.60 4214341.20 2.0 104.0 1.0 21.20 200.0 25.333330 300.0 198.0 25.333330
17.72 17.735080 36924.0 210.20 10.010 0.0970 0.1020 3787236.0 3484218.0 3389856.0 4214342.0 2.0 104.0 1.0 21.0 200.0 26.0 300.0 198.0 26.0
17.71 17.718580 37156.0 210.30 10.0 0.0970 0.1020 3787236.0 3484209.60 3389856.80 4214336.40 2.0 104.0 1.0 21.0 200.0 26.666670 300.0 198.0 26.666670
17.70 17.710340 37319.50 210.350 9.990 0.0970 0.1020 3787236.0 3484201.20 3389857.60 4214330.80 2.0 104.0 1.0 21.0 200.0 25.333330 300.0 198.0 25.333330
17.69 17.702090 37483.0 210.40 9.980 0.0970 0.1020 3787236.0 3484192.80 3389858.40 4214325.20 2.0 104.0 1.0 21.0 200.0 24.0 300.0 198.0 24.0
17.68 17.693840 37365.0 210.450 9.9710 0.0970 0.1020 3787236.0 3484184.40 3389859.20 4214319.60 2.0 104.0 1.0 21.0 200.0 22.666670 300.0 198.0 22.666670
17.67 17.68560 37247.0 210.50 9.9620 0.0970 0.1020 3787236.0 3484176.0 3389860.0 4214314.0 2.0 104.0 1.0 21.0 200.0 21.333330 300.0 198.0 21.333330
17.66 17.66910 37154.0 210.60 9.9530 0.0970 0.1020 3787236.40 3484183.20 3389859.20 4214312.0 2.0 104.0 1.0 21.0 200.0 20.0 300.0 198.0 20.0
17.65 17.660860 37142.50 210.650 9.9440 0.0970 0.1020 3787236.80 3484190.40 3389858.40 4214310.0 2.0 104.0 1.0 21.0 200.0 20.0 300.0 198.0 20.0
17.64 17.652610 37131.0 210.70 9.9350 0.0970 0.1020 3787237.20 3484197.60 3389857.60 4214308.0 2.0 104.0 1.0 21.0 200.0 20.0 300.0 198.0 20.0
17.63 17.644360 36935.50 210.750 9.9260 0.0970 0.1020 3787237.60 3484204.80 3389856.80 4214306.0 2.0 104.0 1.0 21.0 200.0 20.0 300.0 198.0 20.0
17.62 17.636120 36740.0 210.80 9.9170 0.0970 0.1020 3787238.0 3484212.0 3389856.0 4214304.0 2.0 104.0 1.0 21.0 200.0 20.0 300.0 198.0 20.0
17.61 17.619620 37007.0 210.90 9.9080 0.0970 0.1020 3787121.20 3484091.60 3389744.0 4214430.0 2.0 104.0 1.0 21.0 200.0 20.0 300.0 198.0 20.0
17.60 17.611380 37130.0 210.950 9.8990 0.0970 0.1020 3787004.40 3483971.20 3389632.0 4214556.0 2.0 104.0 1.0 21.0 200.0 18.0 300.0 198.0 18.0
17.59 17.603130 37253.0 211.0 9.890 0.0970 0.1020 3786887.60 3483850.80 3389520.0 4214682.0 2.0 104.0 1.0 21.0 200.0 16.0 300.0 198.0 16.0
17.58 17.586640 37097.0 211.10 9.890 0.0970 0.1020 3786770.80 3483730.40 3389408.0 4214808.0 2.0 104.0 1.0 21.0 200.0 14.0 300.0 198.0 14.0
17.57 17.578390 37084.0 211.150 9.890 0.0970 0.1020 3786654.0 3483610.0 3389296.0 4214934.0 2.0 104.0 1.0 21.0 200.0 12.0 300.0 198.0 12.0
17.56 17.570140 37071.0 211.20 9.890 0.0970 0.1020 3786643.60 3483612.40 3389291.60 4214930.80 2.0 104.0 1.0 21.0 200.0 10.0 300.0 198.0 10.0
17.55 17.56190 37086.50 211.250 9.890 0.0970 0.1020 3786633.20 3483614.80 3389287.20 4214927.60 2.0 104.0 1.0 21.0 200.0 10.666670 300.0 198.0 10.666670
17.54 17.553650 37102.0 211.30 9.890 0.0970 0.1020 3786622.80 3483617.20 3389282.80 4214924.40 2.0 104.0 1.0 21.0 200.0 11.333330 300.0 198.0 11.333330
17.53 17.545010 37090.0 211.350 9.890 0.0970 0.1020 3786612.40 3483619.60 3389278.40 4214921.20 2.0 104.0 1.0 21.0 200.0 12.0 300.0 198.0 12.0
17.52 17.536370 37078.0 211.40 9.890 0.0970 0.1020 3786602.0 3483622.0 3389274.0 4214918.0 2.0 104.0 1.0 21.0 200.0 12.666670 300.0 198.0 12.666670
17.51 17.519880 37125.0 211.50 9.890 0.0970 0.1020 3786604.80 3483611.20 3389272.40 4214920.0 2.0 104.0 1.0 21.0 200.0 13.333330 300.0 198.0 13.333330
17.50 17.511630 37151.0 211.550 9.890 0.0970 0.1020 3786607.60 3483600.40 3389270.80 4214922.0 2.0 104.0 1.0 21.0 200.0 15.333330 300.0 198.0 15.333330
17.49 17.503380 37177.0 211.60 9.890 0.0970 0.1020 3786610.40 3483589.60 3389269.20 4214924.0 2.0 104.0 1.0 21.0 200.0 17.333330 300.0 198.0 17.333330
17.48 17.486890 37170.0 211.70 9.8990 0.0970 0.1020 3786613.20 3483578.80 3389267.60 4214926.0 2.0 104.0 1.0 21.0 200.0 19.333330 300.0 198.0 19.333330
17.47 17.478640 37222.0 211.750 9.9080 0.0970 0.1020 3786616.0 3483568.0 3389266.0 4214928.0 2.0 104.0 1.0 21.0 200.0 21.333330 300.0 198.0 21.333330
17.46 17.47040 37274.0 211.80 9.9170 0.0970 0.1020 3786735.20 3483680.80 3389378.40 4214805.60 2.0 104.0 1.0 21.0 200.0 23.333330 300.0 198.0 23.333330
17.45 17.461760 37323.50 211.850 9.9260 0.0970 0.1020 3786854.40 3483793.60 3389490.80 4214683.20 2.0 104.0 1.0 21.0 200.0 24.0 300.0 198.0 24.0
17.44 17.453120 37373.0 211.90 9.9350 0.0970 0.1020 3786973.60 3483906.40 3389603.20 4214560.80 2.0 104.0 1.0 21.0 200.0 24.666670 300.0 198.0 24.666670
17.43 17.444480 37410.0 211.950 9.9440 0.0970 0.1020 3787092.80 3484019.20 3389715.60 4214438.40 2.0 104.0 1.0 21.0 200.0 25.333330 300.0 198.0 25.333330
17.42 17.435840 37447.0 212.0 9.9530 0.0970 0.1020 3787212.0 3484132.0 3389828.0 4214316.0 2.0 104.0 1.0 21.0 200.0 26.0 300.0 198.0 26.0
17.41 17.419350 37519.0 212.10 9.9620 0.0970 0.1020 3787098.40 3484033.60 3389724.0 4214433.20 2.0 104.0 1.0 21.0 200.0 26.666670 300.0 198.0 26.666670
17.40 17.41110 37391.0 212.150 9.9710 0.0970 0.1020 3786984.80 3483935.20 3389620.0 4214550.40 2.0 104.0 1.0 21.0 200.0 24.666670 300.0 198.0 24.666670
17.39 17.402850 37263.0 212.20 9.980 0.0970 0.1020 3786871.20 3483836.80 3389516.0 4214667.60 2.0 104.0 1.0 21.0 200.0 22.666670 300.0 198.0 22.666670
17.38 17.394210 37168.0 212.250 9.9950 0.0970 0.1020 3786757.60 3483738.40 3389412.0 4214784.80 2.0 104.0 1.0 21.0 200.0 20.666670 300.0 198.0 20.666670
17.37 17.385570 37073.0 212.30 10.010 0.0970 0.1020 3786644.0 3483640.0 3389308.0 4214902.0 2.0 104.0 1.0 21.0 200.0 18.666670 300.0 198.0 18.666670
17.36 17.369080 36818.0 212.40 10.0250 0.0970 0.1020 3786779.0 3483758.0 3389433.50 4214756.0 2.0 104.0 1.0 21.0 200.0 16.666670 300.0 198.0 16.666670
17.35 17.360830 37002.50 212.450 10.040 0.0970 0.1010 3786914.0 3483876.0 3389559.0 4214610.0 2.0 104.0 1.0 21.0 200.0 14.0 300.0 198.0 14.0
17.34 17.352590 37187.0 212.50 10.0550 0.0970 0.10 3787049.0 3483994.0 3389684.50 4214464.0 2.0 104.0 1.0 21.0 200.0 11.333330 300.0 198.0 11.333330
17.33 17.343950 37027.50 212.550 10.070 0.0970 0.1010 3787184.0 3484112.0 3389810.0 4214318.0 2.0 104.0 1.0 21.0 200.0 8.666670 300.0 198.0 8.666670
17.32 17.335310 36868.0 212.60 10.0850 0.0970 0.1020 3787079.20 3484012.40 3389713.20 4214439.20 2.0 104.0 1.0 21.0 200.0 6.0 300.0 198.0 6.0
17.31 17.318810 36994.0 212.70 10.10 0.0970 0.1020 3786974.40 3483912.80 3389616.40 4214560.40 2.0 104.0 1.0 21.0 200.0 3.333330 300.0 198.0 3.333330
17.30 17.310570 37044.0 212.750 10.1150 0.0970 0.1020 3786869.60 3483813.20 3389519.60 4214681.60 2.0 104.0 1.0 21.0 200.0 8.0 300.0 198.0 8.0
17.29 17.302320 37094.0 212.80 10.130 0.0970 0.1020 3786764.80 3483713.60 3389422.80 4214802.80 2.0 104.0 1.0 21.0 200.0 12.666670 300.0 198.0 12.666670
17.28 17.293680 36984.0 212.850 10.120 0.0970 0.1020 3786660.0 3483614.0 3389326.0 4214924.0 2.0 104.0 1.0 21.0 200.0 17.333330 300.0 198.0 17.333330
17.27 17.285040 36874.0 212.90 10.110 0.0970 0.1020 3786650.0 3483606.0 3389316.0 4214918.40 2.0 104.0 1.0 21.0 200.0 22.0 300.0 198.0 22.0
17.26 17.268550 37027.0 213.0 10.10 0.0970 0.1020 3786640.0 3483598.0 3389306.0 4214912.80 2.0 104.0 1.0 21.0 200.0 26.666670 300.0 198.0 26.666670
17.25 17.26030 37017.50 213.050 10.090 0.0970 0.1020 3786630.0 3483590.0 3389296.0 4214907.20 2.0 104.0 1.0 21.0 200.0 26.666670 300.0 198.0 26.666670
17.24 17.252060 37008.0 213.10 10.080 0.0970 0.1020 3786620.0 3483582.0 3389286.0 4214901.60 2.0 104.0 1.0 21.0 200.0 26.666670 300.0 198.0 26.666670
