~VERSION INFORMATION SECTION
VERS. 2.0 : CWLS LAS-VERSION 2.0
WRAP. NO : One line per depth step
~WELL INFORMATION SECTION
# MNEM.UNIT VALUE/NAME DESCRIPTION
#-------- -------------- ---------------------
STRT.Metres 28 : Start
STOP.Metres 0.40 : Stop
STEP.Metres -0.01 : Step
NULL.  -999.25 :NULL VALUE
DATE. 2026-16-05 : DATE
~CURVE INFORMATION SECTION
DEPTH.Metres : 0 Depth
Depth. : 1 Depth
Tension. : 2 Tension
Time. : 3 Time
Speed. : 4 Speed
Voltage. : 5 Voltage
Current. : 6 Current
X1.mm : 7 X1
X2.mm : 8 X2
Y1.mm : 9 Y1
Y2.mm : 10 Y2
MotorCurrent.mA : 11 Motor Current
HeadVoltage.V : 12 Head Voltage
WET. : 13 WET
Sig. : 14 Sig
Vth. : 15 Vth
GR.CPS : 16 GR
Timebase.ms : 17 Timebase
HeadVoltage.V : 18 Head Voltage
API.API : 19 API
~PARAMETER INFORMATION SECTION
~OTHER
#-------------------------------------------------
#Produced By: GeoVista Logger - Version 7.1.107.0
Natural Gamma Sonde - 9515
WLIS - 9387
Caliper Sonde (4 Arm) - 6341
#-------------------------------------------------
~ASCII LOG DATA
# ...
16.15 16.159570 37233.0 219.650 9.9560 0.0970 0.1020 3786591.0 3483587.0 3389744.0 4208699.0 2.0 104.0 1.0 21.0 200.0 33.333330 300.0 198.0 33.333330
16.14 16.151710 37223.0 219.70 9.9850 0.0970 0.1020 3786570.50 3483581.50 3389723.0 4208695.50 2.0 104.0 1.0 21.0 200.0 33.333330 300.0 198.0 33.333330
16.13 16.143070 37185.0 219.750 10.0140 0.0970 0.1020 3786550.0 3483576.0 3389702.0 4208692.0 2.0 104.0 1.0 21.0 200.0 33.333330 300.0 198.0 33.333330
16.12 16.134430 37147.0 219.80 10.0430 0.0970 0.1020 3786660.333330 3483667.666670 3389798.666670 4208592.666670 2.0 104.0 1.0 21.0 200.0 33.333330 300.0 198.0 33.333330
16.11 16.117940 36895.0 219.90 10.0720 0.0970 0.1020 3786770.666670 3483759.333330 3389895.333330 4208493.333330 2.0 104.0 1.0 21.0 200.0 33.333330 300.0 198.0 33.333330
16.10 16.109690 37129.0 219.950 10.1010 0.0970 0.1020 3786881.0 3483851.0 3389992.0 4208394.0 2.0 104.0 1.0 21.0 200.0 32.666670 300.0 198.0 32.666670
16.09 16.101450 37363.0 220.0 10.130 0.0970 0.1020 3786991.333330 3483942.666670 3390088.666670 4208294.666670 2.0 104.0 1.0 21.0 200.0 32.0 300.0 198.0 32.0
16.08 16.092810 37404.50 220.050 10.1150 0.0970 0.1020 3787101.666670 3484034.333330 3390185.333330 4208195.333330 2.0 104.0 1.0 21.0 200.0 31.333330 300.0 198.0 31.333330
16.07 16.084170 37446.0 220.10 10.10 0.0970 0.1020 3787212.0 3484126.0 3390282.0 4208096.0 2.0 104.0 1.0 21.0 200.0 30.666670 300.0 198.0 30.666670
16.06 16.067680 37254.0 220.20 10.0850 0.0970 0.1020 3787215.20 3484132.80 3390288.0 4208090.80 2.0 104.0 1.0 21.0 200.0 30.0 300.0 198.0 30.0
16.05 16.059430 36992.50 220.250 10.070 0.0970 0.1020 3787218.40 3484139.60 3390294.0 4208085.60 2.0 104.0 1.0 21.0 200.0 26.666670 302.0 198.0 26.666670
16.04 16.051180 36731.0 220.30 10.0550 0.0970 0.1020 3787221.60 3484146.40 3390300.0 4208080.40 2.0 104.0 1.0 21.0 200.0 23.333330 304.0 198.0 23.333330
16.03 16.042940 36778.50 220.350 10.040 0.0970 0.1020 3787224.80 3484153.20 3390306.0 4208075.20 2.0 104.0 1.0 21.0 200.0 20.0 306.0 198.0 20.0
16.02 16.034690 36826.0 220.40 10.0250 0.0970 0.1020 3787228.0 3484160.0 3390312.0 4208070.0 2.0 104.0 1.0 21.0 200.0 16.666670 308.0 198.0 16.666670
16.01 16.01820 36983.0 220.50 10.010 0.0970 0.1020 3787227.0 3484161.50 3390308.0 4208062.0 2.0 104.0 1.0 21.0 200.0 13.333330 310.0 198.0 13.333330
16.00 16.009560 36997.0 220.550 9.9950 0.0970 0.1020 3787226.0 3484163.0 3390304.0 4208054.0 2.0 104.0 1.0 21.0 200.0 15.333330 308.0 198.0 15.333330
15.99 16.000920 37011.0 220.60 9.980 0.0970 0.1020 3787225.0 3484164.50 3390300.0 4208046.0 2.0 104.0 1.0 21.0 200.0 17.333330 306.0 198.0 17.333330
15.98 15.992670 36983.50 220.650 9.9760 0.0970 0.1020 3787224.0 3484166.0 3390296.0 4208038.0 2.0 104.0 1.0 21.0 200.0 19.333330 304.0 198.0 19.333330
15.97 15.984420 36956.0 220.70 9.9720 0.0970 0.1020 3787121.333330 3484071.0 3390204.666670 4208143.333330 2.0 104.0 1.0 21.0 200.0 21.333330 302.0 198.0 21.333330
15.96 15.967930 37503.0 220.80 9.9680 0.0970 0.1020 3787018.666670 3483976.0 3390113.333330 4208248.666670 2.0 104.0 1.0 21.0 200.0 23.333330 300.0 198.0 23.333330
15.95 15.959680 37276.50 220.850 9.9640 0.0970 0.1020 3786916.0 3483881.0 3390022.0 4208354.0 2.0 104.0 1.0 21.0 200.0 23.18280 300.0 198.0 23.18280
15.94 15.951440 37050.0 220.90 9.960 0.0970 0.1020 3786813.333330 3483786.0 3389930.666670 4208459.333330 2.0 104.0 1.0 21.0 200.0 23.032260 300.0 198.0 23.032260
15.93 15.94280 36841.50 220.950 9.9560 0.0970 0.1020 3786710.666670 3483691.0 3389839.333330 4208564.666670 2.0 104.0 1.0 21.0 200.0 22.881720 300.0 198.0 22.881720
15.92 15.934160 36633.0 221.0 9.9520 0.0970 0.1020 3786608.0 3483596.0 3389748.0 4208670.0 2.0 104.0 1.0 21.0 200.0 22.731180 300.0 198.0 22.731180
15.91 15.917660 37581.0 221.10 9.9480 0.0970 0.1020 3786718.40 3483703.60 3389854.80 4208552.40 2.0 104.0 1.0 21.0 200.0 22.580650 300.0 198.0 22.580650
15.90 15.909420 37140.0 221.150 9.9440 0.0970 0.1020 3786828.80 3483811.20 3389961.60 4208434.80 2.0 104.0 1.0 21.0 200.0 24.064520 300.0 198.0 24.064520
15.89 15.901170 36699.0 221.20 9.940 0.0970 0.1020 3786939.20 3483918.80 3390068.40 4208317.20 2.0 104.0 1.0 21.0 200.0 25.548390 300.0 198.0 25.548390
15.88 15.892920 36726.0 221.250 9.9490 0.0970 0.1020 3787049.60 3484026.40 3390175.20 4208199.60 2.0 104.0 1.0 21.0 200.0 27.032260 300.0 198.0 27.032260
15.87 15.884680 36753.0 221.30 9.9580 0.0970 0.1020 3787160.0 3484134.0 3390282.0 4208082.0 2.0 104.0 1.0 21.0 200.0 28.516130 300.0 198.0 28.516130
15.86 15.868180 36926.0 221.40 9.9670 0.0970 0.1020 3787050.80 3484025.60 3390174.0 4208199.60 2.0 104.0 1.0 21.0 200.0 30.0 300.0 198.0 30.0
15.85 15.859550 37140.50 221.450 9.9760 0.0970 0.1020 3786941.60 3483917.20 3390066.0 4208317.20 2.0 104.0 1.0 21.0 200.0 29.333330 300.0 198.0 29.333330
15.84 15.850910 37355.0 221.50 9.9850 0.0970 0.1020 3786832.40 3483808.80 3389958.0 4208434.80 2.0 104.0 1.0 21.0 200.0 28.666670 300.0 198.0 28.666670
15.83 15.842660 37321.50 221.550 9.9940 0.0970 0.1010 3786723.20 3483700.40 3389850.0 4208552.40 2.0 104.0 1.0 21.0 200.0 28.0 300.0 198.0 28.0
15.82 15.834410 37288.0 221.60 10.0030 0.0970 0.10 3786614.0 3483592.0 3389742.0 4208670.0 2.0 104.0 1.0 21.0 200.0 27.333330 300.0 198.0 27.333330
15.81 15.817920 36938.0 221.70 10.0120 0.0970 0.1020 3786720.40 3483703.60 3389842.0 4208549.60 2.0 104.0 1.0 21.0 200.0 26.666670 300.0 198.0 26.666670
15.80 15.809280 36976.50 221.750 10.0210 0.0970 0.1020 3786826.80 3483815.20 3389942.0 4208429.20 2.0 104.0 1.0 21.0 200.0 24.0 300.0 198.0 24.0
15.79 15.800640 37015.0 221.80 10.030 0.0970 0.1020 3786933.20 3483926.80 3390042.0 4208308.80 2.0 104.0 1.0 21.0 200.0 21.333330 300.0 198.0 21.333330
15.78 15.7920 37016.0 221.850 10.040 0.0970 0.1020 3787039.60 3484038.40 3390142.0 4208188.40 2.0 104.0 1.0 21.0 200.0 18.666670 300.0 198.0 18.666670
15.77 15.783360 37017.0 221.90 10.050 0.0970 0.1020 3787146.0 3484150.0 3390242.0 4208068.0 2.0 104.0 1.0 21.0 200.0 16.0 300.0 198.0 16.0
15.76 15.766870 36700.0 222.0 10.060 0.0970 0.1020 3787048.0 3484042.0 3390143.20 4208195.20 2.0 104.0 1.0 20.80 200.0 13.333330 300.0 198.0 13.333330
15.75 15.758620 36971.50 222.050 10.070 0.0970 0.1020 3786950.0 3483934.0 3390044.40 4208322.40 2.0 104.0 1.0 20.60 200.0 16.666670 300.0 198.0 16.666670
15.74 15.750370 37243.0 222.10 10.080 0.0970 0.1020 3786852.0 3483826.0 3389945.60 4208449.60 2.0 104.0 1.0 20.40 200.0 20.0 300.0 198.0 20.0
15.73 15.742130 37255.50 222.150 10.090 0.0970 0.1020 3786754.0 3483718.0 3389846.80 4208576.80 2.0 104.0 1.0 20.20 200.0 23.333330 300.0 198.0 23.333330
15.72 15.733880 37268.0 222.20 10.10 0.0970 0.1020 3786656.0 3483610.0 3389748.0 4208704.0 2.0 104.0 1.0 20.0 200.0 26.666670 300.0 198.0 26.666670
15.71 15.717390 37272.0 222.30 10.110 0.0970 0.1020 3786767.20 3483713.60 3389855.60 4208576.40 2.0 104.0 1.0 20.20 200.0 30.0 300.0 198.0 30.0
15.70 15.709140 37432.50 222.350 10.120 0.0970 0.1020 3786878.40 3483817.20 3389963.20 4208448.80 2.0 104.0 1.0 20.40 200.0 28.0 300.0 198.0 28.0
15.69 15.700890 37593.0 222.40 10.130 0.0970 0.1020 3786989.60 3483920.80 3390070.80 4208321.20 2.0 104.0 1.0 20.60 200.0 26.0 300.0 198.0 26.0
15.68 15.692650 37534.0 222.450 10.1060 0.0970 0.1020 3787100.80 3484024.40 3390178.40 4208193.60 2.0 104.0 1.0 20.80 200.0 24.0 300.0 198.0 24.0
15.67 15.68440 37475.0 222.50 10.0820 0.0970 0.1020 3787212.0 3484128.0 3390286.0 4208066.0 2.0 104.0 1.0 21.0 200.0 22.0 300.0 198.0 22.0
15.66 15.667910 36809.0 222.60 10.0580 0.0970 0.1020 3787210.0 3484134.0 3390284.40 4208069.20 2.0 104.0 1.0 20.80 200.0 20.0 300.0 198.0 20.0
15.65 15.659660 36853.50 222.650 10.0340 0.0970 0.1020 3787208.0 3484140.0 3390282.80 4208072.40 2.0 104.0 1.0 20.60 200.0 23.333330 300.0 198.0 23.333330
15.64 15.651410 36898.0 222.70 10.010 0.0970 0.1020 3787206.0 3484146.0 3390281.20 4208075.60 2.0 104.0 1.0 20.40 200.0 26.666670 300.0 198.0 26.666670
15.63 15.643170 36878.0 222.750 9.9860 0.0970 0.1020 3787204.0 3484152.0 3390279.60 4208078.80 2.0 104.0 1.0 20.20 200.0 30.0 300.0 198.0 30.0
