~VERSION INFORMATION SECTION
VERS. 2.0 : CWLS LAS-VERSION 2.0
WRAP. NO : One line per depth step
~WELL INFORMATION SECTION
# MNEM.UNIT VALUE/NAME DESCRIPTION
#-------- -------------- ---------------------
STRT.Metres 28 : Start
STOP.Metres 0.40 : Stop
STEP.Metres -0.01 : Step
NULL.  -999.25 :NULL VALUE
DATE. 2026-16-05 : DATE
~CURVE INFORMATION SECTION
DEPTH.Metres : 0 Depth
Depth. : 1 Depth
Tension. : 2 Tension
Time. : 3 Time
Speed. : 4 Speed
Voltage. : 5 Voltage
Current. : 6 Current
X1.mm : 7 X1
X2.mm : 8 X2
Y1.mm : 9 Y1
Y2.mm : 10 Y2
MotorCurrent.mA : 11 Motor Current
HeadVoltage.V : 12 Head Voltage
WET. : 13 WET
Sig. : 14 Sig
Vth. : 15 Vth
GR.CPS : 16 GR
Timebase.ms : 17 Timebase
HeadVoltage.V : 18 Head Voltage
API.API : 19 API
~PARAMETER INFORMATION SECTION
~OTHER
#-------------------------------------------------
#Produced By: GeoVista Logger - Version 7.1.107.0
Natural Gamma Sonde - 9515
WLIS - 9387
Caliper Sonde (4 Arm) - 6341
#-------------------------------------------------
~ASCII LOG DATA
28.00 -999.25 -999.25 -999.25 -999.25 -999.25 -999.25 -999.25 -999.25 -999.25 -999.25 -999.25 -999.25 -999.25 -999.25 -999.25 -999.25 -999.25 -999.25 -999.25
27.99 27.999440 37672.0 148.60 -999.25 0.0970 0.1020 -999.25 -999.25 -999.25 -999.25 -999.25 -999.25 -999.25 -999.25 -999.25 -999.25 -999.25 -999.25 -999.25
27.98 27.99120 37715.0 148.650 0.9890 0.0970 0.1020 -999.25 -999.25 -999.25 -999.25 -999.25 -999.25 -999.25 -999.25 -999.25 -999.25 -999.25 -999.25 -999.25
27.97 27.982950 37758.0 148.70 1.9780 0.0970 0.1020 -999.25 -999.25 -999.25 -999.25 -999.25 -999.25 -999.25 -999.25 -999.25 -999.25 -999.25 -999.25 -999.25
27.96 27.97470 37725.50 148.750 2.9670 0.0970 0.1020 677046.80 628527.20 605439.60 761721.60 0.40 20.80 -999.25 -999.25 -999.25 -999.25 -999.25 -999.25 -999.25
27.95 27.966460 37693.0 148.80 3.9560 0.0970 0.1020 1354093.60 1257054.40 1210879.20 1523443.20 0.80 41.60 -999.25 -999.25 -999.25 -999.25 -999.25 -999.25 -999.25
27.94 27.949960 37641.0 148.90 4.9450 0.0970 0.1020 2031140.40 1885581.60 1816318.80 2285164.80 1.20 62.40 -999.25 -999.25 -999.25 -999.25 -999.25 -999.25 -999.25
27.93 27.941720 37748.50 148.950 5.9340 0.0970 0.1020 2708187.20 2514108.80 2421758.40 3046886.40 1.60 83.20 -999.25 -999.25 -999.25 -999.25 -999.25 -999.25 -999.25
27.92 27.933470 37856.0 149.0 6.9230 0.0970 0.1020 3385234.0 3142636.0 3027198.0 3808608.0 2.0 104.0 -999.25 -999.25 -999.25 -999.25 -999.25 -999.25 -999.25
27.91 27.924830 37846.0 149.050 7.9120 0.0970 0.1020 3385342.0 3142740.80 3027301.60 3808496.0 2.0 104.0 -999.25 -999.25 -999.25 -999.25 -999.25 -999.25 -999.25
27.90 27.916190 37836.0 149.10 8.9010 0.0970 0.1020 3385450.0 3142845.60 3027405.20 3808384.0 2.0 104.0 -999.25 -999.25 -999.25 -999.25 -999.25 -999.25 -999.25
27.89 27.89970 37514.0 149.20 9.890 0.0970 0.1020 3385558.0 3142950.40 3027508.80 3808272.0 2.0 104.0 -999.25 -999.25 -999.25 -999.25 -999.25 -999.25 -999.25
27.88 27.891450 37601.0 149.250 9.8990 0.0970 0.1020 3385666.0 3143055.20 3027612.40 3808160.0 2.0 104.0 -999.25 -999.25 -999.25 -999.25 -999.25 -999.25 -999.25
27.87 27.883210 37688.0 149.30 9.9080 0.0970 0.1020 3385774.0 3143160.0 3027716.0 3808048.0 2.0 104.0 -999.25 -999.25 -999.25 -999.25 -999.25 -999.25 -999.25
27.86 27.866710 37745.0 149.40 9.9170 0.0970 0.1020 3385770.80 3143174.80 3027718.40 3808039.60 2.0 104.0 -999.25 -999.25 -999.25 -999.25 -999.25 -999.25 -999.25
27.85 27.858470 37706.0 149.450 9.9260 0.0970 0.1020 3385767.60 3143189.60 3027720.80 3808031.20 2.0 104.0 -999.25 -999.25 -999.25 -999.25 -999.25 -999.25 -999.25
27.84 27.850220 37667.0 149.50 9.9350 0.0970 0.1020 3385764.40 3143204.40 3027723.20 3808022.80 2.0 104.0 -999.25 -999.25 -999.25 -999.25 -999.25 -999.25 -999.25
27.83 27.841580 37494.50 149.550 9.9440 0.0970 0.1020 3385761.20 3143219.20 3027725.60 3808014.40 2.0 104.0 -999.25 -999.25 -999.25 -999.25 -999.25 -999.25 -999.25
27.82 27.832940 37322.0 149.60 9.9530 0.0970 0.1020 3385758.0 3143234.0 3027728.0 3808006.0 2.0 104.0 -999.25 -999.25 -999.25 -999.25 -999.25 -999.25 -999.25
27.81 27.824690 37573.50 149.650 9.9620 0.0970 0.1020 3385763.20 3143235.20 3027733.60 3808009.20 2.0 104.0 -999.25 -999.25 -999.25 -999.25 -999.25 -999.25 -999.25
27.80 27.816450 37825.0 149.70 9.9710 0.0970 0.1020 3385768.40 3143236.40 3027739.20 3808012.40 2.0 104.0 -999.25 -999.25 -999.25 -999.25 -999.25 -999.25 -999.25
27.79 27.799950 37771.0 149.80 9.980 0.0970 0.10 3385773.60 3143237.60 3027744.80 3808015.60 2.0 104.0 -999.25 -999.25 -999.25 -999.25 -999.25 -999.25 -999.25
27.78 27.791710 37747.0 149.850 9.9760 0.0970 0.1010 3385778.80 3143238.80 3027750.40 3808018.80 2.0 104.0 -999.25 -999.25 -999.25 -999.25 -999.25 -999.25 -999.25
27.77 27.783460 37723.0 149.90 9.9720 0.0970 0.1020 3385784.0 3143240.0 3027756.0 3808022.0 2.0 104.0 -999.25 -999.25 -999.25 -999.25 -999.25 -999.25 -999.25
27.76 27.774820 37617.50 149.950 9.9680 0.0970 0.1020 3385786.40 3143248.80 3027756.0 3808024.80 2.0 104.0 -999.25 -999.25 -999.25 -999.25 -999.25 -999.25 -999.25
27.75 27.766180 37512.0 150.0 9.9640 0.0970 0.1020 3385788.80 3143257.60 3027756.0 3808027.60 2.0 104.0 -999.25 -999.25 -999.25 -999.25 -999.25 -999.25 -999.25
27.74 27.749690 37312.0 150.10 9.960 0.0970 0.1020 3385791.20 3143266.40 3027756.0 3808030.40 2.0 104.0 -999.25 -999.25 -999.25 -999.25 -999.25 -999.25 -999.25
27.73 27.741440 37539.50 150.150 9.9560 0.0970 0.1020 3385793.60 3143275.20 3027756.0 3808033.20 2.0 104.0 -999.25 -999.25 -999.25 -999.25 -999.25 -999.25 -999.25
27.72 27.733190 37767.0 150.20 9.9520 0.0970 0.1020 3385796.0 3143284.0 3027756.0 3808036.0 2.0 104.0 -999.25 -999.25 -999.25 -999.25 -999.25 -999.25 -999.25
27.71 27.71670 37878.0 150.30 9.9480 0.0970 0.1020 3385686.80 3143172.40 3027650.80 3808150.40 2.0 104.0 -999.25 -999.25 -999.25 -999.25 -999.25 -999.25 -999.25
27.70 27.708450 37710.0 150.350 9.9440 0.0970 0.1010 3385577.60 3143060.80 3027545.60 3808264.80 2.0 104.0 -999.25 -999.25 -999.25 -999.25 -999.25 -999.25 -999.25
27.69 27.700210 37542.0 150.40 9.940 0.0970 0.10 3385468.40 3142949.20 3027440.40 3808379.20 2.0 104.0 -999.25 -999.25 -999.25 -999.25 -999.25 -999.25 -999.25
27.68 27.691960 37566.50 150.450 9.9440 0.0970 0.1010 3385359.20 3142837.60 3027335.20 3808493.60 2.0 104.0 -999.25 -999.25 -999.25 -999.25 -999.25 -999.25 -999.25
27.67 27.683710 37591.0 150.50 9.9480 0.0970 0.1020 3385250.0 3142726.0 3027230.0 3808608.0 2.0 104.0 -999.25 -999.25 -999.25 -999.25 -999.25 -999.25 -999.25
27.66 27.675080 37268.0 150.550 9.9520 0.0970 0.1020 3385233.20 3142717.20 3027226.40 3808610.0 2.0 104.0 -999.25 -999.25 -999.25 -999.25 -999.25 -999.25 -999.25
27.65 27.666440 36945.0 150.60 9.9560 0.0970 0.1020 3385216.40 3142708.40 3027222.80 3808612.0 2.0 104.0 -999.25 -999.25 -999.25 -999.25 -999.25 -999.25 -999.25
27.64 27.649940 37174.0 150.70 9.960 0.0970 0.1020 3385199.60 3142699.60 3027219.20 3808614.0 2.0 104.0 -999.25 -999.25 -999.25 -999.25 -999.25 -999.25 -999.25
27.63 27.64170 37391.0 150.750 9.9640 0.0970 0.1020 3385182.80 3142690.80 3027215.60 3808616.0 2.0 104.0 -999.25 -999.25 -999.25 -999.25 -999.25 -999.25 -999.25
27.62 27.633450 37608.0 150.80 9.9680 0.0970 0.1020 3385166.0 3142682.0 3027212.0 3808618.0 2.0 104.0 -999.25 -999.25 -999.25 -999.25 -999.25 -999.25 -999.25
27.61 27.62520 37620.50 150.850 9.9720 0.0970 0.1020 3385280.80 3142795.60 3027317.20 3808500.0 2.0 104.0 -999.25 -999.25 -999.25 -999.25 -999.25 -999.25 -999.25
27.60 27.616960 37633.0 150.90 9.9760 0.0970 0.1020 3385395.60 3142909.20 3027422.40 3808382.0 2.0 104.0 -999.25 -999.25 -999.25 -999.25 -999.25 -999.25 -999.25
27.59 27.599680 37677.0 151.0 9.980 0.0970 0.1020 3385510.40 3143022.80 3027527.60 3808264.0 2.0 104.0 -999.25 -999.25 -999.25 -999.25 -999.25 -999.25 -999.25
27.58 27.591430 37537.50 151.050 9.9760 0.0970 0.1020 3385625.20 3143136.40 3027632.80 3808146.0 2.0 104.0 -999.25 -999.25 -999.25 -999.25 -999.25 -999.25 -999.25
27.57 27.583180 37398.0 151.10 9.9720 0.0970 0.1020 3385740.0 3143250.0 3027738.0 3808028.0 2.0 104.0 -999.25 -999.25 -999.25 -999.25 -999.25 -999.25 -999.25
27.56 27.566690 37563.0 151.20 9.9680 0.0970 0.1020 3385749.60 3143252.80 3027736.40 3808022.0 2.0 104.0 -999.25 -999.25 -999.25 -999.25 -999.25 -999.25 -999.25
27.55 27.558440 37737.50 151.250 9.9640 0.0970 0.1020 3385759.20 3143255.60 3027734.80 3808016.0 2.0 104.0 -999.25 -999.25 -999.25 -999.25 -999.25 -999.25 -999.25
27.54 27.55020 37912.0 151.30 9.960 0.0970 0.1020 3385768.80 3143258.40 3027733.20 3808010.0 2.0 104.0 -999.25 -999.25 -999.25 -999.25 -999.25 -999.25 -999.25
27.53 27.541950 37796.0 151.350 9.9560 0.0970 0.1020 3385778.40 3143261.20 3027731.60 3808004.0 2.0 104.0 -999.25 -999.25 -999.25 -999.25 -999.25 -999.25 -999.25
27.52 27.53370 37680.0 151.40 9.9520 0.0970 0.1020 3385788.0 3143264.0 3027730.0 3807998.0 2.0 104.0 -999.25 -999.25 -999.25 -999.25 -999.25 -999.25 -999.25
27.51 27.525460 37617.0 151.450 9.9480 0.0970 0.1020 3385781.60 3143265.60 3027738.80 3808004.0 2.0 104.0 -999.25 -999.25 -999.25 -999.25 -999.25 -999.25 -999.25
