~VERSION INFORMATION SECTION
VERS. 2.0 : CWLS LAS-VERSION 2.0
WRAP. NO : One line per depth step
~WELL INFORMATION SECTION
# MNEM.UNIT VALUE/NAME DESCRIPTION
#-------- -------------- ---------------------
STRT.Metres 14 : Start
STOP.Metres 0.32 : Stop
STEP.Metres -0.01 : Step
NULL.  -999.25 :NULL VALUE
DATE. 2025-54-11 : DATE
~CURVE INFORMATION SECTION
DEPTH.Metres : 0 Depth
Depth. : 1 Depth
Incline.Deg : 2 Incline
Azimuth.Deg : 3 Azimuth
GR.CPS : 4 GR
~PARAMETER INFORMATION SECTION
~OTHER
#-------------------------------------------------
#Produced By: GeoVista Logger - Version 7.1.107.0
Natural Gamma Sonde - 6447
Verticality Sonde - 6292
#-------------------------------------------------
~ASCII LOG DATA
# ...
12.02 12.043340 5.1250 92.4750 105.952380
12.01 12.03070 5.11250 91.68750 104.76190
12.00 12.018060 5.10 90.90 103.571430
11.99 12.009930 5.11250 90.750 102.380950
11.98 12.001810 5.1250 90.60 101.190480
11.97 11.993680 5.13750 90.450 100.0
11.96 11.981040 5.150 90.30 111.428570
11.95 11.96840 5.16250 90.150 122.857140
11.94 11.959970 5.1750 90.0 134.285710
11.93 11.951540 5.18750 89.850 145.714290
11.92 11.943120 5.20 89.70 157.142860
11.91 11.930470 5.20 90.385710 168.571430
11.90 11.917830 5.20 91.071430 180.0
11.89 11.909410 5.20 91.757140 168.863640
11.88 11.900980 5.20 92.442860 157.727270
11.87 11.892550 5.20 93.128570 146.590910
11.86 11.879910 5.20 93.814290 135.454550
11.85 11.867270 5.20 94.50 124.318180
11.84 11.858840 5.18750 94.61250 113.181820
11.83 11.850410 5.1750 94.7250 102.045450
11.82 11.841990 5.16250 94.83750 90.909090
11.81 11.829350 5.150 94.950 104.350650
11.80 11.81670 5.13750 95.06250 117.792210
11.79 11.808280 5.1250 95.1750 131.233770
11.78 11.799850 5.11250 95.28750 144.675320
11.77 11.791420 5.10 95.40 158.116880
11.76 11.778780 5.028570 94.614290 171.558440
11.75 11.766140 4.957140 93.828570 185.0
11.74 11.757710 4.885710 93.042860 178.541670
11.73 11.749290 4.814290 92.257140 172.083330
11.72 11.740860 4.742860 91.471430 165.6250
11.71 11.732130 4.671430 90.685710 159.166670
11.70 11.72340 4.60 89.90 152.708330
11.69 11.714670 4.6250 89.9750 146.250
11.68 11.702030 4.650 90.050 139.791670
11.67 11.689390 4.6750 90.1250 133.333330
11.66 11.680960 4.70 90.20 135.714290
11.65 11.672540 4.7250 90.2750 138.095240
11.64 11.664110 4.750 90.350 140.476190
11.63 11.651470 4.7750 90.4250 142.857140
11.62 11.638830 4.80 90.50 145.23810
11.61 11.63010 4.785710 90.628570 147.619050
11.60 11.621370 4.771430 90.757140 150.0
11.59 11.612640 4.757140 90.885710 142.083330
11.58 11.60 4.742860 91.014290 134.166670
11.57 11.587360 4.728570 91.142860 126.250
11.56 11.578930 4.714290 91.271430 118.333330
11.55 11.57050 4.70 91.40 110.416670
11.54 11.562080 4.73750 91.98750 102.50
11.53 11.549440 4.7750 92.5750 94.583330
11.52 11.536790 4.81250 93.16250 86.666670
11.51 11.528370 4.850 93.750 94.285710
11.50 11.519940 4.88750 94.33750 101.904760
11.49 11.511510 4.9250 94.9250 109.523810
11.48 11.498870 4.96250 95.51250 117.142860
11.47 11.486230 5.0 96.10 124.76190
11.46 11.47780 4.9750 95.61250 132.380950
11.45 11.469380 4.950 95.1250 140.0
11.44 11.460950 4.9250 94.63750 138.333330
11.43 11.448310 4.90 94.150 136.666670
11.42 11.435670 4.8750 93.66250 135.0
11.41 11.427240 4.850 93.1750 133.333330
11.40 11.418810 4.8250 92.68750 131.666670
11.39 11.410380 4.80 92.20 130.0
11.38 11.398190 4.785710 92.30 128.333330
11.37 11.3860 4.771430 92.40 126.666670
11.36 11.377580 4.757140 92.50 125.833330
11.35 11.369150 4.742860 92.60 125.0
11.34 11.360720 4.728570 92.70 124.166670
11.33 11.348080 4.714290 92.80 123.333330
11.32 11.335440 4.70 92.90 122.50
11.31 11.327010 4.66250 92.58750 121.666670
11.30 11.318590 4.6250 92.2750 120.833330
11.29 11.310160 4.58750 91.96250 120.0
11.28 11.297520 4.550 91.650 125.23810
11.27 11.284880 4.51250 91.33750 130.476190
11.26 11.276750 4.4750 91.0250 135.714290
11.25 11.268620 4.43750 90.71250 140.952380
11.24 11.26050 4.40 90.40 146.190480
11.23 11.247860 4.414290 90.80 151.428570
11.22 11.235210 4.428570 91.20 156.666670
11.21 11.227090 4.442860 91.60 159.583330
11.20 11.218960 4.457140 92.0 162.50
11.19 11.210840 4.471430 92.40 165.416670
11.18 11.198190 4.485710 92.80 168.333330
11.17 11.185550 4.50 93.20 171.250
11.16 11.177130 4.50 93.11250 174.166670
11.15 11.16870 4.50 93.0250 177.083330
11.14 11.160270 4.50 92.93750 180.0
11.13 11.147630 4.50 92.850 171.904760
11.12 11.134990 4.50 92.76250 163.809520
11.11 11.126860 4.50 92.6750 155.714290
11.10 11.118740 4.50 92.58750 147.619050
11.09 11.110610 4.50 92.50 139.523810
11.08 11.097970 4.528570 93.157140 131.428570
11.07 11.085330 4.557140 93.814290 123.333330
11.06 11.07690 4.585710 94.471430 123.777780
11.05 11.068470 4.614290 95.128570 124.222220
11.04 11.060050 4.642860 95.785710 124.666670
11.03 11.051620 4.671430 96.442860 125.111110
11.02 11.043190 4.70 97.10 125.555560
11.01 11.034760 4.680 96.733330 126.0
11.00 11.022120 4.660 96.366670 126.444440
10.99 11.009480 4.640 96.0 126.888890
10.98 11.001350 4.620 95.633330 127.333330
10.97 10.993230 4.60 95.266670 127.777780
10.96 10.98510 4.580 94.90 128.222220
10.95 10.972010 4.560 94.533330 128.666670
10.94 10.958920 4.540 94.166670 129.111110
10.93 10.950490 4.520 93.80 129.555560
10.92 10.942060 4.50 93.433330 130.0
10.91 10.933630 4.480 93.066670 133.333330
10.90 10.920990 4.460 92.70 136.666670
10.89 10.908350 4.440 92.333330 140.0
10.88 10.899920 4.420 91.966670 143.333330
10.87 10.89150 4.40 91.60 146.666670
10.86 10.883070 4.41250 92.61250 150.0
10.85 10.870430 4.4250 93.6250 153.333330
10.84 10.857790 4.43750 94.63750 156.666670
10.83 10.849060 4.450 95.650 155.0
10.82 10.840330 4.46250 96.66250 153.333330
10.81 10.83160 4.4750 97.6750 151.666670
10.80 10.818960 4.48750 98.68750 150.0
10.79 10.806320 4.50 99.70 148.333330
10.78 10.797890 4.50 99.31250 146.666670
10.77 10.789470 4.50 98.9250 145.0
10.76 10.781040 4.50 98.53750 143.333330
10.75 10.772310 4.50 98.150 138.095240
10.74 10.763580 4.50 97.76250 132.857140
10.73 10.754850 4.50 97.3750 127.619050
10.72 10.742210 4.50 96.98750 122.380950
10.71 10.729570 4.50 96.60 117.142860
10.70 10.720840 4.485710 96.285710 111.904760
10.69 10.712110 4.471430 95.971430 106.666670
10.68 10.703390 4.457140 95.657140 108.333330
10.67 10.690740 4.442860 95.342860 110.0
10.66 10.67810 4.428570 95.028570 111.666670
10.65 10.669680 4.414290 94.714290 113.333330
10.64 10.661250 4.40 94.40 115.0
10.63 10.652820 4.41250 95.0 116.666670
10.62 10.639730 4.4250 95.60 118.333330
10.61 10.626640 4.43750 96.20 120.0
10.60 10.618210 4.450 96.80 122.857140
10.59 10.609780 4.46250 97.40 125.714290
10.58 10.601350 4.4750 98.0 128.571430
10.57 10.588710 4.48750 98.60 131.428570
10.56 10.576070 4.50 99.20 134.285710
10.55 10.567640 4.50 98.660 137.142860
10.54 10.559220 4.50 98.120 140.0
10.53 10.550790 4.50 97.580 144.166670
10.52 10.538150 4.50 97.040 148.333330
10.51 10.525510 4.50 96.50 152.50
10.50 10.517080 4.50 95.960 156.666670
10.49 10.508650 4.50 95.420 160.833330
10.48 10.500230 4.50 94.880 165.0
10.47 10.49180 4.50 94.340 169.166670
10.46 10.483370 4.50 93.80 173.333330
10.45 10.474940 4.50 93.260 166.666670
10.44 10.46230 4.50 92.720 160.0
10.43 10.449660 4.50 92.180 153.333330
10.42 10.440930 4.50 91.640 146.666670
10.41 10.43220 4.50 91.10 140.0
10.40 10.423480 4.50 91.6750 133.333330
10.39 10.410840 4.50 92.250 126.666670
10.38 10.398190 4.50 92.8250 126.559140
10.37 10.389770 4.50 93.40 126.451610
10.36 10.381340 4.50 93.9750 126.344090
10.35 10.372910 4.50 94.550 126.236560
10.34 10.360270 4.50 95.1250 126.129030
10.33 10.347630 4.50 95.70 126.021510
10.32 10.33920 4.50 95.614290 125.913980
10.31 10.330780 4.50 95.528570 125.806450
10.30 10.322350 4.50 95.442860 129.262670
10.29 10.309710 4.50 95.357140 132.718890
10.28 10.297070 4.50 95.271430 136.175120
10.27 10.288640 4.50 95.185710 139.631340
10.26 10.280210 4.50 95.10 143.087560
10.25 10.271780 4.50 95.0250 146.543780
10.24 10.259140 4.50 94.950 150.0
10.23 10.24650 4.50 94.8750 145.0
10.22 10.237770 4.50 94.80 140.0
10.21 10.229040 4.50 94.7250 135.0
10.20 10.220320 4.50 94.650 130.0
10.19 10.211890 4.50 94.5750 125.0
10.18 10.203460 4.50 94.50 120.0
10.17 10.195030 4.48750 94.78750 115.0
10.16 10.182390 4.4750 95.0750 110.0
10.15 10.169750 4.46250 95.36250 111.666670
10.14 10.161320 4.450 95.650 113.333330
10.13 10.15290 4.43750 95.93750 115.0
10.12 10.144470 4.4250 96.2250 116.666670
10.11 10.131830 4.41250 96.51250 118.333330
10.10 10.119190 4.40 96.80 120.0
10.09 10.110760 4.414290 95.785710 121.666670
10.08 10.102330 4.428570 94.771430 123.333330
10.07 10.093910 4.442860 93.757140 130.952380
10.06 10.081260 4.457140 92.742860 138.571430
10.05 10.068620 4.471430 91.728570 146.190480
10.04 10.059890 4.485710 90.714290 153.809520
