~VERSION INFORMATION SECTION
VERS. 2.0 : CWLS LAS-VERSION 2.0
WRAP. NO : One line per depth step
~WELL INFORMATION SECTION
# MNEM.UNIT VALUE/NAME DESCRIPTION
#-------- -------------- ---------------------
STRT.Metres 14 : Start
STOP.Metres 0.43 : Stop
STEP.Metres -0.01 : Step
NULL.  -999.25 :NULL VALUE
DATE. 2025-57-11 : DATE
~CURVE INFORMATION SECTION
DEPTH.Metres : 0 Depth
Depth. : 1 Depth
Incline.Deg : 2 Incline
Azimuth.Deg : 3 Azimuth
GR.CPS : 4 GR
~PARAMETER INFORMATION SECTION
~OTHER
#-------------------------------------------------
#Produced By: GeoVista Logger - Version 7.1.107.0
Natural Gamma Sonde - 6447
Verticality Sonde - 6292
#-------------------------------------------------
~ASCII LOG DATA
# ...
12.05 12.086910 5.130770 94.815380 151.794870
12.04 12.07630 5.123080 94.861540 152.051280
12.03 12.065690 5.115380 94.907690 152.307690
12.02 12.055080 5.107690 94.953850 152.56410
12.01 12.044470 5.10 95.0 152.820510
12.00 12.033860 5.10 94.950 153.076920
11.99 12.023250 5.10 94.90 153.333330
11.98 12.012640 5.10 94.850 150.471460
11.97 12.004150 5.10 94.80 147.609590
11.96 11.995670 5.10 94.750 144.747730
11.95 11.987180 5.10 94.70 141.885860
11.94 11.978690 5.10 94.650 139.023990
11.93 11.97020 5.10 94.60 136.162120
11.92 11.959590 5.10 94.550 133.300250
11.91 11.948980 5.10 94.50 130.438380
11.90 11.938370 5.10 94.450 127.576510
11.89 11.927770 5.10 94.40 124.714640
11.88 11.917160 5.092310 94.076920 121.852770
11.87 11.906550 5.084620 93.753850 118.99090
11.86 11.895940 5.076920 93.430770 116.129030
11.85 11.885330 5.069230 93.107690 120.529360
11.84 11.874720 5.061540 92.784620 124.929690
11.83 11.864110 5.053850 92.461540 129.330020
11.82 11.85350 5.046150 92.138460 133.730360
11.81 11.842890 5.038460 91.815380 138.130690
11.80 11.83440 5.030770 91.492310 142.531020
11.79 11.825910 5.023080 91.169230 146.931350
11.78 11.817430 5.015380 90.846150 151.331680
11.77 11.808940 5.007690 90.523080 155.732010
11.76 11.800450 5.0 90.20 160.132340
11.75 11.789620 4.953850 90.384620 164.532670
11.74 11.778780 4.907690 90.569230 168.9330
11.73 11.767950 4.861540 90.753850 173.333330
11.72 11.757110 4.815380 90.938460 170.769230
11.71 11.74650 4.769230 91.123080 168.205130
11.70 11.735890 4.723080 91.307690 165.641030
11.69 11.725280 4.676920 91.492310 163.076920
11.68 11.714670 4.630770 91.676920 160.512820
11.67 11.7060 4.584620 91.861540 157.948720
11.66 11.697340 4.538460 92.046150 155.384620
11.65 11.688670 4.492310 92.230770 152.820510
11.64 11.680 4.446150 92.415380 150.256410
11.63 11.671330 4.40 92.60 147.692310
11.62 11.660950 4.358330 92.3250 145.128210
11.61 11.650560 4.316670 92.050 142.56410
11.60 11.640180 4.2750 91.7750 140.0
11.59 11.62980 4.233330 91.50 138.333330
11.58 11.619190 4.191670 91.2250 136.666670
11.57 11.608580 4.150 90.950 135.0
11.56 11.597970 4.108330 90.6750 133.333330
11.55 11.587360 4.066670 90.40 131.666670
11.54 11.576750 4.0250 90.1250 130.0
11.53 11.566140 3.983330 89.850 128.333330
11.52 11.555530 3.941670 89.5750 126.666670
11.51 11.544920 3.90 89.30 125.0
11.50 11.534310 3.938460 89.261540 123.333330
11.49 11.52370 3.976920 89.223080 121.666670
11.48 11.513090 4.015380 89.184620 120.0
11.47 11.502480 4.053850 89.146150 121.025640
11.46 11.494180 4.092310 89.107690 122.051280
11.45 11.485870 4.130770 89.069230 123.076920
11.44 11.477560 4.169230 89.030770 124.102560
11.43 11.469260 4.207690 88.992310 125.128210
11.42 11.460950 4.246150 88.953850 126.153850
11.41 11.450340 4.284620 88.915380 127.179490
11.40 11.439730 4.323080 88.876920 128.205130
11.39 11.429120 4.361540 88.838460 129.230770
11.38 11.418510 4.40 88.80 130.256410
11.37 11.40790 4.40 88.992310 131.282050
11.36 11.397290 4.40 89.184620 132.307690
11.35 11.386680 4.40 89.376920 133.333330
11.34 11.376070 4.40 89.569230 133.589740
11.33 11.365690 4.40 89.761540 133.846150
11.32 11.35530 4.40 89.953850 134.102560
11.31 11.344920 4.40 90.146150 134.358970
11.30 11.334540 4.40 90.338460 134.615380
11.29 11.326050 4.40 90.530770 134.871790
11.28 11.317560 4.40 90.723080 135.128210
11.27 11.309070 4.40 90.915380 135.384620
11.26 11.300590 4.40 91.107690 135.641030
11.25 11.29210 4.40 91.30 135.897440
11.24 11.281490 4.40 91.20 136.153850
11.23 11.270880 4.40 91.10 136.410260
11.22 11.260270 4.40 91.0 136.666670
11.21 11.249660 4.40 90.90 137.222220
11.20 11.239050 4.40 90.80 137.777780
11.19 11.228440 4.40 90.70 138.333330
11.18 11.217830 4.40 90.60 138.888890
11.17 11.207220 4.40 90.50 139.444440
11.16 11.196610 4.40 90.40 140.0
11.15 11.1860 4.40 90.30 140.555560
11.14 11.17540 4.40 90.20 141.111110
11.13 11.164790 4.40 90.10 141.666670
11.12 11.15630 4.40 90.0 142.222220
11.11 11.147810 4.408330 90.308330 142.777780
11.10 11.139320 4.416670 90.616670 143.333330
11.09 11.130840 4.4250 90.9250 143.076920
11.08 11.122350 4.433330 91.233330 142.820510
11.07 11.111510 4.441670 91.541670 142.56410
11.06 11.100680 4.450 91.850 142.307690
11.05 11.089840 4.458330 92.158330 142.051280
11.04 11.079010 4.466670 92.466670 141.794870
11.03 11.06840 4.4750 92.7750 141.538460
11.02 11.057790 4.483330 93.083330 141.282050
11.01 11.047180 4.491670 93.391670 141.025640
11.00 11.036570 4.50 93.70 140.769230
10.99 11.025960 4.453850 93.207690 140.512820
10.98 11.015350 4.407690 92.715380 140.256410
10.97 11.004740 4.361540 92.223080 140.0
10.96 10.994130 4.315380 91.730770 137.948720
10.95 10.985640 4.269230 91.238460 135.897440
10.94 10.977160 4.223080 90.746150 133.846150
10.93 10.968670 4.176920 90.253850 131.794870
10.92 10.960180 4.130770 89.761540 129.743590
10.91 10.951690 4.084620 89.269230 127.692310
10.90 10.941080 4.038460 88.776920 125.641030
10.89 10.930470 3.992310 88.284620 123.589740
10.88 10.919860 3.946150 87.792310 121.538460
10.87 10.909260 3.90 87.30 119.487180
10.86 10.898420 3.930770 87.676920 117.43590
10.85 10.887580 3.961540 88.053850 115.384620
10.84 10.876750 3.992310 88.430770 113.333330
10.83 10.865910 4.023080 88.807690 115.641030
10.82 10.85530 4.053850 89.184620 117.948720
10.81 10.84470 4.084620 89.561540 120.256410
10.80 10.834090 4.115380 89.938460 122.56410
10.79 10.823480 4.146150 90.315380 124.871790
10.78 10.814990 4.176920 90.692310 127.179490
10.77 10.80650 4.207690 91.069230 129.487180
10.76 10.798010 4.238460 91.446150 131.794870
10.75 10.789530 4.269230 91.823080 134.102560
10.74 10.781040 4.30 92.20 136.410260
10.73 10.770430 4.292310 92.776920 138.717950
10.72 10.759820 4.284620 93.353850 141.025640
10.71 10.749210 4.276920 93.930770 143.333330
10.70 10.73860 4.269230 94.507690 141.237370
10.69 10.728220 4.261540 95.084620 139.141410
10.68 10.717830 4.253850 95.661540 137.045450
10.67 10.707450 4.246150 96.238460 134.949490
10.66 10.697070 4.238460 96.815380 132.853540
10.65 10.686460 4.230770 97.392310 130.757580
10.64 10.675850 4.223080 97.969230 128.661620
10.63 10.665240 4.215380 98.546150 126.565660
10.62 10.654630 4.207690 99.123080 124.46970
10.61 10.646140 4.20 99.70 122.373740
10.60 10.637650 4.216670 99.0750 120.277780
10.59 10.629160 4.233330 98.450 118.181820
10.58 10.620680 4.250 97.8250 124.070670
10.57 10.612190 4.266670 97.20 129.959510
10.56 10.601580 4.283330 96.5750 135.848360
10.55 10.590970 4.30 95.950 141.737210
10.54 10.580360 4.316670 95.3250 147.626060
10.53 10.569750 4.333330 94.70 153.514910
10.52 10.559140 4.350 94.0750 159.403750
10.51 10.548530 4.366670 93.450 165.29260
10.50 10.537920 4.383330 92.8250 171.181450
10.49 10.527310 4.40 92.20 177.07030
10.48 10.516930 4.353850 92.123080 182.959150
10.47 10.506550 4.307690 92.046150 188.847990
10.46 10.496160 4.261540 91.969230 194.736840
10.45 10.485780 4.215380 91.892310 192.321190
10.44 10.475170 4.169230 91.815380 189.905530
10.43 10.464560 4.123080 91.738460 187.489880
10.42 10.453950 4.076920 91.661540 185.074220
10.41 10.443340 4.030770 91.584620 182.658570
10.40 10.434850 3.984620 91.507690 180.242910
10.39 10.426370 3.938460 91.430770 177.827260
10.38 10.417880 3.892310 91.353850 175.411610
10.37 10.409390 3.846150 91.276920 172.995950
10.36 10.40090 3.80 91.20 170.58030
10.35 10.390290 3.80 91.815380 168.164640
10.34 10.379680 3.80 92.430770 165.748990
10.33 10.369070 3.80 93.046150 163.333330
10.32 10.358470 3.80 93.661540 163.333330
10.31 10.347860 3.80 94.276920 163.333330
10.30 10.337250 3.80 94.892310 163.333330
10.29 10.326640 3.80 95.507690 163.333330
10.28 10.316030 3.80 96.123080 163.333330
10.27 10.305420 3.80 96.738460 163.333330
10.26 10.294810 3.80 97.353850 163.333330
10.25 10.28420 3.80 97.969230 163.333330
10.24 10.273590 3.80 98.584620 163.333330
10.23 10.26510 3.80 99.20 163.333330
10.22 10.256610 3.866670 98.608330 163.333330
10.21 10.248130 3.933330 98.016670 163.333330
10.20 10.239640 4.0 97.4250 163.333330
10.19 10.231150 4.066670 96.833330 161.944440
