~VERSION INFORMATION SECTION
VERS. 2.0 : CWLS LAS-VERSION 2.0
WRAP. NO : One line per depth step
~WELL INFORMATION SECTION
# MNEM.UNIT VALUE/NAME DESCRIPTION
#-------- -------------- ---------------------
STRT.Metres 14 : Start
STOP.Metres 0.32 : Stop
STEP.Metres -0.01 : Step
NULL.  -999.25 :NULL VALUE
DATE. 2025-54-11 : DATE
~CURVE INFORMATION SECTION
DEPTH.Metres : 0 Depth
Depth. : 1 Depth
Incline.Deg : 2 Incline
Azimuth.Deg : 3 Azimuth
GR.CPS : 4 GR
~PARAMETER INFORMATION SECTION
~OTHER
#-------------------------------------------------
#Produced By: GeoVista Logger - Version 7.1.107.0
Natural Gamma Sonde - 6447
Verticality Sonde - 6292
#-------------------------------------------------
~ASCII LOG DATA
# ...
3.75 3.775170 3.70 85.128570 177.142860
3.74 3.762080 3.70 85.671430 170.952380
3.73 3.748980 3.70 86.214290 164.76190
3.72 3.740560 3.70 86.757140 158.571430
3.71 3.732130 3.70 87.30 152.380950
3.70 3.72370 3.650 87.76250 146.190480
3.69 3.710610 3.60 88.2250 140.0
3.68 3.697520 3.550 88.68750 151.666670
3.67 3.689090 3.50 89.150 163.333330
3.66 3.680660 3.450 89.61250 175.0
3.65 3.672230 3.40 90.0750 186.666670
3.64 3.659140 3.350 90.53750 198.333330
3.63 3.646050 3.30 91.0 210.0
3.62 3.637620 3.228570 90.785710 221.666670
3.61 3.629190 3.157140 90.571430 233.333330
3.60 3.620770 3.085710 90.357140 226.666670
3.59 3.612040 3.014290 90.142860 220.0
3.58 3.603310 2.942860 89.928570 213.333330
3.57 3.594580 2.871430 89.714290 206.666670
3.56 3.581940 2.80 89.50 200.0
3.55 3.56930 2.850 89.43750 193.333330
3.54 3.560570 2.90 89.3750 186.666670
3.53 3.551840 2.950 89.31250 180.833330
3.52 3.543120 3.0 89.250 175.0
3.51 3.530020 3.050 89.18750 169.166670
3.50 3.516930 3.10 89.1250 163.333330
3.49 3.50850 3.150 89.06250 157.50
3.48 3.500080 3.20 89.0 151.666670
3.47 3.491650 3.2250 89.06250 145.833330
3.46 3.478560 3.250 89.1250 140.0
3.45 3.465460 3.2750 89.18750 142.916670
3.44 3.457040 3.30 89.250 145.833330
3.43 3.448610 3.3250 89.31250 148.750
3.42 3.440180 3.350 89.3750 151.666670
3.41 3.431450 3.3750 89.43750 154.583330
3.40 3.422720 3.40 89.50 157.50
3.39 3.4140 3.385710 89.414290 160.416670
3.38 3.401350 3.371430 89.328570 163.333330
3.37 3.388710 3.357140 89.242860 164.285710
3.36 3.380590 3.342860 89.157140 165.23810
3.35 3.372460 3.328570 89.071430 166.190480
3.34 3.364330 3.314290 88.985710 167.142860
3.33 3.352140 3.30 88.90 168.095240
3.32 3.339950 3.2750 89.40 169.047620
3.31 3.327310 3.250 89.90 170.0
3.30 3.314670 3.2250 90.40 172.083330
3.29 3.306550 3.20 90.90 174.166670
3.28 3.298420 3.1750 91.40 176.250
3.27 3.290290 3.150 91.90 178.333330
3.26 3.281870 3.1250 92.40 180.416670
3.25 3.273440 3.10 92.90 182.50
3.24 3.265010 3.11250 92.250 184.583330
3.23 3.252370 3.1250 91.60 186.666670
3.22 3.239730 3.13750 90.950 184.301080
3.21 3.23130 3.150 90.30 181.935480
3.20 3.222870 3.16250 89.650 179.569890
3.19 3.214450 3.1750 89.0 177.20430
3.18 3.201810 3.18750 88.350 174.838710
3.17 3.189160 3.20 87.70 172.473120
3.16 3.180740 3.18750 88.48750 170.107530
3.15 3.172310 3.1750 89.2750 167.741940
3.14 3.163880 3.16250 90.06250 164.731180
3.13 3.151240 3.150 90.850 161.720430
3.12 3.13860 3.13750 91.63750 158.709680
3.11 3.129870 3.1250 92.4250 155.698920
3.10 3.121140 3.11250 93.21250 152.688170
3.09 3.112420 3.10 94.0 149.677420
3.08 3.099320 3.128570 92.471430 146.666670
3.07 3.086230 3.157140 90.942860 144.166670
3.06 3.07780 3.185710 89.414290 141.666670
3.05 3.069380 3.214290 87.885710 139.166670
3.04 3.060950 3.242860 86.357140 136.666670
3.03 3.052220 3.271430 84.828570 134.166670
3.02 3.043490 3.30 83.30 131.666670
3.01 3.034760 3.2750 84.0250 129.166670
3.00 3.021670 3.250 84.750 126.666670
2.99 3.008580 3.2250 85.4750 130.476190
2.98 3.000150 3.20 86.20 134.285710
2.97 2.991720 3.1750 86.9250 138.095240
2.96 2.98330 3.150 87.650 141.904760
2.95 2.97020 3.1250 88.3750 145.714290
2.94 2.957110 3.10 89.10 149.523810
2.93 2.948380 3.10 88.485710 153.333330
2.92 2.939650 3.10 87.871430 156.041670
2.91 2.930930 3.10 87.257140 158.750
2.90 2.92250 3.10 86.642860 161.458330
2.89 2.914070 3.10 86.028570 164.166670
2.88 2.905640 3.10 85.414290 166.8750
2.87 2.892550 3.10 84.80 169.583330
2.86 2.879460 3.08750 85.3250 172.291670
2.85 2.870730 3.0750 85.850 175.0
2.84 2.8620 3.06250 86.3750 169.3750
2.83 2.853270 3.050 86.90 163.750
2.82 2.840180 3.03750 87.4250 158.1250
2.81 2.827090 3.0250 87.950 152.50
2.80 2.818360 3.01250 88.4750 146.8750
2.79 2.809630 3.0 89.0 141.250
2.78 2.80090 3.0250 87.83750 135.6250
2.77 2.792170 3.050 86.6750 130.0
2.76 2.783450 3.0750 85.51250 127.50
2.75 2.774720 3.10 84.350 125.0
2.74 2.761630 3.1250 83.18750 122.50
2.73 2.748530 3.150 82.0250 120.0
2.72 2.73980 3.1750 80.86250 117.50
2.71 2.731080 3.20 79.70 115.0
2.70 2.722350 3.157140 81.128570 112.50
2.69 2.713620 3.114290 82.557140 110.0
2.68 2.704890 3.071430 83.985710 117.619050
2.67 2.696160 3.028570 85.414290 125.23810
2.66 2.683070 2.985710 86.842860 132.857140
2.65 2.669980 2.942860 88.271430 140.476190
2.64 2.661250 2.90 89.70 148.095240
2.63 2.652520 2.8750 89.16250 155.714290
2.62 2.643790 2.850 88.6250 163.333330
2.61 2.63070 2.8250 88.08750 162.916670
2.60 2.617610 2.80 87.550 162.50
2.59 2.608880 2.7750 87.01250 162.083330
2.58 2.600150 2.750 86.4750 161.666670
2.57 2.591420 2.7250 85.93750 161.250
2.56 2.582690 2.70 85.40 160.833330
2.55 2.573970 2.68750 85.20 160.416670
2.54 2.565240 2.6750 85.0 160.0
2.53 2.552140 2.66250 84.80 157.619050
2.52 2.539050 2.650 84.60 155.23810
2.51 2.530320 2.63750 84.40 152.857140
2.50 2.52160 2.6250 84.20 150.476190
2.49 2.512870 2.61250 84.0 148.095240
2.48 2.499770 2.60 83.80 145.714290
2.47 2.486680 2.61250 84.46250 143.333330
2.46 2.477950 2.6250 85.1250 144.166670
2.45 2.469220 2.63750 85.78750 145.0
2.44 2.46050 2.650 86.450 145.833330
2.43 2.451770 2.66250 87.11250 146.666670
2.42 2.443040 2.6750 87.7750 147.50
2.41 2.434310 2.68750 88.43750 148.333330
2.40 2.421670 2.70 89.10 149.166670
2.39 2.409030 2.71250 88.31250 150.0
2.38 2.40030 2.7250 87.5250 150.833330
2.37 2.391570 2.73750 86.73750 151.666670
2.36 2.382840 2.750 85.950 152.50
2.35 2.369750 2.76250 85.16250 153.333330
2.34 2.356660 2.7750 84.3750 154.166670
2.33 2.347930 2.78750 83.58750 155.0
2.32 2.33920 2.80 82.80 155.833330
2.31 2.330470 2.81250 83.93750 156.666670
2.30 2.322050 2.8250 85.0750 157.142860
2.29 2.313620 2.83750 86.21250 157.619050
2.28 2.305190 2.850 87.350 158.095240
2.27 2.29210 2.86250 88.48750 158.571430
2.26 2.279010 2.8750 89.6250 159.047620
2.25 2.270580 2.88750 90.76250 159.523810
2.24 2.262150 2.90 91.90 160.0
2.23 2.253720 2.885710 91.842860 161.666670
2.22 2.241080 2.871430 91.785710 163.333330
2.21 2.228440 2.857140 91.728570 165.0
2.20 2.220020 2.842860 91.671430 166.666670
2.19 2.211590 2.828570 91.614290 168.333330
2.18 2.203160 2.814290 91.557140 170.0
2.17 2.190520 2.80 91.50 171.666670
2.16 2.177880 2.76250 91.88750 173.333330
2.15 2.169450 2.7250 92.2750 174.166670
2.14 2.161020 2.68750 92.66250 175.0
2.13 2.15260 2.650 93.050 175.833330
2.12 2.139950 2.61250 93.43750 176.666670
2.11 2.127310 2.5750 93.8250 177.50
2.10 2.118590 2.53750 94.21250 178.333330
2.09 2.109860 2.50 94.60 179.166670
2.08 2.101130 2.4750 94.78750 180.0
2.07 2.09270 2.450 94.9750 180.416670
2.06 2.084270 2.4250 95.16250 180.833330
2.05 2.075850 2.40 95.350 181.250
2.04 2.062750 2.3750 95.53750 181.666670
2.03 2.049660 2.350 95.7250 182.083330
2.02 2.040930 2.3250 95.91250 182.50
2.01 2.03220 2.30 96.10 182.916670
2.00 2.023480 2.33750 95.08750 183.333330
1.99 2.010380 2.3750 94.0750 184.285710
1.98 1.997290 2.41250 93.06250 185.23810
1.97 1.988560 2.450 92.050 186.190480
1.96 1.979830 2.48750 91.03750 187.142860
1.95 1.971110 2.5250 90.0250 188.095240
1.94 1.962080 2.56250 89.01250 189.047620
1.93 1.953050 2.60 88.0 190.0
1.92 1.944020 2.542860 88.442860 184.166670
1.91 1.930930 2.485710 88.885710 178.333330
1.90 1.917830 2.428570 89.328570 172.50
1.89 1.909410 2.371430 89.771430 166.666670
1.88 1.900980 2.314290 90.214290 160.833330
1.87 1.892550 2.257140 90.657140 155.0
1.86 1.879910 2.20 91.10 149.166670
1.85 1.867270 2.21250 90.80 143.333330
1.84 1.858540 2.2250 90.50 142.50
1.83 1.849810 2.23750 90.20 141.666670
1.82 1.841080 2.250 89.90 140.833330
1.81 1.832360 2.26250 89.60 140.0
1.80 1.823630 2.2750 89.30 139.166670
1.79 1.81490 2.28750 89.0 138.333330
1.78 1.801810 2.30 88.70 137.50
1.77 1.788710 2.26250 88.750 136.666670
1.76 1.779980 2.2250 88.80 135.309140
1.75 1.771260 2.18750 88.850 133.951610
1.74 1.762530 2.150 88.90 132.594090
1.73 1.749440 2.11250 88.950 131.236560
1.72 1.736340 2.0750 89.0 129.879030
1.71 1.727610 2.03750 89.050 128.521510
1.70 1.718890 2.0 89.10 127.163980
1.69 1.710160 1.93750 88.76250 125.806450
