~VERSION INFORMATION SECTION
VERS. 2.0 : CWLS LAS-VERSION 2.0
WRAP. NO : One line per depth step
~WELL INFORMATION SECTION
# MNEM.UNIT VALUE/NAME DESCRIPTION
#-------- -------------- ---------------------
STRT.Metres 14 : Start
STOP.Metres 0.43 : Stop
STEP.Metres -0.01 : Step
NULL.  -999.25 :NULL VALUE
DATE. 2025-57-11 : DATE
~CURVE INFORMATION SECTION
DEPTH.Metres : 0 Depth
Depth. : 1 Depth
Incline.Deg : 2 Incline
Azimuth.Deg : 3 Azimuth
GR.CPS : 4 GR
~PARAMETER INFORMATION SECTION
~OTHER
#-------------------------------------------------
#Produced By: GeoVista Logger - Version 7.1.107.0
Natural Gamma Sonde - 6447
Verticality Sonde - 6292
#-------------------------------------------------
~ASCII LOG DATA
# ...
10.18 10.220540 4.133330 96.241670 160.555560
10.17 10.209930 4.20 95.650 159.166670
10.16 10.199320 4.266670 95.058330 157.777780
10.15 10.188710 4.333330 94.466670 156.388890
10.14 10.17810 4.40 93.8750 155.0
10.13 10.167490 4.466670 93.283330 153.611110
10.12 10.156880 4.533330 92.691670 152.222220
10.11 10.146280 4.60 92.10 150.833330
10.10 10.135670 4.580770 92.115380 149.444440
10.09 10.125060 4.561540 92.130770 148.055560
10.08 10.114450 4.542310 92.146150 146.666670
10.07 10.103840 4.523080 92.161540 147.948720
10.06 10.095350 4.503850 92.176920 149.230770
10.05 10.086860 4.484620 92.192310 150.512820
10.04 10.078370 4.465380 92.207690 151.794870
10.03 10.069890 4.446150 92.223080 153.076920
10.02 10.06140 4.426920 92.238460 154.358970
10.01 10.050560 4.407690 92.253850 155.641030
10.00 10.039730 4.388460 92.269230 156.923080
9.99 10.028890 4.369230 92.284620 158.205130
9.98 10.018060 4.350 92.30 159.487180
9.97 10.007450 4.330770 92.315380 160.769230
9.96 9.996840 4.311540 92.330770 162.051280
9.95 9.986230 4.292310 92.346150 163.333330
9.94 9.975620 4.273080 92.361540 163.589740
9.93 9.965010 4.253850 92.376920 163.846150
9.92 9.95440 4.234620 92.392310 164.102560
9.91 9.943790 4.215380 92.407690 164.358970
9.90 9.933180 4.196150 92.423080 164.615380
9.89 9.92470 4.176920 92.438460 164.871790
9.88 9.916210 4.157690 92.453850 165.128210
9.87 9.907720 4.138460 92.469230 165.384620
9.86 9.899230 4.119230 92.484620 165.641030
9.85 9.890740 4.10 92.50 165.897440
9.84 9.880140 4.130770 92.523080 166.153850
9.83 9.869530 4.161540 92.546150 166.410260
9.82 9.858920 4.192310 92.569230 166.666670
9.81 9.848310 4.223080 92.592310 163.611110
9.80 9.837920 4.253850 92.615380 160.555560
9.79 9.827540 4.284620 92.638460 157.50
9.78 9.817160 4.315380 92.661540 154.444440
9.77 9.806770 4.346150 92.684620 151.388890
9.76 9.796390 4.376920 92.707690 148.333330
9.75 9.7860 4.407690 92.730770 145.277780
9.74 9.775620 4.438460 92.753850 142.222220
9.73 9.765240 4.469230 92.776920 139.166670
9.72 9.754630 4.50 92.80 136.111110
9.71 9.744020 4.4840 93.0160 133.055560
9.70 9.733410 4.4680 93.2320 130.0
9.69 9.72280 4.4520 93.4480 131.282050
9.68 9.714490 4.4360 93.6640 132.56410
9.67 9.706190 4.420 93.880 133.846150
9.66 9.697880 4.4040 94.0960 135.128210
9.65 9.689570 4.3880 94.3120 136.410260
9.64 9.681260 4.3720 94.5280 137.692310
9.63 9.670650 4.3560 94.7440 138.974360
9.62 9.660050 4.340 94.960 140.256410
9.61 9.649440 4.3240 95.1760 141.538460
9.60 9.638830 4.3080 95.3920 142.820510
9.59 9.628220 4.2920 95.6080 144.102560
9.58 9.617610 4.2760 95.8240 145.384620
9.57 9.6070 4.260 96.040 146.666670
9.56 9.596390 4.2440 96.2560 149.28040
9.55 9.5860 4.2280 96.4720 151.894130
9.54 9.575620 4.2120 96.6880 154.507860
9.53 9.565240 4.1960 96.9040 157.121590
9.52 9.554850 4.180 97.120 159.735320
9.51 9.544240 4.1640 97.3360 162.349050
9.50 9.533630 4.1480 97.5520 164.962780
9.49 9.523020 4.1320 97.7680 167.576510
9.48 9.512420 4.1160 97.9840 170.190240
9.47 9.504110 4.10 98.20 172.803970
9.46 9.49580 4.123080 97.823080 175.41770
9.45 9.487490 4.146150 97.446150 178.031430
9.44 9.479190 4.169230 97.069230 180.645160
9.43 9.470880 4.192310 96.692310 181.621170
9.42 9.460270 4.215380 96.315380 182.597190
9.41 9.449660 4.238460 95.938460 183.57320
9.40 9.439050 4.261540 95.561540 184.549210
9.39 9.428440 4.284620 95.184620 185.525230
9.38 9.417830 4.307690 94.807690 186.501240
9.37 9.407220 4.330770 94.430770 187.477250
9.36 9.396610 4.353850 94.053850 188.453270
9.35 9.3860 4.376920 93.676920 189.429280
9.34 9.375170 4.40 93.30 190.405290
9.33 9.364330 4.341670 93.450 191.381310
9.32 9.35350 4.283330 93.60 192.357320
9.31 9.342660 4.2250 93.750 193.333330
9.30 9.334180 4.166670 93.90 189.722220
9.29 9.325690 4.108330 94.050 186.111110
9.28 9.31720 4.050 94.20 182.50
9.27 9.308710 3.991670 94.350 178.888890
9.26 9.300230 3.933330 94.50 175.277780
9.25 9.289390 3.8750 94.650 171.666670
9.24 9.278560 3.816670 94.80 168.055560
9.23 9.267720 3.758330 94.950 164.444440
9.22 9.256880 3.70 95.10 160.833330
9.21 9.246050 3.730770 95.438460 157.222220
9.20 9.235210 3.761540 95.776920 153.611110
9.19 9.224380 3.792310 96.115380 150.0
9.18 9.213540 3.823080 96.453850 151.538460
9.17 9.205060 3.853850 96.792310 153.076920
9.16 9.196570 3.884620 97.130770 154.615380
9.15 9.188080 3.915380 97.469230 156.153850
9.14 9.179590 3.946150 97.807690 157.692310
9.13 9.171110 3.976920 98.146150 159.230770
9.12 9.16050 4.007690 98.484620 160.769230
9.11 9.149890 4.038460 98.823080 162.307690
9.10 9.139280 4.069230 99.161540 163.846150
9.09 9.128670 4.10 99.50 165.384620
9.08 9.117830 4.123080 99.061540 166.923080
9.07 9.1070 4.146150 98.623080 168.461540
9.06 9.096160 4.169230 98.184620 170.0
9.05 9.085330 4.192310 97.746150 170.0
9.04 9.074720 4.215380 97.307690 170.0
9.03 9.064110 4.238460 96.869230 170.0
9.02 9.05350 4.261540 96.430770 170.0
9.01 9.042890 4.284620 95.992310 170.0
9.00 9.03440 4.307690 95.553850 170.0
8.99 9.025910 4.330770 95.115380 170.0
8.98 9.017430 4.353850 94.676920 170.0
8.97 9.008940 4.376920 94.238460 170.0
8.96 9.000450 4.40 93.80 170.0
8.95 8.989620 4.392310 94.046150 170.0
8.94 8.978780 4.384620 94.292310 170.0
8.93 8.967950 4.376920 94.538460 170.0
8.92 8.957110 4.369230 94.784620 175.0
8.91 8.94650 4.361540 95.030770 180.0
8.90 8.935890 4.353850 95.276920 185.0
8.89 8.925280 4.346150 95.523080 190.0
8.88 8.914670 4.338460 95.769230 195.0
8.87 8.904290 4.330770 96.015380 200.0
8.86 8.893910 4.323080 96.261540 205.0
8.85 8.883520 4.315380 96.507690 210.0
8.84 8.873140 4.307690 96.753850 215.0
8.83 8.864650 4.30 97.0 220.0
8.82 8.856160 4.30 97.5250 225.0
8.81 8.847670 4.30 98.050 230.0
8.80 8.839190 4.30 98.5750 228.076920
8.79 8.83070 4.30 99.10 226.153850
8.78 8.820320 4.30 99.6250 224.230770
8.77 8.809930 4.30 100.150 222.307690
8.76 8.799550 4.30 100.6750 220.384620
8.75 8.789160 4.30 101.20 218.461540
8.74 8.778560 4.30 101.7250 216.538460
8.73 8.767950 4.30 102.250 214.615380
8.72 8.757340 4.30 102.7750 212.692310
8.71 8.746730 4.30 103.30 210.769230
8.70 8.736340 4.238460 101.792310 208.846150
8.69 8.725960 4.176920 100.284620 206.923080
8.68 8.715580 4.115380 98.776920 205.0
8.67 8.705190 4.053850 97.269230 200.256410
8.66 8.694580 3.992310 95.761540 195.512820
8.65 8.683970 3.930770 94.253850 190.769230
8.64 8.673360 3.869230 92.746150 186.025640
8.63 8.662750 3.807690 91.238460 181.282050
8.62 8.654270 3.746150 89.730770 176.538460
8.61 8.645780 3.684620 88.223080 171.794870
8.60 8.637290 3.623080 86.715380 167.051280
8.59 8.62880 3.561540 85.207690 162.307690
8.58 8.620320 3.50 83.70 157.56410
8.57 8.609930 3.553850 84.80 152.820510
8.56 8.599550 3.607690 85.90 148.076920
8.55 8.589160 3.661540 87.0 143.333330
8.54 8.578780 3.715380 88.10 143.611110
8.53 8.568170 3.769230 89.20 143.888890
8.52 8.557560 3.823080 90.30 144.166670
8.51 8.546950 3.876920 91.40 144.444440
8.50 8.536340 3.930770 92.50 144.722220
8.49 8.525730 3.984620 93.60 145.0
8.48 8.515120 4.038460 94.70 145.277780
8.47 8.504510 4.092310 95.80 145.555560
8.46 8.493910 4.146150 96.90 145.833330
8.45 8.485420 4.20 98.0 146.111110
8.44 8.476930 4.208330 97.558330 146.388890
8.43 8.468440 4.216670 97.116670 146.666670
8.42 8.459950 4.2250 96.6750 147.948720
8.41 8.451470 4.233330 96.233330 149.230770
8.40 8.440860 4.241670 95.791670 150.512820
8.39 8.430250 4.250 95.350 151.794870
8.38 8.419640 4.258330 94.908330 153.076920
8.37 8.409030 4.266670 94.466670 154.358970
8.36 8.398190 4.2750 94.0250 155.641030
8.35 8.387360 4.283330 93.583330 156.923080
8.34 8.376520 4.291670 93.141670 158.205130
8.33 8.365690 4.30 92.70 159.487180
8.32 8.35720 4.30 92.169230 160.769230
8.31 8.348710 4.30 91.638460 162.051280
8.30 8.340230 4.30 91.107690 163.333330
8.29 8.331740 4.30 90.576920 162.56410
8.28 8.323250 4.30 90.046150 161.794870
8.27 8.312420 4.30 89.515380 161.025640
8.26 8.301580 4.30 88.984620 160.256410
8.25 8.290740 4.30 88.453850 159.487180
8.24 8.279910 4.30 87.923080 158.717950
8.23 8.26930 4.30 87.392310 157.948720
