~VERSION INFORMATION SECTION
VERS. 2.0 : CWLS LAS-VERSION 2.0
WRAP. NO : One line per depth step
~WELL INFORMATION SECTION
# MNEM.UNIT VALUE/NAME DESCRIPTION
#-------- -------------- ---------------------
STRT.Metres 14 : Start
STOP.Metres 0.32 : Stop
STEP.Metres -0.01 : Step
NULL.  -999.25 :NULL VALUE
DATE. 2025-54-11 : DATE
~CURVE INFORMATION SECTION
DEPTH.Metres : 0 Depth
Depth. : 1 Depth
Incline.Deg : 2 Incline
Azimuth.Deg : 3 Azimuth
GR.CPS : 4 GR
~PARAMETER INFORMATION SECTION
~OTHER
#-------------------------------------------------
#Produced By: GeoVista Logger - Version 7.1.107.0
Natural Gamma Sonde - 6447
Verticality Sonde - 6292
#-------------------------------------------------
~ASCII LOG DATA
# ...
5.85 5.869070 3.86250 93.5750 190.952380
5.84 5.860950 3.90 94.10 189.523810
5.83 5.848310 3.842860 94.442860 188.095240
5.82 5.835670 3.785710 94.785710 186.666670
5.81 5.827240 3.728570 95.128570 185.0
5.80 5.818810 3.671430 95.471430 183.333330
5.79 5.810380 3.614290 95.814290 181.666670
5.78 5.801960 3.557140 96.157140 180.0
5.77 5.793530 3.50 96.50 178.333330
5.76 5.78510 3.53750 95.5250 176.666670
5.75 5.772460 3.5750 94.550 175.0
5.74 5.759820 3.61250 93.5750 173.333330
5.73 5.751390 3.650 92.60 174.285710
5.72 5.742960 3.68750 91.6250 175.23810
5.71 5.734540 3.7250 90.650 176.190480
5.70 5.72190 3.76250 89.6750 177.142860
5.69 5.709260 3.80 88.70 178.095240
5.68 5.700830 3.785710 89.657140 179.047620
5.67 5.69240 3.771430 90.614290 180.0
5.66 5.683970 3.757140 91.571430 173.333330
5.65 5.671330 3.742860 92.528570 166.666670
5.64 5.658690 3.728570 93.485710 160.0
5.63 5.650260 3.714290 94.442860 153.333330
5.62 5.641840 3.70 95.40 146.666670
5.61 5.633410 3.71250 95.33750 140.0
5.60 5.620770 3.7250 95.2750 133.333330
5.59 5.608130 3.73750 95.21250 126.666670
5.58 5.60 3.750 95.150 127.142860
5.57 5.591870 3.76250 95.08750 127.619050
5.56 5.583750 3.7750 95.0250 128.095240
5.55 5.571110 3.78750 94.96250 128.571430
5.54 5.558470 3.80 94.90 129.047620
5.53 5.550040 3.785710 95.085710 129.523810
5.52 5.541610 3.771430 95.271430 130.0
5.51 5.533180 3.757140 95.457140 140.0
5.50 5.520090 3.742860 95.642860 150.0
5.49 5.5070 3.728570 95.828570 160.0
5.48 5.498570 3.714290 96.014290 170.0
5.47 5.490140 3.70 96.20 180.0
5.46 5.481720 3.71250 95.70 190.0
5.45 5.469070 3.7250 95.20 200.0
5.44 5.456430 3.73750 94.70 210.0
5.43 5.447710 3.750 94.20 208.333330
5.42 5.438980 3.76250 93.70 206.666670
5.41 5.430250 3.7750 93.20 205.0
5.40 5.421820 3.78750 92.70 203.333330
5.39 5.413390 3.80 92.20 201.666670
5.38 5.404970 3.76250 92.3250 200.0
5.37 5.391870 3.7250 92.450 198.333330
5.36 5.378780 3.68750 92.5750 196.666670
5.35 5.370350 3.650 92.70 196.666670
5.34 5.361930 3.61250 92.8250 196.666670
5.33 5.35350 3.5750 92.950 196.666670
5.32 5.340410 3.53750 93.0750 196.666670
5.31 5.327310 3.50 93.20 196.666670
5.30 5.318890 3.50 92.442860 196.666670
5.29 5.310460 3.50 91.685710 196.666670
5.28 5.302030 3.50 90.928570 200.416670
5.27 5.288940 3.50 90.171430 204.166670
5.26 5.275850 3.50 89.414290 207.916670
5.25 5.267420 3.50 88.657140 211.666670
5.24 5.258990 3.50 87.90 215.416670
5.23 5.250560 3.5250 88.3750 219.166670
5.22 5.242140 3.550 88.850 222.916670
5.21 5.233710 3.5750 89.3250 226.666670
5.20 5.225280 3.60 89.80 223.333330
5.19 5.212190 3.6250 90.2750 220.0
5.18 5.19910 3.650 90.750 216.666670
5.17 5.190670 3.6750 91.2250 213.333330
5.16 5.182240 3.70 91.70 210.0
5.15 5.173810 3.70 91.8250 206.666670
5.14 5.161170 3.70 91.950 203.333330
5.13 5.148530 3.70 92.0750 195.0
5.12 5.140110 3.70 92.20 186.666670
5.11 5.131680 3.70 92.3250 178.333330
5.10 5.123250 3.70 92.450 170.0
5.09 5.110610 3.70 92.5750 161.666670
5.08 5.097970 3.70 92.70 153.333330
5.07 5.089540 3.70 92.571430 145.0
5.06 5.081110 3.70 92.442860 136.666670
5.05 5.072690 3.70 92.314290 145.23810
5.04 5.060050 3.70 92.185710 153.809520
5.03 5.04740 3.70 92.057140 162.380950
5.02 5.038980 3.70 91.928570 170.952380
5.01 5.030550 3.70 91.80 179.523810
5.00 5.022120 3.70 91.81250 188.095240
4.99 5.009480 3.70 91.8250 196.666670
4.98 4.996840 3.70 91.83750 193.333330
4.97 4.988410 3.70 91.850 190.0
4.96 4.979980 3.70 91.86250 186.666670
4.95 4.971560 3.70 91.8750 183.333330
4.94 4.958920 3.70 91.88750 180.0
4.93 4.946280 3.70 91.90 176.666670
4.92 4.937550 3.6750 91.3750 173.333330
4.91 4.928820 3.650 90.850 170.0
4.90 4.920090 3.6250 90.3250 167.916670
4.89 4.911660 3.60 89.80 165.833330
4.88 4.903240 3.5750 89.2750 163.750
4.87 4.894810 3.550 88.750 161.666670
4.86 4.882170 3.5250 88.2250 159.583330
4.85 4.869530 3.50 87.70 157.50
4.84 4.86110 3.528570 88.414290 155.416670
4.83 4.852670 3.557140 89.128570 153.333330
4.82 4.844240 3.585710 89.842860 155.918370
4.81 4.83160 3.614290 90.557140 158.50340
4.80 4.818960 3.642860 91.271430 161.088440
4.79 4.810230 3.671430 91.985710 163.673470
4.78 4.80150 3.70 92.70 166.25850
4.77 4.792780 3.71250 92.250 168.843540
4.76 4.780140 3.7250 91.80 171.428570
4.75 4.767490 3.73750 91.350 169.444440
4.74 4.759070 3.750 90.90 167.460320
4.73 4.750640 3.76250 90.450 165.476190
4.72 4.742210 3.7750 90.0 163.492060
4.71 4.729120 3.78750 89.550 161.507940
4.70 4.716030 3.80 89.10 159.523810
4.69 4.70760 3.80 88.957140 157.539680
4.68 4.699170 3.80 88.814290 155.555560
4.67 4.690740 3.80 88.671430 152.227340
4.66 4.682020 3.80 88.528570 148.899130
4.65 4.673290 3.80 88.385710 145.570920
4.64 4.664560 3.80 88.242860 142.24270
4.63 4.651920 3.80 88.10 138.914490
4.62 4.639280 3.80 88.4750 135.586280
4.61 4.630550 3.80 88.850 132.258060
4.60 4.621820 3.80 89.2250 131.975810
4.59 4.613090 3.80 89.60 131.693550
4.58 4.60 3.80 89.9750 131.411290
4.57 4.586910 3.80 90.350 131.129030
4.56 4.578480 3.80 90.7250 130.846770
4.55 4.570050 3.80 91.10 130.564520
4.54 4.561630 3.80 90.88750 130.282260
4.53 4.548980 3.80 90.6750 130.0
4.52 4.536340 3.80 90.46250 132.50
4.51 4.527920 3.80 90.250 135.0
4.50 4.519490 3.80 90.03750 137.50
4.49 4.511060 3.80 89.8250 140.0
4.48 4.498420 3.80 89.61250 142.50
4.47 4.485780 3.80 89.40 145.0
4.46 4.477350 3.80 89.557140 147.50
4.45 4.468920 3.80 89.714290 150.0
4.44 4.46050 3.80 89.871430 152.857140
4.43 4.452070 3.80 90.028570 155.714290
4.42 4.443640 3.80 90.185710 158.571430
4.41 4.435210 3.80 90.342860 161.428570
4.40 4.422570 3.80 90.50 164.285710
4.39 4.409930 3.76250 90.23750 167.142860
4.38 4.40150 3.7250 89.9750 170.0
4.37 4.393080 3.68750 89.71250 174.583330
4.36 4.384650 3.650 89.450 179.166670
4.35 4.372010 3.61250 89.18750 183.750
4.34 4.359370 3.5750 88.9250 188.333330
4.33 4.350640 3.53750 88.66250 192.916670
4.32 4.341910 3.50 88.40 197.50
4.31 4.333180 3.4750 87.43750 202.083330
4.30 4.320540 3.450 86.4750 206.666670
4.29 4.30790 3.4250 85.51250 206.666670
4.28 4.299470 3.40 84.550 206.666670
4.27 4.291050 3.3750 83.58750 206.666670
4.26 4.282620 3.350 82.6250 206.666670
4.25 4.269530 3.3250 81.66250 206.666670
4.24 4.256430 3.30 80.70 206.666670
4.23 4.248010 3.328570 82.057140 206.666670
4.22 4.239580 3.357140 83.414290 206.666670
4.21 4.231150 3.385710 84.771430 198.095240
4.20 4.218510 3.414290 86.128570 189.523810
4.19 4.205870 3.442860 87.485710 180.952380
4.18 4.197740 3.471430 88.842860 172.380950
4.17 4.189620 3.50 90.20 163.809520
4.16 4.181490 3.450 89.550 155.23810
4.15 4.16840 3.40 88.90 146.666670
4.14 4.15530 3.350 88.250 151.250
4.13 4.146880 3.30 87.60 155.833330
4.12 4.138450 3.250 86.950 160.416670
4.11 4.130020 3.20 86.30 165.0
4.10 4.12160 3.150 85.650 169.583330
4.09 4.113170 3.10 85.0 174.166670
4.08 4.104740 3.13750 85.50 178.750
4.07 4.09210 3.1750 86.0 183.333330
4.06 4.079460 3.21250 86.50 178.571430
4.05 4.071030 3.250 87.0 173.809520
4.04 4.06260 3.28750 87.50 169.047620
4.03 4.054180 3.3250 88.0 164.285710
4.02 4.041530 3.36250 88.50 159.523810
4.01 4.028890 3.40 89.0 154.76190
4.00 4.020470 3.428570 87.828570 150.0
3.99 4.012040 3.457140 86.657140 152.916670
3.98 4.003610 3.485710 85.485710 155.833330
3.97 3.990970 3.514290 84.314290 158.750
3.96 3.978330 3.542860 83.142860 161.666670
3.95 3.96990 3.571430 81.971430 164.583330
3.94 3.961470 3.60 80.80 167.50
3.93 3.953050 3.61250 81.750 170.416670
3.92 3.940410 3.6250 82.70 173.333330
3.91 3.927770 3.63750 83.650 172.50
3.90 3.919340 3.650 84.60 171.666670
3.89 3.910910 3.66250 85.550 170.833330
3.88 3.902480 3.6750 86.50 170.0
3.87 3.889840 3.68750 87.450 169.166670
3.86 3.87720 3.70 88.40 168.333330
3.85 3.868470 3.70 87.78750 167.50
3.84 3.859740 3.70 87.1750 166.666670
3.83 3.851020 3.70 86.56250 168.750
3.82 3.838370 3.70 85.950 170.833330
3.81 3.825730 3.70 85.33750 172.916670
3.80 3.817310 3.70 84.7250 175.0
3.79 3.808880 3.70 84.11250 177.083330
3.78 3.800450 3.70 83.50 179.166670
3.77 3.792020 3.70 84.042860 181.250
3.76 3.78360 3.70 84.585710 183.333330
