~VERSION INFORMATION SECTION
VERS. 2.0 : CWLS LAS-VERSION 2.0
WRAP. NO : One line per depth step
~WELL INFORMATION SECTION
# MNEM.UNIT VALUE/NAME DESCRIPTION
#-------- -------------- ---------------------
STRT.Metres 14 : Start
STOP.Metres 0.32 : Stop
STEP.Metres -0.01 : Step
NULL.  -999.25 :NULL VALUE
DATE. 2025-54-11 : DATE
~CURVE INFORMATION SECTION
DEPTH.Metres : 0 Depth
Depth. : 1 Depth
Incline.Deg : 2 Incline
Azimuth.Deg : 3 Azimuth
GR.CPS : 4 GR
~PARAMETER INFORMATION SECTION
~OTHER
#-------------------------------------------------
#Produced By: GeoVista Logger - Version 7.1.107.0
Natural Gamma Sonde - 6447
Verticality Sonde - 6292
#-------------------------------------------------
~ASCII LOG DATA
# ...
1.68 1.701430 1.8750 88.4250 123.830650
1.67 1.69270 1.81250 88.08750 121.854840
1.66 1.683970 1.750 87.750 119.879030
1.65 1.670880 1.68750 87.41250 117.903230
1.64 1.657790 1.6250 87.0750 115.927420
1.63 1.649360 1.56250 86.73750 113.951610
1.62 1.640930 1.50 86.40 111.975810
1.61 1.632510 1.585710 87.028570 110.0
1.60 1.619410 1.671430 87.657140 112.916670
1.59 1.606320 1.757140 88.285710 115.833330
1.58 1.597590 1.842860 88.914290 118.750
1.57 1.588860 1.928570 89.542860 121.666670
1.56 1.580140 2.014290 90.171430 124.583330
1.55 1.571410 2.10 90.80 127.50
1.54 1.562680 2.01250 89.5750 130.416670
1.53 1.553950 1.9250 88.350 133.333330
1.52 1.541310 1.83750 87.1250 135.714290
1.51 1.528670 1.750 85.90 138.095240
1.50 1.519940 1.66250 84.6750 140.476190
1.49 1.511210 1.5750 83.450 142.857140
1.48 1.502480 1.48750 82.2250 145.23810
1.47 1.489840 1.40 81.0 147.619050
1.46 1.47720 1.450 82.11250 150.0
1.45 1.468470 1.50 83.2250 149.583330
1.44 1.459740 1.550 84.33750 149.166670
1.43 1.451020 1.60 85.450 148.750
1.42 1.438370 1.650 86.56250 148.333330
1.41 1.425730 1.70 87.6750 147.916670
1.40 1.417610 1.750 88.78750 147.50
1.39 1.409480 1.80 89.90 147.083330
1.38 1.401350 1.71250 91.3750 146.666670
1.37 1.390070 1.6250 92.850 142.50
1.36 1.378780 1.53750 94.3250 138.333330
1.35 1.36840 1.450 95.80 134.166670
1.34 1.358010 1.36250 97.2750 130.0
1.33 1.348080 1.2750 98.750 125.833330
1.32 1.338150 1.18750 100.2250 121.666670
1.31 1.319190 1.10 101.70 117.50
1.30 1.309710 1.13750 99.08750 113.333330
1.29 1.300230 1.1750 96.4750 118.571430
1.28 1.291650 1.21250 93.86250 123.809520
1.27 1.283070 1.250 91.250 129.047620
1.26 1.266820 1.28750 88.63750 134.285710
1.25 1.259140 1.3250 86.0250 139.523810
1.24 1.251470 1.36250 83.41250 144.76190
1.23 1.238830 1.40 80.80 150.0
1.22 1.225730 1.40 82.457140 145.0
1.21 1.213540 1.40 84.114290 140.0
1.20 1.204060 1.40 85.771430 135.0
1.19 -999.25 1.40 87.428570 130.0
1.18 -999.25 1.40 89.085710 125.0
1.17 -999.25 1.40 90.742860 120.0
1.16 -999.25 1.40 92.40 115.0
1.15 -999.25 1.43750 93.63750 110.0
1.14 -999.25 1.4750 94.8750 115.416670
1.13 -999.25 1.51250 96.11250 120.833330
1.12 -999.25 1.550 97.350 126.250
1.11 -999.25 1.58750 98.58750 131.666670
1.10 -999.25 1.6250 99.8250 137.083330
1.09 -999.25 1.66250 101.06250 142.50
1.08 -999.25 1.70 102.30 147.916670
1.07 -999.25 1.633330 103.50 153.333330
1.06 -999.25 1.566670 104.70 150.833330
1.05 -999.25 1.50 105.90 148.333330
1.04 -999.25 1.433330 107.10 145.833330
1.03 -999.25 1.366670 108.30 143.333330
1.02 -999.25 1.30 109.50 140.833330
1.01 -999.25 1.340 108.560 138.333330
1.00 -999.25 1.380 107.620 135.833330
0.99 -999.25 1.420 106.680 133.333330
0.98 -999.25 1.460 105.740 139.583330
0.97 -999.25 1.50 104.80 145.833330
0.96 -999.25 1.433330 106.933330 152.083330
0.95 -999.25 1.366670 109.066670 158.333330
0.94 -999.25 1.30 111.20 164.583330
0.93 -999.25 1.350 108.60 170.833330
0.92 -999.25 1.40 106.0 177.083330
0.91 -999.25 1.80 99.80 183.333330
0.90 -999.25 1.50 124.10 178.571430
0.89 -999.25 -999.25 -999.25 173.809520
0.88 -999.25 -999.25 -999.25 169.047620
0.87 -999.25 -999.25 -999.25 164.285710
0.86 -999.25 -999.25 -999.25 159.523810
0.85 -999.25 -999.25 -999.25 154.76190
0.84 -999.25 -999.25 -999.25 150.0
0.83 -999.25 -999.25 -999.25 155.833330
0.82 -999.25 -999.25 -999.25 161.666670
0.81 -999.25 -999.25 -999.25 167.50
0.80 -999.25 -999.25 -999.25 173.333330
0.79 -999.25 -999.25 -999.25 179.166670
0.78 -999.25 -999.25 -999.25 185.0
0.77 -999.25 -999.25 -999.25 190.833330
0.76 -999.25 -999.25 -999.25 196.666670
0.75 -999.25 -999.25 -999.25 193.333330
0.74 -999.25 -999.25 -999.25 190.0
0.73 -999.25 -999.25 -999.25 186.666670
0.72 -999.25 -999.25 -999.25 183.333330
0.71 -999.25 -999.25 -999.25 180.0
0.70 -999.25 -999.25 -999.25 176.666670
0.69 -999.25 -999.25 -999.25 173.333330
0.68 -999.25 -999.25 -999.25 170.0
0.67 -999.25 -999.25 -999.25 165.0
0.66 -999.25 -999.25 -999.25 160.0
0.65 -999.25 -999.25 -999.25 155.0
0.64 -999.25 -999.25 -999.25 150.0
0.63 -999.25 -999.25 -999.25 145.0
0.62 -999.25 -999.25 -999.25 140.0
0.61 -999.25 -999.25 -999.25 135.0
0.60 -999.25 -999.25 -999.25 130.0
0.59 -999.25 -999.25 -999.25 130.476190
0.58 -999.25 -999.25 -999.25 130.952380
0.57 -999.25 -999.25 -999.25 131.428570
0.56 -999.25 -999.25 -999.25 131.904760
0.55 -999.25 -999.25 -999.25 132.380950
0.54 -999.25 -999.25 -999.25 132.857140
0.53 -999.25 -999.25 -999.25 133.333330
0.52 -999.25 -999.25 -999.25 133.333330
0.51 -999.25 -999.25 -999.25 133.333330
0.50 -999.25 -999.25 -999.25 133.333330
0.49 -999.25 -999.25 -999.25 133.333330
0.48 -999.25 -999.25 -999.25 133.333330
0.47 -999.25 -999.25 -999.25 133.333330
0.46 -999.25 -999.25 -999.25 133.333330
0.45 -999.25 -999.25 -999.25 134.0
0.44 -999.25 -999.25 -999.25 134.666670
0.43 -999.25 -999.25 -999.25 135.333330
0.42 -999.25 -999.25 -999.25 136.0
0.41 -999.25 -999.25 -999.25 136.666670
0.40 -999.25 -999.25 -999.25 136.0
0.39 -999.25 -999.25 -999.25 135.333330
0.38 -999.25 -999.25 -999.25 134.666670
0.37 -999.25 -999.25 -999.25 134.0
0.36 -999.25 -999.25 -999.25 133.333330
0.35 -999.25 -999.25 -999.25 136.021510
0.34 -999.25 -999.25 -999.25 138.709680
0.33 -999.25 -999.25 -999.25 110.0
0.32 -999.25 -999.25 -999.25 156.666670
