~VERSION INFORMATION SECTION
VERS. 2.0 : CWLS LAS-VERSION 2.0
WRAP. NO : One line per depth step
~WELL INFORMATION SECTION
# MNEM.UNIT VALUE/NAME DESCRIPTION
#-------- -------------- ---------------------
STRT.Metres 14 : Start
STOP.Metres 0.43 : Stop
STEP.Metres -0.01 : Step
NULL.  -999.25 :NULL VALUE
DATE. 2025-57-11 : DATE
~CURVE INFORMATION SECTION
DEPTH.Metres : 0 Depth
Depth. : 1 Depth
Incline.Deg : 2 Incline
Azimuth.Deg : 3 Azimuth
GR.CPS : 4 GR
~PARAMETER INFORMATION SECTION
~OTHER
#-------------------------------------------------
#Produced By: GeoVista Logger - Version 7.1.107.0
Natural Gamma Sonde - 6447
Verticality Sonde - 6292
#-------------------------------------------------
~ASCII LOG DATA
# ...
6.30 6.339280 3.907690 94.376920 196.666670
6.29 6.328670 3.90 94.30 196.666670
6.28 6.318060 3.907690 94.346150 196.666670
6.27 6.307450 3.915380 94.392310 196.666670
6.26 6.296840 3.923080 94.438460 196.666670
6.25 6.286230 3.930770 94.484620 197.43590
6.24 6.275620 3.938460 94.530770 198.205130
6.23 6.265010 3.946150 94.576920 198.974360
6.22 6.25440 3.953850 94.623080 199.743590
6.21 6.243790 3.961540 94.669230 200.512820
6.20 6.23530 3.969230 94.715380 201.282050
6.19 6.226820 3.976920 94.761540 202.051280
6.18 6.218330 3.984620 94.807690 202.820510
6.17 6.209840 3.992310 94.853850 203.589740
6.16 6.201350 4.0 94.90 204.358970
6.15 6.190740 3.976920 94.746150 205.128210
6.14 6.180140 3.953850 94.592310 205.897440
6.13 6.169530 3.930770 94.438460 206.666670
6.12 6.158920 3.907690 94.284620 204.444440
6.11 6.148530 3.884620 94.130770 202.222220
6.10 6.138150 3.861540 93.976920 200.0
6.09 6.127770 3.838460 93.823080 197.777780
6.08 6.117380 3.815380 93.669230 195.555560
6.07 6.106550 3.792310 93.515380 193.333330
6.06 6.095710 3.769230 93.361540 191.111110
6.05 6.084880 3.746150 93.207690 188.888890
6.04 6.074040 3.723080 93.053850 186.666670
6.03 6.063430 3.70 92.90 184.444440
6.02 6.052820 3.633330 92.091670 182.222220
6.01 6.042210 3.566670 91.283330 180.0
6.00 6.03160 3.50 90.4750 178.461540
5.99 6.02330 3.433330 89.666670 176.923080
5.98 6.014990 3.366670 88.858330 175.384620
5.97 6.006680 3.30 88.050 173.846150
5.96 5.998370 3.233330 87.241670 172.307690
5.95 5.990070 3.166670 86.433330 170.769230
5.94 5.979460 3.10 85.6250 169.230770
5.93 5.968850 3.033330 84.816670 167.692310
5.92 5.958240 2.966670 84.008330 166.153850
5.91 5.947630 2.90 83.20 164.615380
5.90 5.937020 2.938460 84.10 163.076920
5.89 5.926410 2.976920 85.0 161.538460
5.88 5.91580 3.015380 85.90 160.0
5.87 5.905190 3.053850 86.80 157.43590
5.86 5.894360 3.092310 87.70 154.871790
5.85 5.883520 3.130770 88.60 152.307690
5.84 5.872690 3.169230 89.50 149.743590
5.83 5.861850 3.207690 90.40 147.179490
5.82 5.853540 3.246150 91.30 144.615380
5.81 5.845240 3.284620 92.20 142.051280
5.80 5.836930 3.323080 93.10 139.487180
5.79 5.828620 3.361540 94.0 136.923080
5.78 5.820320 3.40 94.90 134.358970
5.77 5.809710 3.346150 94.561540 131.794870
5.76 5.79910 3.292310 94.223080 129.230770
5.75 5.788490 3.238460 93.884620 126.666670
5.74 5.777880 3.184620 93.546150 129.487180
5.73 5.767490 3.130770 93.207690 132.307690
5.72 5.757110 3.076920 92.869230 135.128210
5.71 5.746730 3.023080 92.530770 137.948720
5.70 5.736340 2.969230 92.192310 140.769230
5.69 5.725960 2.915380 91.853850 143.589740
5.68 5.715580 2.861540 91.515380 146.410260
5.67 5.705190 2.807690 91.176920 149.230770
5.66 5.694810 2.753850 90.838460 152.051280
5.65 5.686320 2.70 90.50 154.871790
5.64 5.677830 2.783330 90.591670 157.692310
5.63 5.669350 2.866670 90.683330 160.512820
5.62 5.660860 2.950 90.7750 163.333330
5.61 5.652370 3.033330 90.866670 161.944440
5.60 5.641760 3.116670 90.958330 160.555560
5.59 5.631150 3.20 91.050 159.166670
5.58 5.620540 3.283330 91.141670 157.777780
5.57 5.609930 3.366670 91.233330 156.388890
5.56 5.599320 3.450 91.3250 155.0
5.55 5.588710 3.533330 91.416670 153.611110
5.54 5.57810 3.616670 91.508330 152.222220
5.53 5.567490 3.70 91.60 150.833330
5.52 5.556880 3.692310 92.215380 149.444440
5.51 5.546280 3.684620 92.830770 148.055560
5.50 5.535670 3.676920 93.446150 146.666670
5.49 5.525060 3.669230 94.061540 147.948720
5.48 5.516390 3.661540 94.676920 149.230770
5.47 5.507720 3.653850 95.292310 150.512820
5.46 5.499050 3.646150 95.907690 151.794870
5.45 5.490380 3.638460 96.523080 153.076920
5.44 5.481720 3.630770 97.138460 154.358970
5.43 5.471110 3.623080 97.753850 155.641030
5.42 5.46050 3.615380 98.369230 156.923080
5.41 5.449890 3.607690 98.984620 158.205130
5.40 5.439280 3.60 99.60 159.487180
5.39 5.428670 3.60 98.123080 160.769230
5.38 5.418060 3.60 96.646150 162.051280
5.37 5.407450 3.60 95.169230 163.333330
5.36 5.396840 3.60 93.692310 162.051280
5.35 5.386230 3.60 92.215380 160.769230
5.34 5.375620 3.60 90.738460 159.487180
5.33 5.365010 3.60 89.261540 158.205130
5.32 5.35440 3.60 87.784620 156.923080
5.31 5.343790 3.60 86.307690 155.641030
5.30 5.333180 3.60 84.830770 154.358970
5.29 5.322570 3.60 83.353850 153.076920
5.28 5.311960 3.60 81.876920 151.794870
5.27 5.303660 3.60 80.40 150.512820
5.26 5.295350 3.561540 80.892310 149.230770
5.25 5.287040 3.523080 81.384620 147.948720
5.24 5.278740 3.484620 81.876920 146.666670
5.23 5.270430 3.446150 82.369230 152.222220
5.22 5.259820 3.407690 82.861540 157.777780
5.21 5.249210 3.369230 83.353850 163.333330
5.20 5.23860 3.330770 83.846150 168.888890
5.19 5.227990 3.292310 84.338460 174.444440
5.18 5.217610 3.253850 84.830770 180.0
5.17 5.207220 3.215380 85.323080 185.555560
5.16 5.196840 3.176920 85.815380 191.111110
5.15 5.186460 3.138460 86.307690 196.666670
5.14 5.175850 3.10 86.80 202.222220
5.13 5.165240 3.166670 87.233330 207.777780
5.12 5.154630 3.233330 87.666670 213.333330
5.11 5.144020 3.30 88.10 213.589740
5.10 5.133630 3.366670 88.533330 213.846150
5.09 5.123250 3.433330 88.966670 214.102560
5.08 5.112870 3.50 89.40 214.358970
5.07 5.102480 3.566670 89.833330 214.615380
5.06 5.0940 3.633330 90.266670 214.871790
5.05 5.085510 3.70 90.70 215.128210
5.04 5.077020 3.766670 91.133330 215.384620
5.03 5.068530 3.833330 91.566670 215.641030
5.02 5.060050 3.90 92.0 215.897440
5.01 5.049440 3.8840 91.9280 216.153850
5.00 5.038830 3.8680 91.8560 216.410260
4.99 5.028220 3.8520 91.7840 216.666670
4.98 5.017610 3.8360 91.7120 210.769230
4.97 5.007220 3.820 91.640 204.871790
4.96 4.996840 3.8040 91.5680 198.974360
4.95 4.986460 3.7880 91.4960 193.076920
4.94 4.976070 3.7720 91.4240 187.179490
4.93 4.965460 3.7560 91.3520 181.282050
4.92 4.954850 3.740 91.280 175.384620
4.91 4.944240 3.7240 91.2080 169.487180
4.90 4.933630 3.7080 91.1360 163.589740
4.89 4.925150 3.6920 91.0640 157.692310
4.88 4.916660 3.6760 90.9920 151.794870
4.87 4.908170 3.660 90.920 145.897440
4.86 4.899680 3.6440 90.8480 140.0
4.85 4.89120 3.6280 90.7760 141.111110
4.84 4.880590 3.6120 90.7040 142.222220
4.83 4.869980 3.5960 90.6320 143.333330
4.82 4.859370 3.580 90.560 144.444440
4.81 4.848760 3.5640 90.4880 145.555560
4.80 4.838150 3.5480 90.4160 146.666670
4.79 4.827540 3.5320 90.3440 147.777780
4.78 4.816930 3.5160 90.2720 148.888890
4.77 4.806320 3.50 90.20 150.0
4.76 4.797650 3.507690 90.807690 151.111110
4.75 4.788980 3.515380 91.415380 152.222220
4.74 4.780320 3.523080 92.023080 153.333330
4.73 4.771650 3.530770 92.630770 152.704710
4.72 4.762980 3.538460 93.238460 152.07610
4.71 4.752140 3.546150 93.846150 151.447480
4.70 4.741310 3.553850 94.453850 150.818860
4.69 4.730470 3.561540 95.061540 150.190240
4.68 4.719640 3.569230 95.669230 149.561620
4.67 4.709030 3.576920 96.276920 148.9330
4.66 4.698420 3.584620 96.884620 148.304380
4.65 4.687810 3.592310 97.492310 147.675770
4.64 4.67720 3.60 98.10 147.047150
4.63 4.666820 3.623080 97.253850 146.418530
4.62 4.656430 3.646150 96.407690 145.789910
4.61 4.646050 3.669230 95.561540 145.161290
4.60 4.635670 3.692310 94.715380 149.892470
4.59 4.625280 3.715380 93.869230 154.623660
4.58 4.61490 3.738460 93.023080 159.354840
4.57 4.604510 3.761540 92.176920 164.086020
4.56 4.594130 3.784620 91.330770 168.81720
4.55 4.583520 3.807690 90.484620 173.548390
4.54 4.572910 3.830770 89.638460 178.279570
4.53 4.56230 3.853850 88.792310 183.010750
4.52 4.551690 3.876920 87.946150 187.741940
4.51 4.543390 3.90 87.10 192.473120
4.50 4.535080 3.892310 87.715380 197.20430
4.49 4.526770 3.884620 88.330770 201.935480
4.48 4.518470 3.876920 88.946150 206.666670
4.47 4.510160 3.869230 89.561540 206.923080
4.46 4.499550 3.861540 90.176920 207.179490
4.45 4.488940 3.853850 90.792310 207.43590
4.44 4.478330 3.846150 91.407690 207.692310
4.43 4.467720 3.838460 92.023080 207.948720
4.42 4.457110 3.830770 92.638460 208.205130
4.41 4.44650 3.823080 93.253850 208.461540
4.40 4.435890 3.815380 93.869230 208.717950
4.39 4.425280 3.807690 94.484620 208.974360
