~VERSION INFORMATION SECTION
VERS. 2.0 : CWLS LAS-VERSION 2.0
WRAP. NO : One line per depth step
~WELL INFORMATION SECTION
# MNEM.UNIT VALUE/NAME DESCRIPTION
#-------- -------------- ---------------------
STRT.Metres 14 : Start
STOP.Metres 0.03 : Stop
STEP.Metres -0.01 : Step
NULL.  -999.25 :NULL VALUE
DATE. 2025-51-11 : DATE
~CURVE INFORMATION SECTION
DEPTH.Metres : 0 Depth
Depth. : 1 Depth
Incline.Deg : 2 Incline
Azimuth.Deg : 3 Azimuth
GR.CPS : 4 GR
~PARAMETER INFORMATION SECTION
~OTHER
#-------------------------------------------------
#Produced By: GeoVista Logger - Version 7.1.107.0
Natural Gamma Sonde - 6447
Verticality Sonde - 6292
#-------------------------------------------------
~ASCII LOG DATA
14.00 -999.25 -999.25 -999.25 -999.25
13.99 13.997290 -999.25 -999.25 -999.25
13.98 13.987360 -999.25 -999.25 -999.25
13.97 13.976520 -999.25 -999.25 -999.25
13.96 13.965690 -999.25 -999.25 -999.25
13.95 13.954850 -999.25 -999.25 -999.25
13.94 13.943120 -999.25 -999.25 -999.25
13.93 13.937250 -999.25 -999.25 -999.25
13.92 13.931380 -999.25 -999.25 -999.25
13.91 13.919640 6.0 90.380560 -999.25
13.90 13.90790 6.0 90.40 -999.25
13.89 13.896160 6.0 90.40 -999.25
13.88 13.883520 6.0 90.40 -999.25
13.87 13.877650 6.0 90.250 -999.25
13.86 13.871780 6.0 90.10 -999.25
13.85 13.859140 6.050 90.40 -999.25
13.84 13.84740 6.10 90.70 -999.25
13.83 13.834760 6.080 90.680 -999.25
13.82 13.828440 6.060 90.660 -999.25
13.81 13.822120 6.040 90.640 -999.25
13.80 13.809480 6.020 90.620 -999.25
13.79 13.796840 6.0 90.60 -999.25
13.78 13.78510 6.0 91.550 -999.25
13.77 13.778330 6.0 92.50 -999.25
13.76 13.771560 6.0 92.566670 -999.25
13.75 13.758920 6.0 92.633330 -999.25
13.74 13.745370 6.0 92.70 -999.25
13.73 13.73860 6.0 92.40 -999.25
13.72 13.731830 6.0 92.10 -999.25
13.71 13.719190 6.0 91.80 -999.25
13.70 13.705640 6.0 92.166670 -999.25
13.69 13.698870 6.0 92.533330 -999.25
13.68 13.69210 6.0 92.90 -999.25
13.67 13.678560 5.966670 92.933330 -999.25
13.66 13.665910 5.933330 92.966670 -999.25
13.65 13.658690 5.90 93.0 -999.25
13.64 13.651470 5.90 92.4250 -999.25
13.63 13.637920 5.90 91.850 -999.25
13.62 13.624380 5.90 91.2750 -999.25
13.61 13.617610 5.90 90.70 -999.25
13.60 13.610840 5.866670 91.0 -999.25
13.59 13.597290 5.833330 91.30 -999.25
13.58 13.590520 5.80 91.60 -999.25
13.57 13.583750 5.80 92.3750 -999.25
13.56 13.56930 5.80 93.150 -999.25
13.55 13.555760 5.80 93.9250 -999.25
13.54 13.548980 5.80 94.70 -999.25
13.53 13.542210 5.80 94.0 -999.25
13.52 13.528670 5.80 93.30 -999.25
13.51 13.514220 5.80 92.60 -999.25
13.50 13.507450 5.80 91.90 -999.25
13.49 13.500680 5.80 91.5750 -999.25
13.48 13.487130 5.80 91.250 -999.25
13.47 13.479910 5.80 90.9250 -999.25
13.46 13.472690 5.80 90.60 -999.25
13.45 13.459140 5.80 91.80 -999.25
13.44 13.44470 5.80 93.0 -999.25
13.43 13.437470 5.80 94.20 -999.25
13.42 13.430250 5.80 95.40 -999.25
13.41 13.41580 5.80 95.2750 -999.25
13.40 13.408580 5.80 95.150 -999.25
13.39 13.401350 5.80 95.0250 -999.25
13.38 13.387810 5.80 94.90 -999.25
13.37 13.380590 5.7750 94.30 -999.25
13.36 13.373360 5.750 93.70 -999.25
13.35 13.359820 5.7250 93.10 -999.25
13.34 13.345370 5.70 92.50 -999.25
13.33 13.338150 5.70 92.6750 67.435460
13.32 13.330930 5.70 92.850 134.870920
13.31 13.317380 5.70 93.0250 136.666670
13.30 13.309710 5.70 93.20 155.0
13.29 13.302030 5.6750 93.7250 173.333330
13.28 13.287580 5.650 94.250 161.111110
13.27 13.280360 5.6250 94.7750 148.888890
13.26 13.273140 5.60 95.30 136.666670
13.25 13.257790 5.58750 95.48750 123.333330
13.24 13.250560 5.5750 95.6750 110.0
13.23 13.243340 5.56250 95.86250 118.333330
13.22 13.228890 5.550 96.050 126.666670
13.21 13.221670 5.53750 96.23750 140.606060
13.20 13.214450 5.5250 96.4250 154.545450
13.19 13.198190 5.51250 96.61250 166.363640
13.18 13.190520 5.50 96.80 178.181820
13.17 13.182840 5.4750 96.5750 190.0
13.16 13.166590 5.450 96.350 168.888890
13.15 13.158470 5.4250 96.1250 147.777780
13.14 13.150340 5.40 95.90 126.666670
13.13 13.141760 5.40 95.580 140.0
13.12 13.133180 5.40 95.260 153.333330
13.11 13.125060 5.40 94.940 166.666670
13.10 13.116930 5.40 94.620 163.333330
13.09 13.099770 5.40 94.30 160.0
13.08 13.091650 5.40 93.80 156.666670
13.07 13.083520 5.40 93.30 164.444440
13.06 13.074940 5.40 92.80 172.222220
13.05 13.066370 5.40 92.30 180.0
13.04 13.049210 5.40 92.250 172.50
13.03 13.040630 5.40 92.20 165.0
13.02 13.032050 5.40 92.150 157.50
13.01 13.023480 5.40 92.10 150.0
13.00 13.01490 5.40 92.077780 150.0
12.99 12.997740 5.40 92.055560 150.0
12.98 12.989160 5.40 92.033330 150.0
12.97 12.980590 5.40 92.011110 150.0
12.96 12.972010 5.40 91.988890 145.555560
12.95 12.963430 5.40 91.966670 141.111110
12.94 12.954850 5.40 91.944440 136.666670
12.93 12.946280 5.40 91.922220 137.50
12.92 12.929120 5.40 91.90 138.333330
12.91 12.920540 5.360 91.580 139.166670
12.90 12.911960 5.320 91.260 140.0
12.89 12.903390 5.280 90.940 135.0
12.88 12.894810 5.240 90.620 130.0
12.87 12.877650 5.20 90.30 125.0
12.86 12.869070 5.220 90.40 120.0
12.85 12.86050 5.240 90.50 132.50
12.84 12.851470 5.260 90.60 145.0
12.83 12.842440 5.280 90.70 157.50
12.82 12.833860 5.30 90.80 170.0
12.81 12.825280 5.20 90.840 161.666670
12.80 12.808130 5.10 90.880 153.333330
12.79 12.79910 5.0 90.920 145.0
12.78 12.790070 4.90 90.960 136.666670
12.77 12.781490 4.80 91.0 136.666670
12.76 12.772910 4.860 91.580 136.666670
12.75 12.764330 4.920 92.160 136.666670
12.74 12.755760 4.980 92.740 136.666670
12.73 12.73860 5.040 93.320 130.666670
12.72 12.730020 5.10 93.90 124.666670
12.71 12.721440 5.10 93.90 118.666670
12.70 12.712870 5.10 93.90 112.666670
12.69 12.704290 5.10 93.90 106.666670
12.68 12.695710 5.10 93.90 105.833330
12.67 12.687130 5.10 93.90 105.0
12.66 12.669070 5.120 94.080 104.166670
12.65 12.66050 5.140 94.260 103.333330
12.64 12.651920 5.160 94.440 110.833330
12.63 12.643340 5.180 94.620 118.333330
12.62 12.634760 5.20 94.80 125.833330
12.61 12.625730 5.20 94.140 133.333330
12.60 12.61670 5.20 93.480 129.545450
12.59 12.599550 5.20 92.820 125.757580
12.58 12.590970 5.20 92.160 121.96970
12.57 12.582390 5.20 91.50 118.181820
12.56 12.573810 5.216670 91.833330 117.583730
12.55 12.565240 5.233330 92.166670 116.985650
12.54 12.547180 5.250 92.50 116.387560
12.53 12.53860 5.266670 92.833330 115.789470
12.52 12.530020 5.283330 93.166670 121.365910
12.51 12.521440 5.30 93.50 126.942360
12.50 12.512870 5.280 94.140 132.51880
12.49 12.504290 5.260 94.780 138.095240
12.48 12.495710 5.240 95.420 132.476190
12.47 12.478560 5.220 96.060 126.857140
12.46 12.469980 5.20 96.70 121.23810
12.45 12.46140 5.180 96.40 115.619050
12.44 12.452820 5.160 96.10 110.0
12.43 12.444240 5.140 95.80 105.0
12.42 12.427990 5.120 95.50 100.0
12.41 12.419410 5.10 95.20 95.0
12.40 12.410840 5.10 94.740 90.0
12.39 12.402260 5.10 94.280 103.333330
12.38 12.393680 5.10 93.820 116.666670
12.37 12.38510 5.10 93.360 130.0
12.36 12.376520 5.10 92.90 143.333330
12.35 12.359370 5.116670 93.216670 156.666670
12.34 12.350790 5.133330 93.533330 157.50
12.33 12.342210 5.150 93.850 158.333330
12.32 12.333630 5.166670 94.166670 159.166670
12.31 12.325060 5.183330 94.483330 160.0
12.30 12.30790 5.20 94.80 161.0
12.29 12.299320 5.180 94.880 162.0
12.28 12.290740 5.160 94.960 163.0
12.27 12.282170 5.140 95.040 164.0
12.26 12.273590 5.120 95.120 165.0
12.25 12.265010 5.10 95.20 161.333330
12.24 12.256430 5.060 95.080 157.666670
12.23 12.239280 5.020 94.960 154.0
12.22 12.231150 4.980 94.840 150.333330
12.21 12.223020 4.940 94.720 146.666670
12.20 12.214450 4.90 94.60 144.0
12.19 12.205870 4.980 93.680 141.333330
12.18 12.188710 5.060 92.760 138.666670
12.17 12.180140 5.140 91.840 136.0
12.16 12.171560 5.220 90.920 133.333330
12.15 12.162980 5.30 90.0 134.0
12.14 12.15440 5.280 90.720 134.666670
12.13 12.137250 5.260 91.440 135.333330
12.12 12.129120 5.240 92.160 136.0
12.11 12.120990 5.220 92.880 136.666670
12.10 12.112420 5.20 93.60 140.555560
12.09 12.103840 5.160 93.560 144.444440
12.08 12.095260 5.120 93.520 148.333330
12.07 12.086680 5.080 93.480 152.222220
12.06 12.069530 5.040 93.440 156.111110
12.05 12.060950 5.0 93.40 160.0
12.04 12.052370 5.020 93.580 161.333330
12.03 12.043790 5.040 93.760 162.666670
12.02 12.035210 5.060 93.940 164.0
12.01 12.018060 5.080 94.120 165.333330
12.00 12.009480 5.10 94.30 166.666670
11.99 12.00090 5.10 93.816670 166.666670
11.98 11.992330 5.10 93.333330 166.666670
11.97 11.983750 5.10 92.850 166.666670
11.96 11.975170 5.10 92.366670 166.666670
11.95 11.966590 5.10 91.883330 166.666670
11.94 11.949440 5.10 91.40 162.0
11.93 11.940860 5.10 91.840 157.333330
11.92 11.932280 5.10 92.280 152.666670
11.91 11.92370 5.10 92.720 148.0
11.90 11.915120 5.10 93.160 143.333330
11.89 11.897970 5.10 93.60 142.0
11.88 11.889390 5.040 93.660 140.666670
