~VERSION INFORMATION SECTION
VERS. 2.0 : CWLS LAS-VERSION 2.0
WRAP. NO : One line per depth step
~WELL INFORMATION SECTION
# MNEM.UNIT VALUE/NAME DESCRIPTION
#-------- -------------- ---------------------
STRT.Metres 14 : Start
STOP.Metres 0.38 : Stop
STEP.Metres -0.01 : Step
NULL.  -999.25 :NULL VALUE
DATE. 2025-47-11 : DATE
~CURVE INFORMATION SECTION
DEPTH.Metres : 0 Depth
Depth. : 1 Depth
Incline.Deg : 2 Incline
Azimuth.Deg : 3 Azimuth
GR.CPS : 4 GR
~PARAMETER INFORMATION SECTION
~OTHER
#-------------------------------------------------
#Produced By: GeoVista Logger - Version 7.1.107.0
Natural Gamma Sonde - 6447
Verticality Sonde - 6292
#-------------------------------------------------
~ASCII LOG DATA
# ...
11.90 11.901580 5.10 95.20 146.129030
11.89 11.896160 5.10 95.20 140.0
11.88 11.890740 5.10 95.20 140.0
11.87 11.879910 5.10 95.20 140.0
11.86 11.868170 5.10 94.80 140.0
11.85 11.857340 5.10 94.40 140.0
11.84 11.84650 5.10 94.0 140.0
11.83 11.834760 5.10 94.450 140.0
11.82 11.823930 5.10 94.90 137.50
11.81 11.813090 5.10 95.350 135.0
11.80 11.802260 5.10 95.80 132.50
11.79 11.796840 5.10 95.833330 130.0
11.78 11.791420 5.10 95.866670 138.888890
11.77 11.779680 5.10 95.90 147.777780
11.76 11.768850 5.10 96.066670 156.666670
11.75 11.758010 5.10 96.233330 144.444440
11.74 11.747180 5.10 96.40 132.222220
11.73 11.736340 5.10 96.133330 120.0
11.72 11.72460 5.10 95.866670 125.0
11.71 11.713770 5.10 95.60 130.0
11.70 11.702930 5.10 95.90 135.0
11.69 11.69210 5.10 96.20 140.0
11.68 11.686230 5.10 96.50 145.555560
11.67 11.680360 5.10 96.80 151.111110
11.66 11.669530 5.066670 96.966670 156.666670
11.65 11.658690 5.033330 97.133330 165.555560
11.64 11.646950 5.0 97.30 174.444440
11.63 11.636120 5.0 96.333330 183.333330
11.62 11.624380 5.0 95.366670 165.0
11.61 11.613540 5.0 94.40 146.666670
11.60 11.602710 5.0 94.6250 128.333330
11.59 11.590970 5.0 94.850 110.0
11.58 11.585550 5.0 95.0750 124.444440
11.57 11.580140 5.0 95.30 138.888890
11.56 11.56930 5.0 95.333330 153.333330
11.55 11.557560 5.0 95.366670 155.555560
11.54 11.546730 5.0 95.40 157.777780
11.53 11.535890 5.0 95.70 160.0
11.52 11.525060 5.0 96.0 156.666670
11.51 11.513320 5.0 96.30 153.333330
11.50 11.502480 5.0 95.950 150.0
11.49 11.491650 5.0 95.60 145.833330
11.48 11.486230 5.0 95.250 141.666670
11.47 11.480810 5.0 94.90 137.50
11.46 11.469980 5.0 95.133330 133.333330
11.45 11.459140 5.0 95.366670 135.555560
11.44 11.44740 5.0 95.60 137.777780
11.43 11.436570 5.0 96.233330 140.0
11.42 11.425730 5.0 96.866670 142.222220
11.41 11.41490 5.0 97.50 144.444440
11.40 11.404060 5.0 96.7250 146.666670
11.39 11.393230 5.0 95.950 141.666670
11.38 11.381490 5.0 95.1750 136.666670
11.37 11.376070 5.0 94.40 131.666670
11.36 11.370650 5.0 94.20 126.666670
11.35 11.359820 5.0 94.0 122.222220
11.34 11.348980 5.0 93.80 117.777780
11.33 11.338150 4.966670 95.433330 113.333330
11.32 11.327310 4.933330 97.066670 121.792110
11.31 11.316480 4.90 98.70 130.25090
11.30 11.304740 4.90 98.20 138.709680
11.29 11.293910 4.90 97.70 138.028670
11.28 11.283070 4.90 97.20 137.347670
11.27 11.272230 4.90 96.70 136.666670
11.26 11.26140 4.90 95.90 130.833330
11.25 11.255980 4.90 95.10 125.0
11.24 11.250560 4.90 94.30 119.166670
11.23 11.239730 4.90 95.466670 113.333330
11.22 11.228890 4.90 96.633330 130.0
11.21 11.218060 4.90 97.80 146.666670
11.20 11.207220 4.90 97.833330 163.333330
11.19 11.196390 4.90 97.866670 150.0
11.18 11.185550 4.90 97.90 136.666670
11.17 11.174720 4.8750 96.30 123.333330
11.16 11.162980 4.850 94.70 131.111110
11.15 11.152140 4.8250 93.10 138.888890
11.14 11.141310 4.80 91.50 146.666670
11.13 11.135890 4.80 94.566670 138.333330
11.12 11.130470 4.80 97.633330 130.0
11.11 11.119640 4.80 100.70 121.666670
11.10 11.10880 4.766670 100.733330 113.333330
11.09 11.097070 4.733330 100.766670 126.666670
11.08 11.086230 4.70 100.80 140.0
11.07 11.07540 4.7250 99.0 153.333330
11.06 11.064560 4.750 97.20 134.444440
11.05 11.053720 4.7750 95.40 115.555560
11.04 11.042890 4.80 93.60 96.666670
11.03 11.032050 4.766670 94.333330 103.333330
11.02 11.026190 4.733330 95.066670 110.0
11.01 11.020320 4.70 95.80 116.666670
11.00 11.009480 4.666670 97.366670 120.0
10.99 10.998650 4.633330 98.933330 123.333330
10.98 10.987810 4.60 100.50 126.666670
10.97 10.976980 4.60 99.70 130.0
10.96 10.966140 4.60 98.90 127.777780
10.95 10.95440 4.60 98.10 125.555560
10.94 10.943570 4.60 97.30 123.333330
10.93 10.932730 4.60 95.933330 121.111110
10.92 10.92190 4.60 94.566670 118.888890
10.91 10.916480 4.60 93.20 116.666670
10.90 10.911060 4.60 95.333330 118.333330
10.89 10.899320 4.60 97.466670 120.0
10.88 10.888490 4.60 99.60 121.666670
10.87 10.877650 4.60 98.166670 123.333330
10.86 10.866820 4.60 96.733330 134.444440
10.85 10.855980 4.60 95.30 145.555560
10.84 10.845150 4.60 95.450 156.666670
10.83 10.833410 4.60 95.60 157.777780
10.82 10.822570 4.60 95.750 158.888890
10.81 10.811740 4.60 95.90 160.0
10.80 10.806320 4.60 96.433330 165.0
10.79 10.80090 4.60 96.966670 170.0
10.78 10.789160 4.60 97.50 175.0
10.77 10.778330 4.60 97.266670 180.0
10.76 10.767490 4.60 97.033330 166.666670
10.75 10.756660 4.60 96.80 153.333330
10.74 10.744920 4.60 96.80 140.0
10.73 10.734090 4.60 96.80 147.777780
10.72 10.723250 4.60 96.80 155.555560
10.71 10.712420 4.60 96.80 163.333330
10.70 10.706550 4.60 96.566670 162.016130
10.69 10.700680 4.60 96.333330 160.698920
10.68 10.689840 4.60 96.10 159.381720
10.67 10.679010 4.60 96.166670 158.064520
10.66 10.668170 4.60 96.233330 136.487460
10.65 10.657340 4.60 96.30 114.910390
10.64 10.64560 4.60 96.733330 93.333330
10.63 10.634760 4.60 97.166670 118.888890
10.62 10.623930 4.60 97.60 144.444440
10.61 10.613090 4.6250 97.30 170.0
10.60 10.602260 4.650 97.0 156.666670
10.59 10.596840 4.6750 96.70 143.333330
10.58 10.591420 4.70 96.40 130.0
10.57 10.579680 4.70 95.966670 116.666670
10.56 10.568850 4.70 95.533330 121.111110
10.55 10.558010 4.70 95.10 125.555560
10.54 10.547180 4.666670 96.10 130.0
10.53 10.536340 4.633330 97.10 141.111110
10.52 10.525510 4.60 98.10 152.222220
10.51 10.514670 4.6250 97.3750 163.333330
10.50 10.503840 4.650 96.650 167.50
10.49 10.4930 4.6750 95.9250 171.666670
10.48 10.482170 4.70 95.20 175.833330
10.47 10.47630 4.666670 96.566670 180.0
10.46 10.470430 4.633330 97.933330 165.555560
10.45 10.459590 4.60 99.30 151.111110
10.44 10.448760 4.633330 99.533330 136.666670
10.43 10.437920 4.666670 99.766670 148.888890
10.42 10.427090 4.70 100.0 161.111110
10.41 10.416250 4.6750 98.7250 173.333330
10.40 10.405420 4.650 97.450 158.888890
10.39 10.393680 4.6250 96.1750 144.444440
10.38 10.382840 4.60 94.90 130.0
10.37 10.372010 4.633330 95.70 135.833330
10.36 10.361170 4.666670 96.50 141.666670
10.35 10.355760 4.70 97.30 147.50
10.34 10.350340 4.666670 97.366670 153.333330
10.33 10.33950 4.633330 97.433330 140.0
10.32 10.328670 4.60 97.50 126.666670
10.31 10.317830 4.6250 97.0750 113.333330
10.30 10.3070 4.650 96.650 122.222220
10.29 10.295260 4.6750 96.2250 131.111110
10.28 10.284420 4.70 95.80 140.0
10.27 10.273590 4.666670 96.666670 136.666670
10.26 10.262750 4.633330 97.533330 133.333330
10.25 10.251920 4.60 98.40 130.0
10.24 10.246050 4.60 98.233330 131.666670
10.23 10.240180 4.60 98.066670 133.333330
10.22 10.229350 4.60 97.90 135.0
10.21 10.218510 4.60 97.233330 136.666670
10.20 10.207670 4.60 96.566670 143.333330
10.19 10.196840 4.60 95.90 150.0
10.18 10.1860 4.60 96.1750 156.666670
10.17 10.175170 4.60 96.450 161.111110
10.16 10.163430 4.60 96.7250 165.555560
10.15 10.15260 4.60 97.0 170.0
10.14 10.141760 4.60 97.033330 162.50
10.13 10.130930 4.60 97.066670 155.0
10.12 10.125510 4.60 97.10 147.50
10.11 10.120090 4.60 96.50 140.0
10.10 10.109260 4.60 95.90 148.888890
10.09 10.098420 4.60 95.30 157.777780
10.08 10.087580 4.60 95.966670 166.666670
10.07 10.075850 4.60 96.633330 169.175630
10.06 10.065010 4.60 97.30 171.684590
10.05 10.054180 4.60 97.150 174.193550
10.04 10.042440 4.60 97.0 178.978490
10.03 10.03160 4.60 96.850 183.763440
10.02 10.026190 4.60 96.70 188.548390
10.01 10.020770 4.60 97.30 193.333330
10.00 10.009930 4.60 97.90 178.888890
9.99 9.99910 4.60 98.50 164.444440
9.98 9.987360 4.60 98.233330 150.0
9.97 9.976520 4.60 97.966670 151.111110
9.96 9.965690 4.60 97.70 152.222220
9.95 9.954850 4.60 97.20 153.333330
9.94 9.943120 4.60 96.70 162.50
9.93 9.932280 4.60 96.20 171.666670
9.92 9.921440 4.60 95.70 180.833330
9.91 9.916030 4.60 95.433330 190.0
9.90 9.910610 4.60 95.166670 170.0
9.89 9.898870 4.60 94.90 150.0
9.88 9.888040 4.60 95.766670 130.0
9.87 9.87720 4.60 96.633330 143.333330
9.86 9.866370 4.60 97.50 156.666670
9.85 9.855530 4.60 97.233330 170.0
9.84 9.843790 4.60 96.966670 166.666670
9.83 9.832960 4.60 96.70 163.333330
9.82 9.822120 4.60 97.0 160.0
9.81 9.81670 4.60 97.30 153.333330
