~VERSION INFORMATION SECTION
VERS. 2.0 : CWLS LAS-VERSION 2.0
WRAP. NO : One line per depth step
~WELL INFORMATION SECTION
# MNEM.UNIT VALUE/NAME DESCRIPTION
#-------- -------------- ---------------------
STRT.Metres 14 : Start
STOP.Metres 0.43 : Stop
STEP.Metres -0.01 : Step
NULL.  -999.25 :NULL VALUE
DATE. 2025-57-11 : DATE
~CURVE INFORMATION SECTION
DEPTH.Metres : 0 Depth
Depth. : 1 Depth
Incline.Deg : 2 Incline
Azimuth.Deg : 3 Azimuth
GR.CPS : 4 GR
~PARAMETER INFORMATION SECTION
~OTHER
#-------------------------------------------------
#Produced By: GeoVista Logger - Version 7.1.107.0
Natural Gamma Sonde - 6447
Verticality Sonde - 6292
#-------------------------------------------------
~ASCII LOG DATA
# ...
2.44 2.481260 2.60 88.030770 126.38940
2.43 2.470430 2.60 89.207690 125.506070
2.42 2.459590 2.60 90.384620 124.622750
2.41 2.448760 2.60 91.561540 123.739420
2.40 2.437920 2.60 92.738460 122.856090
2.39 2.427090 2.60 93.915380 121.972760
2.38 2.416250 2.60 95.092310 121.089440
2.37 2.405640 2.60 96.269230 120.206110
2.36 2.395030 2.60 97.446150 119.322780
2.35 2.384420 2.60 98.623080 118.439460
2.34 2.373810 2.60 99.80 117.556130
2.33 2.365330 2.615380 98.730770 116.67280
2.32 2.356840 2.630770 97.661540 115.789470
2.31 2.348350 2.646150 96.592310 118.545120
2.30 2.339860 2.661540 95.523080 121.300770
2.29 2.331380 2.676920 94.453850 124.056420
2.28 2.320770 2.692310 93.384620 126.812070
2.27 2.310160 2.707690 92.315380 129.567720
2.26 2.299550 2.723080 91.246150 132.323360
2.25 2.288940 2.738460 90.176920 135.079010
2.24 2.278330 2.753850 89.107690 137.834660
2.23 2.267720 2.769230 88.038460 140.590310
2.22 2.257110 2.784620 86.969230 143.345960
2.21 2.24650 2.80 85.90 146.101610
2.20 2.237830 2.792310 85.723080 148.857250
2.19 2.229160 2.784620 85.546150 151.61290
2.18 2.22050 2.776920 85.369230 153.02730
2.17 2.211830 2.769230 85.192310 154.441690
2.16 2.203160 2.761540 85.015380 155.856080
2.15 2.192330 2.753850 84.838460 157.270470
2.14 2.181490 2.746150 84.661540 158.684860
2.13 2.170650 2.738460 84.484620 160.099260
2.12 2.159820 2.730770 84.307690 161.513650
2.11 2.148980 2.723080 84.130770 162.928040
2.10 2.138150 2.715380 83.953850 164.342430
2.09 2.127310 2.707690 83.776920 165.756820
2.08 2.116480 2.70 83.60 167.171220
2.07 2.107450 2.623080 82.930770 168.585610
2.06 2.098420 2.546150 82.261540 170.0
2.05 2.089390 2.469230 81.592310 171.538460
2.04 2.080360 2.392310 80.923080 173.076920
2.03 2.071330 2.315380 80.253850 174.615380
2.02 2.06050 2.238460 79.584620 176.153850
2.01 2.049660 2.161540 78.915380 177.692310
2.00 2.038830 2.084620 78.246150 179.230770
1.99 2.027990 2.007690 77.576920 180.769230
1.98 2.017160 1.930770 76.907690 182.307690
1.97 2.006320 1.853850 76.238460 183.846150
1.96 1.995490 1.776920 75.569230 185.384620
1.95 1.984650 1.70 74.90 186.923080
1.94 1.976160 1.70 75.030770 188.461540
1.93 1.967670 1.70 75.161540 190.0
1.92 1.959190 1.70 75.292310 192.820510
1.91 1.95070 1.70 75.423080 195.641030
1.90 1.942210 1.70 75.553850 198.461540
1.89 1.931150 1.70 75.684620 201.282050
1.88 1.920090 1.70 75.815380 204.102560
1.87 1.909030 1.70 75.946150 206.923080
1.86 1.897970 1.70 76.076920 209.743590
1.85 1.887130 1.70 76.207690 212.56410
1.84 1.87630 1.70 76.338460 215.384620
1.83 1.865460 1.70 76.469230 218.205130
1.82 1.854630 1.70 76.60 221.025640
1.81 1.845780 1.707690 78.576920 223.846150
1.80 1.836930 1.715380 80.553850 226.666670
1.79 1.828080 1.723080 82.530770 220.512820
1.78 1.819230 1.730770 84.507690 214.358970
1.77 1.810380 1.738460 86.484620 208.205130
1.76 1.799550 1.746150 88.461540 202.051280
1.75 1.788710 1.753850 90.438460 195.897440
1.74 1.777880 1.761540 92.415380 189.743590
1.73 1.767040 1.769230 94.392310 183.589740
1.72 1.756210 1.776920 96.369230 177.43590
1.71 1.745370 1.784620 98.346150 171.282050
1.70 1.734540 1.792310 100.323080 165.128210
1.69 1.72370 1.80 102.30 158.974360
1.68 1.715030 1.792310 101.292310 152.820510
1.67 1.706370 1.784620 100.284620 146.666670
1.66 1.69770 1.776920 99.276920 145.641030
1.65 1.689030 1.769230 98.269230 144.615380
1.64 1.680360 1.761540 97.261540 143.589740
1.63 1.669750 1.753850 96.253850 142.56410
1.62 1.659140 1.746150 95.246150 141.538460
1.61 1.648530 1.738460 94.238460 140.512820
1.60 1.637920 1.730770 93.230770 139.487180
1.59 1.627090 1.723080 92.223080 138.461540
1.58 1.616250 1.715380 91.215380 137.43590
1.57 1.605420 1.707690 90.207690 136.410260
1.56 1.594580 1.70 89.20 135.384620
1.55 1.583970 1.630770 86.30 134.358970
1.54 1.573360 1.561540 83.40 133.333330
1.53 1.562750 1.492310 80.50 133.589740
1.52 1.552140 1.423080 77.60 133.846150
1.51 1.542440 1.353850 74.70 134.102560
1.50 1.532730 1.284620 71.80 134.358970
1.49 1.523020 1.215380 68.90 134.615380
1.48 1.513320 1.146150 66.0 134.871790
1.47 1.501880 1.076920 63.10 135.128210
1.46 1.490440 1.007690 60.20 135.384620
1.45 1.479010 0.938460 57.30 135.641030
1.44 1.463660 0.869230 54.40 135.897440
1.43 1.448310 0.80 51.50 136.153850
1.42 1.439280 0.807690 53.069230 136.410260
1.41 1.430250 0.815380 54.638460 136.666670
1.40 1.421220 0.823080 56.207690 138.333330
1.39 1.408580 0.830770 57.776920 140.0
1.38 1.395940 0.838460 59.346150 141.666670
1.37 1.3860 0.846150 60.915380 143.333330
1.36 1.376070 0.853850 62.484620 145.0
1.35 1.359820 0.861540 64.053850 146.666670
1.34 1.347180 0.869230 65.623080 148.333330
1.33 1.333630 0.876920 67.192310 150.0
1.32 1.32370 0.884620 68.761540 151.666670
1.31 1.314450 0.892310 70.330770 153.333330
1.30 -999.25 0.90 71.90 155.0
1.29 -999.25 0.908330 72.541670 156.666670
1.28 -999.25 0.916670 73.183330 155.0
1.27 -999.25 0.9250 73.8250 153.333330
1.26 -999.25 0.933330 74.466670 151.666670
1.25 -999.25 0.941670 75.108330 150.0
1.24 -999.25 0.950 75.750 148.333330
1.23 -999.25 0.958330 76.391670 146.666670
1.22 -999.25 0.966670 77.033330 145.0
1.21 -999.25 0.9750 77.6750 143.333330
1.20 -999.25 0.983330 78.316670 141.666670
1.19 -999.25 0.991670 78.958330 140.0
1.18 -999.25 1.0 79.60 138.333330
1.17 -999.25 0.98750 81.5750 136.666670
1.16 -999.25 0.9750 83.550 135.0
1.15 -999.25 0.96250 85.5250 133.333330
1.14 -999.25 0.950 87.50 134.102560
1.13 -999.25 0.93750 89.4750 134.871790
1.12 -999.25 0.9250 91.450 135.641030
1.11 -999.25 0.91250 93.4250 136.410260
1.10 -999.25 0.90 95.40 137.179490
1.09 -999.25 1.0 99.20 137.948720
1.08 -999.25 1.10 103.0 138.717950
1.07 -999.25 1.20 106.80 139.487180
1.06 -999.25 1.30 110.60 140.256410
1.05 -999.25 1.40 114.40 141.025640
1.04 -999.25 1.30 113.90 141.794870
1.03 -999.25 1.20 113.40 142.56410
1.02 -999.25 1.0 99.40 143.333330
1.01 -999.25 1.30 88.10 146.923080
1.00 -999.25 -999.25 -999.25 150.512820
0.99 -999.25 -999.25 -999.25 154.102560
0.98 -999.25 -999.25 -999.25 157.692310
0.97 -999.25 -999.25 -999.25 161.282050
0.96 -999.25 -999.25 -999.25 164.871790
0.95 -999.25 -999.25 -999.25 168.461540
0.94 -999.25 -999.25 -999.25 172.051280
0.93 -999.25 -999.25 -999.25 175.641030
0.92 -999.25 -999.25 -999.25 179.230770
0.91 -999.25 -999.25 -999.25 182.820510
0.90 -999.25 -999.25 -999.25 186.410260
0.89 -999.25 -999.25 -999.25 190.0
0.88 -999.25 -999.25 -999.25 187.179490
0.87 -999.25 -999.25 -999.25 184.358970
0.86 -999.25 -999.25 -999.25 181.538460
0.85 -999.25 -999.25 -999.25 178.717950
0.84 -999.25 -999.25 -999.25 175.897440
0.83 -999.25 -999.25 -999.25 173.076920
0.82 -999.25 -999.25 -999.25 170.256410
0.81 -999.25 -999.25 -999.25 167.43590
0.80 -999.25 -999.25 -999.25 164.615380
0.79 -999.25 -999.25 -999.25 161.794870
0.78 -999.25 -999.25 -999.25 158.974360
0.77 -999.25 -999.25 -999.25 156.153850
0.76 -999.25 -999.25 -999.25 153.333330
0.75 -999.25 -999.25 -999.25 156.388890
0.74 -999.25 -999.25 -999.25 159.444440
0.73 -999.25 -999.25 -999.25 162.50
0.72 -999.25 -999.25 -999.25 165.555560
0.71 -999.25 -999.25 -999.25 168.611110
0.70 -999.25 -999.25 -999.25 171.666670
0.69 -999.25 -999.25 -999.25 174.722220
0.68 -999.25 -999.25 -999.25 177.777780
0.67 -999.25 -999.25 -999.25 180.833330
0.66 -999.25 -999.25 -999.25 183.888890
0.65 -999.25 -999.25 -999.25 186.944440
0.64 -999.25 -999.25 -999.25 190.0
0.63 -999.25 -999.25 -999.25 185.185190
0.62 -999.25 -999.25 -999.25 180.370370
0.61 -999.25 -999.25 -999.25 175.555560
0.60 -999.25 -999.25 -999.25 170.740740
0.59 -999.25 -999.25 -999.25 165.925930
0.58 -999.25 -999.25 -999.25 161.111110
0.57 -999.25 -999.25 -999.25 156.29630
0.56 -999.25 -999.25 -999.25 151.481480
0.55 -999.25 -999.25 -999.25 146.666670
0.54 -999.25 -999.25 -999.25 144.444440
0.53 -999.25 -999.25 -999.25 142.222220
0.52 -999.25 -999.25 -999.25 140.0
0.51 -999.25 -999.25 -999.25 137.777780
0.50 -999.25 -999.25 -999.25 135.555560
0.49 -999.25 -999.25 -999.25 133.333330
0.48 -999.25 -999.25 -999.25 128.888890
0.47 -999.25 -999.25 -999.25 124.444440
