~VERSION INFORMATION SECTION
VERS. 2.0 : CWLS LAS-VERSION 2.0
WRAP. NO : One line per depth step
~WELL INFORMATION SECTION
# MNEM.UNIT VALUE/NAME DESCRIPTION
#-------- -------------- ---------------------
STRT.Metres 14 : Start
STOP.Metres 0.43 : Stop
STEP.Metres -0.01 : Step
NULL.  -999.25 :NULL VALUE
DATE. 2025-57-11 : DATE
~CURVE INFORMATION SECTION
DEPTH.Metres : 0 Depth
Depth. : 1 Depth
Incline.Deg : 2 Incline
Azimuth.Deg : 3 Azimuth
GR.CPS : 4 GR
~PARAMETER INFORMATION SECTION
~OTHER
#-------------------------------------------------
#Produced By: GeoVista Logger - Version 7.1.107.0
Natural Gamma Sonde - 6447
Verticality Sonde - 6292
#-------------------------------------------------
~ASCII LOG DATA
# ...
8.22 8.258690 4.30 86.861540 157.179490
8.21 8.248080 4.30 86.330770 156.410260
8.20 8.237470 4.30 85.80 155.641030
8.19 8.226860 4.20 86.353850 154.871790
8.18 8.216250 4.10 86.907690 154.102560
8.17 8.205640 4.0 87.461540 153.333330
8.16 8.195030 3.90 88.015380 153.333330
8.15 8.186370 3.80 88.569230 153.333330
8.14 8.17770 3.70 89.123080 153.333330
8.13 8.169030 3.60 89.676920 153.333330
8.12 8.160360 3.50 90.230770 153.333330
8.11 8.151690 3.40 90.784620 153.333330
8.10 8.141080 3.30 91.338460 153.333330
8.09 8.130470 3.20 91.892310 153.333330
8.08 8.119860 3.10 92.446150 153.333330
8.07 8.109260 3.0 93.0 153.333330
8.06 8.098420 3.046150 93.169230 153.333330
8.05 8.087580 3.092310 93.338460 153.333330
8.04 8.076750 3.138460 93.507690 153.333330
8.03 8.065910 3.184620 93.676920 154.358970
8.02 8.05530 3.230770 93.846150 155.384620
8.01 8.04470 3.276920 94.015380 156.410260
8.00 8.034090 3.323080 94.184620 157.43590
7.99 8.023480 3.369230 94.353850 158.461540
7.98 8.015170 3.415380 94.523080 159.487180
7.97 8.006860 3.461540 94.692310 160.512820
7.96 7.998560 3.507690 94.861540 161.538460
7.95 7.990250 3.553850 95.030770 162.56410
7.94 7.981940 3.60 95.20 163.589740
7.93 7.971330 3.592310 94.530770 164.615380
7.92 7.960720 3.584620 93.861540 165.641030
7.91 7.950110 3.576920 93.192310 166.666670
7.90 7.93950 3.569230 92.523080 168.888890
7.89 7.929120 3.561540 91.853850 171.111110
7.88 7.918740 3.553850 91.184620 173.333330
7.87 7.908350 3.546150 90.515380 175.555560
7.86 7.897970 3.538460 89.846150 177.777780
7.85 7.887360 3.530770 89.176920 180.0
7.84 7.876750 3.523080 88.507690 182.222220
7.83 7.866140 3.515380 87.838460 184.444440
7.82 7.855530 3.507690 87.169230 186.666670
7.81 7.844920 3.50 86.50 188.888890
7.80 7.834310 3.558330 87.058330 191.111110
7.79 7.82370 3.616670 87.616670 193.333330
7.78 7.813090 3.6750 88.1750 192.747250
7.77 7.80460 3.733330 88.733330 192.161170
7.76 7.796120 3.791670 89.291670 191.575090
7.75 7.787630 3.850 89.850 190.989010
7.74 7.779140 3.908330 90.408330 190.402930
7.73 7.770650 3.966670 90.966670 189.816850
7.72 7.760270 4.0250 91.5250 189.230770
7.71 7.749890 4.083330 92.083330 188.644690
7.70 7.73950 4.141670 92.641670 188.058610
7.69 7.729120 4.20 93.20 187.472530
7.68 7.718510 4.169230 93.407690 186.886450
7.67 7.70790 4.138460 93.615380 186.300370
7.66 7.697290 4.107690 93.823080 185.714290
7.65 7.686680 4.076920 94.030770 178.266180
7.64 7.67630 4.046150 94.238460 170.818070
7.63 7.665910 4.015380 94.446150 163.369960
7.62 7.655530 3.984620 94.653850 155.921860
7.61 7.645150 3.953850 94.861540 148.473750
7.60 7.634540 3.923080 95.069230 141.025640
7.59 7.623930 3.892310 95.276920 133.577530
7.58 7.613320 3.861540 95.484620 126.129430
7.57 7.602710 3.830770 95.692310 118.681320
7.56 7.59440 3.80 95.90 111.233210
7.55 7.586090 3.80 95.276920 103.78510
7.54 7.577790 3.80 94.653850 96.3370
7.53 7.569480 3.80 94.030770 88.888890
7.52 7.561170 3.80 93.407690 92.870370
7.51 7.550560 3.80 92.784620 96.851850
7.50 7.539950 3.80 92.161540 100.833330
7.49 7.529350 3.80 91.538460 104.814810
7.48 7.518740 3.80 90.915380 108.79630
7.47 7.508130 3.80 90.292310 112.777780
7.46 7.497520 3.80 89.669230 116.759260
7.45 7.486910 3.80 89.046150 120.740740
7.44 7.47630 3.80 88.423080 124.722220
7.43 7.465690 3.80 87.80 128.70370
7.42 7.455080 3.7250 88.2750 132.685190
7.41 7.444470 3.650 88.750 136.666670
7.40 7.433860 3.5750 89.2250 141.282050
7.39 7.425370 3.50 89.70 145.897440
7.38 7.416880 3.4250 90.1750 150.512820
7.37 7.40840 3.350 90.650 155.128210
7.36 7.399910 3.2750 91.1250 159.743590
7.35 7.391420 3.20 91.60 164.358970
7.34 7.380810 3.1250 92.0750 168.974360
7.33 7.37020 3.050 92.550 173.589740
7.32 7.359590 2.9750 93.0250 178.205130
7.31 7.348980 2.90 93.50 182.820510
7.30 7.338150 2.892310 93.453850 187.43590
7.29 7.327310 2.884620 93.407690 192.051280
7.28 7.316480 2.876920 93.361540 196.666670
7.27 7.305640 2.869230 93.315380 196.410260
7.26 7.295030 2.861540 93.269230 196.153850
7.25 7.284420 2.853850 93.223080 195.897440
7.24 7.273810 2.846150 93.176920 195.641030
7.23 7.263210 2.838460 93.130770 195.384620
7.22 7.254720 2.830770 93.084620 195.128210
7.21 7.246230 2.823080 93.038460 194.871790
7.20 7.237740 2.815380 92.992310 194.615380
7.19 7.229260 2.807690 92.946150 194.358970
7.18 7.220770 2.80 92.90 194.102560
7.17 7.209930 2.869230 92.992310 193.846150
7.16 7.19910 2.938460 93.084620 193.589740
7.15 7.188260 3.007690 93.176920 193.333330
7.14 7.177430 3.076920 93.269230 199.801490
7.13 7.166820 3.146150 93.361540 206.269640
7.12 7.156210 3.215380 93.453850 212.73780
7.11 7.14560 3.284620 93.546150 219.205960
7.10 7.134990 3.353850 93.638460 225.674110
7.09 7.124380 3.423080 93.730770 232.142270
7.08 7.113770 3.492310 93.823080 238.610420
7.07 7.103160 3.561540 93.915380 245.078580
7.06 7.092550 3.630770 94.007690 251.546730
7.05 7.084240 3.70 94.10 258.014890
7.04 7.075940 3.733330 94.183330 264.483040
7.03 7.067630 3.766670 94.266670 270.95120
7.02 7.059320 3.80 94.350 277.419350
7.01 7.051020 3.833330 94.433330 272.078850
7.00 7.040410 3.866670 94.516670 266.738350
6.99 7.02980 3.90 94.60 261.397850
6.98 7.019190 3.933330 94.683330 256.057350
6.97 7.008580 3.966670 94.766670 250.716850
6.96 6.997970 4.0 94.850 245.376340
6.95 6.987360 4.033330 94.933330 240.035840
6.94 6.976750 4.066670 95.016670 234.695340
6.93 6.966140 4.10 95.10 229.354840
6.92 6.955530 4.10 95.384620 224.014340
6.91 6.944920 4.10 95.669230 218.673840
6.90 6.934310 4.10 95.953850 213.333330
6.89 6.92370 4.10 96.238460 207.692310
6.88 6.91540 4.10 96.523080 202.051280
6.87 6.907090 4.10 96.807690 196.410260
6.86 6.898780 4.10 97.092310 190.769230
6.85 6.890470 4.10 97.376920 185.128210
6.84 6.882170 4.10 97.661540 179.487180
6.83 6.871560 4.10 97.946150 173.846150
6.82 6.860950 4.10 98.230770 168.205130
6.81 6.850340 4.10 98.515380 162.56410
6.80 6.839730 4.10 98.80 156.923080
6.79 6.829120 4.092310 98.676920 151.282050
6.78 6.818510 4.084620 98.553850 145.641030
6.77 6.80790 4.076920 98.430770 140.0
6.76 6.797290 4.069230 98.307690 145.641030
6.75 6.786910 4.061540 98.184620 151.282050
6.74 6.776520 4.053850 98.061540 156.923080
6.73 6.766140 4.046150 97.938460 162.56410
6.72 6.755760 4.038460 97.815380 168.205130
6.71 6.747270 4.030770 97.692310 173.846150
6.70 6.738780 4.023080 97.569230 179.487180
6.69 6.730290 4.015380 97.446150 185.128210
6.68 6.721810 4.007690 97.323080 190.769230
6.67 6.713320 4.0 97.20 196.410260
6.66 6.702480 4.007690 96.884620 202.051280
6.65 6.691650 4.015380 96.569230 207.692310
6.64 6.680810 4.023080 96.253850 213.333330
6.63 6.669980 4.030770 95.938460 214.722220
6.62 6.659370 4.038460 95.623080 216.111110
6.61 6.648760 4.046150 95.307690 217.50
6.60 6.638150 4.053850 94.992310 218.888890
6.59 6.627540 4.061540 94.676920 220.277780
6.58 6.616930 4.069230 94.361540 221.666670
6.57 6.606320 4.076920 94.046150 223.055560
6.56 6.595710 4.084620 93.730770 224.444440
6.55 6.58510 4.092310 93.415380 225.833330
6.54 6.576610 4.10 93.10 227.222220
6.53 6.568130 4.091670 93.283330 228.611110
6.52 6.559640 4.083330 93.466670 230.0
6.51 6.551150 4.0750 93.650 227.43590
6.50 6.542660 4.066670 93.833330 224.871790
6.49 6.531830 4.058330 94.016670 222.307690
6.48 6.520990 4.050 94.20 219.743590
6.47 6.510160 4.041670 94.383330 217.179490
6.46 6.499320 4.033330 94.566670 214.615380
6.45 6.488710 4.0250 94.750 212.051280
6.44 6.47810 4.016670 94.933330 209.487180
6.43 6.467490 4.008330 95.116670 206.923080
6.42 6.456880 4.0 95.30 204.358970
6.41 6.446280 3.992310 95.223080 201.794870
6.40 6.435670 3.984620 95.146150 199.230770
6.39 6.425060 3.976920 95.069230 196.666670
6.38 6.414450 3.969230 94.992310 196.666670
6.37 6.405780 3.961540 94.915380 196.666670
6.36 6.397110 3.953850 94.838460 196.666670
6.35 6.388440 3.946150 94.761540 196.666670
6.34 6.379770 3.938460 94.684620 196.666670
6.33 6.371110 3.930770 94.607690 196.666670
6.32 6.36050 3.923080 94.530770 196.666670
6.31 6.349890 3.915380 94.453850 196.666670
