~VERSION INFORMATION SECTION
VERS. 2.0 : CWLS LAS-VERSION 2.0
WRAP. NO : One line per depth step
~WELL INFORMATION SECTION
# MNEM.UNIT VALUE/NAME DESCRIPTION
#-------- -------------- ---------------------
STRT.Metres 14 : Start
STOP.Metres 0.38 : Stop
STEP.Metres -0.01 : Step
NULL.  -999.25 :NULL VALUE
DATE. 2025-47-11 : DATE
~CURVE INFORMATION SECTION
DEPTH.Metres : 0 Depth
Depth. : 1 Depth
Incline.Deg : 2 Incline
Azimuth.Deg : 3 Azimuth
GR.CPS : 4 GR
~PARAMETER INFORMATION SECTION
~OTHER
#-------------------------------------------------
#Produced By: GeoVista Logger - Version 7.1.107.0
Natural Gamma Sonde - 6447
Verticality Sonde - 6292
#-------------------------------------------------
~ASCII LOG DATA
# ...
9.80 9.811290 4.60 97.60 146.666670
9.79 9.799550 4.60 97.90 140.0
9.78 9.788710 4.60 98.533330 133.333330
9.77 9.777880 4.60 99.166670 146.666670
9.76 9.767040 4.60 99.80 160.0
9.75 9.756210 4.60 99.10 173.333330
9.74 9.744470 4.60 98.40 172.222220
9.73 9.733630 4.60 97.70 171.111110
9.72 9.72280 4.60 97.10 170.0
9.71 9.711960 4.60 96.50 159.166670
9.70 9.701130 4.60 95.90 148.333330
9.69 9.695710 4.60 95.30 137.50
9.68 9.690290 4.60 96.566670 126.666670
9.67 9.679460 4.60 97.833330 127.777780
9.66 9.668620 4.60 99.10 128.888890
9.65 9.657790 4.60 98.833330 130.0
9.64 9.646950 4.60 98.566670 134.444440
9.63 9.636120 4.60 98.30 138.888890
9.62 9.625280 4.60 98.0 143.333330
9.61 9.613540 4.60 97.70 162.222220
9.60 9.602710 4.60 97.40 181.111110
9.59 9.591870 4.60 97.10 200.0
9.58 9.581040 4.60 98.0 194.166670
9.57 9.575620 4.60 98.90 188.333330
9.56 9.57020 4.60 99.80 182.50
9.55 9.559370 4.60 98.233330 176.666670
9.54 9.548530 4.60 96.666670 154.444440
9.53 9.53770 4.60 95.10 132.222220
9.52 9.526860 4.6250 95.050 110.0
9.51 9.516030 4.650 95.0 121.111110
9.50 9.505190 4.6750 94.950 132.222220
9.49 9.494360 4.70 94.90 143.333330
9.48 9.482620 4.666670 96.733330 145.0
9.47 9.471780 4.633330 98.566670 146.666670
9.46 9.460950 4.60 100.40 148.333330
9.45 9.455530 4.60 99.366670 150.0
9.44 9.450110 4.60 98.333330 158.064520
9.43 9.439280 4.60 97.30 166.129030
9.42 9.428440 4.60 97.033330 174.193550
9.41 9.417610 4.60 96.766670 165.017920
9.40 9.406770 4.60 96.50 155.842290
9.39 9.395940 4.60 97.20 146.666670
9.38 9.38510 4.60 97.90 136.666670
9.37 9.373360 4.60 98.60 126.666670
9.36 9.362530 4.60 99.30 116.666670
9.35 9.351690 4.60 99.0 106.666670
9.34 9.340860 4.60 98.70 124.444440
9.33 9.335440 4.60 98.40 142.222220
9.32 9.330020 4.60 96.766670 160.0
9.31 9.318280 4.60 95.133330 156.666670
9.30 9.307450 4.60 93.50 153.333330
9.29 9.296610 4.5750 94.8750 150.0
9.28 9.285780 4.550 96.250 143.333330
9.27 9.274940 4.5250 97.6250 136.666670
9.26 9.264110 4.50 99.0 130.0
9.25 9.253270 4.50 99.20 144.166670
9.24 9.241530 4.50 99.40 158.333330
9.23 9.236120 4.50 99.60 172.50
9.22 9.23070 4.533330 98.333330 186.666670
9.21 9.219860 4.566670 97.066670 187.777780
9.20 9.209030 4.60 95.80 188.888890
9.19 9.198190 4.60 95.833330 190.0
9.18 9.187360 4.60 95.866670 193.333330
9.17 9.175620 4.60 95.90 196.666670
9.16 9.164790 4.5750 96.40 200.0
9.15 9.153050 4.550 96.90 195.833330
9.14 9.142210 4.5250 97.40 191.666670
9.13 9.136790 4.50 97.90 187.50
9.12 9.131380 4.533330 97.266670 183.333330
9.11 9.119640 4.566670 96.633330 177.777780
9.10 9.10880 4.60 96.0 172.222220
9.09 9.097970 4.60 96.70 166.666670
9.08 9.087130 4.60 97.40 162.222220
9.07 9.07630 4.60 98.10 157.777780
9.06 9.064560 4.60 97.633330 153.333330
9.05 9.053720 4.60 97.166670 171.666670
9.04 9.042890 4.60 96.70 190.0
9.03 9.032050 4.5750 97.350 208.333330
9.02 9.021220 4.550 98.0 226.666670
9.01 9.01580 4.5250 98.650 214.444440
9.00 9.010380 4.50 99.30 202.222220
8.99 8.998650 4.50 99.10 190.0
8.98 8.987810 4.50 98.90 177.777780
8.97 8.976980 4.50 98.70 165.555560
8.96 8.966140 4.533330 97.50 153.333330
8.95 8.95530 4.566670 96.30 154.444440
8.94 8.943570 4.60 95.10 155.555560
8.93 8.932730 4.60 95.4250 156.666670
8.92 8.92190 4.60 95.750 159.166670
8.91 8.911060 4.60 96.0750 161.666670
8.90 8.905640 4.60 96.40 164.166670
8.89 8.900230 4.566670 96.733330 166.666670
8.88 8.888490 4.533330 97.066670 164.444440
8.87 8.877650 4.50 97.40 162.222220
8.86 8.866820 4.50 96.70 160.0
8.85 8.855980 4.50 96.0 181.111110
8.84 8.844240 4.50 95.30 202.222220
8.83 8.833410 4.50 95.90 223.333330
8.82 8.822570 4.50 96.50 206.209680
8.81 8.817160 4.50 97.10 189.086020
8.80 8.811740 4.50 97.70 171.962370
8.79 8.80 4.50 97.433330 154.838710
8.78 8.789160 4.50 97.166670 155.448030
8.77 8.778330 4.50 96.90 156.057350
8.76 8.767490 4.50 96.90 156.666670
8.75 8.756660 4.50 96.90 170.0
8.74 8.745820 4.50 96.90 183.333330
8.73 8.734990 4.50 97.1750 196.666670
8.72 8.724150 4.50 97.450 186.666670
8.71 8.713320 4.50 97.7250 176.666670
8.70 8.702480 4.50 98.0 166.666670
8.69 8.691650 4.50 96.966670 165.833330
8.68 8.686230 4.50 95.933330 165.0
8.67 8.680810 4.50 94.90 164.166670
8.66 8.669980 4.533330 95.533330 163.333330
8.65 8.659140 4.566670 96.166670 147.777780
8.64 8.648310 4.60 96.80 132.222220
8.63 8.637470 4.566670 96.90 116.666670
8.62 8.626640 4.533330 97.0 126.666670
8.61 8.61580 4.50 97.10 136.666670
8.60 8.604970 4.50 96.6750 146.666670
8.59 8.594130 4.50 96.250 148.333330
8.58 8.58330 4.50 95.8250 150.0
8.57 8.572460 4.50 95.40 151.666670
8.56 8.561630 4.50 96.033330 153.333330
8.55 8.556210 4.50 96.666670 155.555560
8.54 8.550790 4.50 97.30 157.777780
8.53 8.539950 4.50 97.166670 160.0
8.52 8.528220 4.50 97.033330 160.0
8.51 8.517380 4.50 96.90 160.0
8.50 8.506550 4.50 96.10 160.0
8.49 8.495710 4.50 95.30 183.333330
8.48 8.484880 4.50 94.50 206.666670
8.47 8.474040 4.50 93.70 230.0
8.46 8.463210 4.50 94.333330 215.0
8.45 8.452370 4.50 94.966670 200.0
8.44 8.441530 4.50 95.60 185.0
8.43 8.436120 4.50 95.733330 170.0
8.42 8.43070 4.50 95.866670 175.555560
8.41 8.419860 4.50 96.0 181.111110
8.40 8.409030 4.466670 96.233330 186.666670
8.39 8.398190 4.433330 96.466670 178.41270
8.38 8.386460 4.40 96.70 170.158730
8.37 8.375620 4.40 96.0750 161.904760
8.36 8.364790 4.40 95.450 165.873020
8.35 8.353950 4.40 94.8250 169.841270
8.34 8.343120 4.40 94.20 173.809520
8.33 8.332280 4.40 95.033330 177.777780
8.32 8.321440 4.40 95.866670 176.29630
8.31 8.316030 4.40 96.70 174.814810
8.30 8.310610 4.40 95.733330 173.333330
8.29 8.298870 4.40 94.766670 166.666670
8.28 8.288040 4.40 93.80 160.0
8.27 8.27720 4.40 93.633330 153.333330
8.26 8.266370 4.40 93.466670 162.50
8.25 8.254630 4.40 93.30 171.666670
8.24 8.243790 4.3750 94.7750 180.833330
8.23 8.232960 4.350 96.250 190.0
8.22 8.222120 4.3250 97.7250 164.444440
8.21 8.216250 4.30 99.20 138.888890
8.20 8.210380 4.30 98.666670 113.333330
8.19 8.199550 4.30 98.133330 134.695340
8.18 8.188710 4.30 97.60 156.057350
8.17 8.177880 4.30 95.866670 177.419350
8.16 8.166140 4.30 94.133330 179.390680
8.15 8.15530 4.30 92.40 181.362010
8.14 8.144470 4.30 93.80 183.333330
8.13 8.133630 4.30 95.20 186.666670
8.12 8.12280 4.30 96.60 190.0
8.11 8.111060 4.30 98.0 193.333330
8.10 8.105640 4.333330 97.0 196.666670
8.09 8.100230 4.366670 96.0 186.666670
8.08 8.089390 4.40 95.0 176.666670
8.07 8.077650 4.366670 94.666670 166.666670
8.06 8.066820 4.333330 94.333330 184.444440
8.05 8.055980 4.30 94.0 202.222220
8.04 8.045150 4.266670 94.50 220.0
8.03 8.033410 4.233330 95.0 215.833330
8.02 8.022570 4.20 95.50 211.666670
8.01 8.017160 4.2250 95.40 207.50
8.00 8.011740 4.250 95.30 203.333330
7.99 8.0 4.2750 95.20 197.777780
7.98 7.989160 4.30 95.10 192.222220
7.97 7.978330 4.30 95.666670 186.666670
7.96 7.966590 4.30 96.233330 190.0
7.95 7.955760 4.30 96.80 193.333330
7.94 7.944920 4.30 96.666670 196.666670
7.93 7.934090 4.30 96.533330 201.666670
7.92 7.923250 4.30 96.40 206.666670
7.91 7.911510 4.30 96.3250 211.666670
7.90 7.906090 4.30 96.250 216.666670
7.89 7.900680 4.30 96.1750 192.222220
7.88 7.889840 4.30 96.10 167.777780
7.87 7.879010 4.30 96.766670 143.333330
7.86 7.868170 4.30 97.433330 160.0
7.85 7.857340 4.30 98.10 176.666670
7.84 7.84650 4.30 97.466670 193.333330
7.83 7.835670 4.30 96.833330 174.444440
7.82 7.824830 4.30 96.20 155.555560
7.81 7.8140 4.30 95.650 136.666670
7.80 7.803160 4.30 95.10 150.0
7.79 7.792330 4.30 94.550 163.333330
7.78 7.781490 4.30 94.0 176.666670
7.77 7.776070 4.30 95.50 190.0
7.76 7.770650 4.30 97.0 186.666670
7.75 7.759820 4.30 98.50 183.333330
7.74 7.748980 4.30 97.866670 180.0
7.73 7.737250 4.30 97.233330 165.555560
7.72 7.726410 4.30 96.60 151.111110
7.71 7.715580 4.30 96.450 136.666670
7.70 7.704740 4.30 96.30 154.444440
7.69 7.693910 4.30 96.150 172.222220
7.68 7.683070 4.30 96.0 190.0
7.67 7.672230 4.30 95.766670 185.833330
7.66 7.66140 4.30 95.533330 181.666670
7.65 7.655980 4.30 95.30 177.50
7.64 7.650560 4.266670 96.433330 173.333330
7.63 7.638830 4.233330 97.566670 165.555560
