~VERSION INFORMATION SECTION
VERS. 2.0 : CWLS LAS-VERSION 2.0
WRAP. NO : One line per depth step
~WELL INFORMATION SECTION
# MNEM.UNIT VALUE/NAME DESCRIPTION
#-------- -------------- ---------------------
STRT.Metres 14 : Start
STOP.Metres 0.03 : Stop
STEP.Metres -0.01 : Step
NULL.  -999.25 :NULL VALUE
DATE. 2025-51-11 : DATE
~CURVE INFORMATION SECTION
DEPTH.Metres : 0 Depth
Depth. : 1 Depth
Incline.Deg : 2 Incline
Azimuth.Deg : 3 Azimuth
GR.CPS : 4 GR
~PARAMETER INFORMATION SECTION
~OTHER
#-------------------------------------------------
#Produced By: GeoVista Logger - Version 7.1.107.0
Natural Gamma Sonde - 6447
Verticality Sonde - 6292
#-------------------------------------------------
~ASCII LOG DATA
# ...
3.10 3.111960 3.270 88.990 124.666670
3.09 3.103390 3.280 89.060 120.666670
3.08 3.094360 3.290 89.130 116.666670
3.07 3.085330 3.30 89.20 127.333330
3.06 3.068170 3.220 88.480 138.0
3.05 3.059140 3.140 87.760 148.666670
3.04 3.050110 3.060 87.040 159.333330
3.03 3.041530 2.980 86.320 170.0
3.02 3.032960 2.90 85.60 167.222220
3.01 3.023930 2.918180 85.827270 164.444440
3.00 3.01490 2.936360 86.054550 161.666670
2.99 3.006320 2.954550 86.281820 158.888890
2.98 2.997740 2.972730 86.509090 156.111110
2.97 2.979680 2.990910 86.736360 153.333330
2.96 2.971110 3.009090 86.963640 147.333330
2.95 2.962530 3.027270 87.190910 141.333330
2.94 2.95350 3.045450 87.418180 135.333330
2.93 2.944470 3.063640 87.645450 129.333330
2.92 2.935890 3.081820 87.872730 123.333330
2.91 2.927310 3.10 88.10 134.666670
2.90 2.909260 3.080 87.30 146.0
2.89 2.900230 3.060 86.50 157.333330
2.88 2.89120 3.040 85.70 168.666670
2.87 2.882170 3.020 84.90 180.0
2.86 2.873140 3.0 84.10 182.0
2.85 2.864560 2.90 84.70 184.0
2.84 2.855980 2.80 85.30 186.0
2.83 2.837920 2.70 85.90 188.0
2.82 2.829350 2.60 86.50 190.0
2.81 2.820770 2.50 87.10 188.333330
2.80 2.811740 2.520 87.020 186.666670
2.79 2.802710 2.540 86.940 185.0
2.78 2.793680 2.560 86.860 183.333330
2.77 2.784650 2.580 86.780 181.666670
2.76 2.776070 2.60 86.70 180.0
2.75 2.767490 2.650 86.10 176.666670
2.74 2.749440 2.70 85.50 173.333330
2.73 2.740410 2.750 84.90 170.0
2.72 2.731380 2.80 84.30 166.666670
2.71 2.722350 2.850 83.70 163.333330
2.70 2.713320 2.90 83.10 162.924730
2.69 2.704740 2.880 83.480 162.516130
2.68 2.696160 2.860 83.860 162.107530
2.67 2.67810 2.840 84.240 161.698920
2.66 2.669070 2.820 84.620 161.290320
2.65 2.660050 2.80 85.0 156.365590
2.64 2.651020 2.740 84.70 151.440860
2.63 2.641990 2.680 84.40 146.516130
2.62 2.633410 2.620 84.10 141.59140
2.61 2.624830 2.560 83.80 136.666670
2.60 2.61580 2.50 83.50 136.666670
2.59 2.606770 2.533330 83.566670 136.666670
2.58 2.588710 2.566670 83.633330 136.666670
2.57 2.579680 2.60 83.70 136.666670
2.56 2.570650 2.633330 83.766670 136.666670
2.55 2.562080 2.666670 83.833330 144.666670
2.54 2.55350 2.70 83.90 152.666670
2.53 2.544470 2.740 84.440 160.666670
2.52 2.535440 2.780 84.980 168.666670
2.51 2.518280 2.820 85.520 176.666670
2.50 2.509260 2.860 86.060 172.222220
2.49 2.500230 2.90 86.60 167.777780
2.48 2.491650 2.90 86.240 163.333330
2.47 2.483070 2.90 85.880 158.888890
2.46 2.474040 2.90 85.520 154.444440
2.45 2.465010 2.90 85.160 150.0
2.44 2.456430 2.90 84.80 154.0
2.43 2.447860 2.850 85.533330 158.0
2.42 2.42980 2.80 86.266670 162.0
2.41 2.421220 2.750 87.0 166.0
2.40 2.412640 2.70 87.733330 170.0
2.39 2.403610 2.650 88.466670 164.0
2.38 2.394580 2.60 89.20 158.0
2.37 2.3860 2.60 88.440 152.0
2.36 2.377430 2.60 87.680 146.0
2.35 2.359370 2.60 86.920 140.0
2.34 2.350790 2.60 86.160 148.363640
2.33 2.342210 2.60 85.40 156.727270
2.32 2.333630 2.560 85.60 165.090910
2.31 2.325060 2.520 85.80 173.454550
2.30 2.30790 2.480 86.0 181.818180
2.29 2.299320 2.440 86.20 186.507180
2.28 2.290740 2.40 86.40 191.196170
2.27 2.282170 2.450 86.833330 195.885170
2.26 2.273590 2.50 87.266670 200.574160
2.25 2.265010 2.550 87.70 205.263160
2.24 2.256430 2.60 88.133330 202.71930
2.23 2.239280 2.650 88.566670 200.175440
2.22 2.230250 2.70 89.0 197.631580
2.21 2.221220 2.680 88.120 195.087720
2.20 2.212640 2.660 87.240 192.543860
2.19 2.204060 2.640 86.360 190.0
2.18 2.195490 2.620 85.480 194.0
2.17 2.186910 2.60 84.60 198.0
2.16 2.168850 2.540 85.080 202.0
2.15 2.160270 2.480 85.560 206.0
2.14 2.151690 2.420 86.040 210.0
2.13 2.143120 2.360 86.520 212.0
2.12 2.134540 2.30 87.0 214.0
2.11 2.125510 2.266670 86.483330 216.0
2.10 2.116480 2.233330 85.966670 218.0
2.09 2.099320 2.20 85.450 220.0
2.08 2.090290 2.166670 84.933330 220.0
2.07 2.081260 2.133330 84.416670 220.0
2.06 2.072230 2.10 83.90 220.0
2.05 2.063210 2.120 84.840 220.0
2.04 2.054180 2.140 85.780 220.0
2.03 2.045150 2.160 86.720 220.0
2.02 2.036120 2.180 87.660 218.666670
2.01 2.027090 2.20 88.60 217.333330
2.00 2.009030 2.240 88.320 216.0
1.99 2.0 2.280 88.040 214.666670
1.98 1.990970 2.320 87.760 213.333330
1.97 1.982390 2.360 87.480 214.666670
1.96 1.973810 2.40 87.20 216.0
1.95 1.965240 2.40 87.280 217.333330
1.94 1.956660 2.40 87.360 218.666670
1.93 1.93860 2.40 87.440 220.0
1.92 1.930020 2.40 87.520 209.444440
1.91 1.921440 2.40 87.60 198.888890
1.90 1.912420 2.320 88.0 188.333330
1.89 1.903390 2.240 88.40 177.777780
1.88 1.894360 2.160 88.80 167.222220
1.87 1.885330 2.080 89.20 156.666670
1.86 1.868170 2.0 89.60 156.0
1.85 1.859140 1.983330 89.450 155.333330
1.84 1.850110 1.966670 89.30 154.666670
1.83 1.841080 1.950 89.150 154.0
1.82 1.832050 1.933330 89.0 153.333330
1.81 1.823480 1.916670 88.850 152.666670
1.80 1.81490 1.90 88.70 152.0
1.79 1.805870 1.960 89.080 151.333330
1.78 1.796840 2.020 89.460 150.666670
1.77 1.778780 2.080 89.840 150.0
1.76 1.769750 2.140 90.220 151.666670
1.75 1.760720 2.20 90.60 153.333330
1.74 1.752140 2.20 90.040 155.0
1.73 1.743570 2.20 89.480 156.666670
1.72 1.734540 2.20 88.920 158.333330
1.71 1.725510 2.20 88.360 160.0
1.70 1.707450 2.20 87.80 160.903230
1.69 1.698870 2.20 88.0 161.806450
1.68 1.690290 2.20 88.20 162.709680
1.67 1.681260 2.20 88.40 163.61290
1.66 1.672230 2.20 88.60 164.516130
1.65 1.663660 2.20 88.80 164.279570
1.64 1.655080 2.20 89.0 164.043010
1.63 1.646050 2.170 89.060 163.806450
1.62 1.637020 2.140 89.120 163.569890
1.61 1.619860 2.110 89.180 163.333330
1.60 1.611290 2.080 89.240 158.666670
1.59 1.602710 2.050 89.30 154.0
1.58 1.593680 2.020 89.360 149.333330
1.57 1.584650 1.990 89.420 144.666670
1.56 1.576070 1.960 89.480 140.0
1.55 1.567490 1.930 89.540 148.333330
1.54 1.549440 1.90 89.60 156.666670
1.53 1.540860 1.866670 90.116670 165.0
1.52 1.532280 1.833330 90.633330 173.333330
1.51 1.523250 1.80 91.150 181.666670
1.50 1.514220 1.766670 91.666670 190.0
1.49 1.505640 1.733330 92.183330 185.333330
1.48 1.497070 1.70 92.70 180.666670
1.47 1.479010 1.70 90.540 176.0
1.46 1.470430 1.70 88.380 171.333330
1.45 1.461850 1.70 86.220 166.666670
1.44 1.452820 1.70 84.060 162.666670
1.43 1.443790 1.70 81.90 158.666670
1.42 1.434760 1.70 84.960 154.666670
1.41 1.425730 1.70 88.020 150.666670
1.40 1.408580 1.70 91.080 146.666670
1.39 1.40 1.70 94.140 143.333330
1.38 1.391420 1.70 97.20 140.0
1.37 1.382390 1.660 95.180 136.666670
1.36 1.373360 1.620 93.160 133.333330
1.35 1.364790 1.580 91.140 130.0
1.34 1.356210 1.540 89.120 132.777780
1.33 1.338150 1.50 87.10 135.555560
1.32 1.329570 1.533330 87.783330 138.333330
1.31 1.320990 1.566670 88.466670 141.111110
1.30 1.311960 1.60 89.150 143.888890
1.29 1.302930 1.633330 89.833330 146.666670
1.28 1.293910 1.666670 90.516670 144.0
1.27 1.284880 1.70 91.20 141.333330
1.26 1.27630 1.720 91.960 138.666670
1.25 1.267720 1.740 92.720 136.0
1.24 1.249660 1.760 93.480 133.333330
1.23 1.241080 1.780 94.240 134.0
1.22 1.232510 1.80 95.0 134.666670
1.21 1.223480 1.780 95.460 135.333330
1.20 1.214450 1.760 95.920 136.0
1.19 1.205420 1.740 96.380 136.666670
1.18 1.196390 1.720 96.840 141.111110
1.17 1.179230 1.70 97.30 145.555560
1.16 1.170650 1.633330 96.683330 150.0
1.15 1.162080 1.566670 96.066670 154.444440
1.14 1.15350 1.50 95.450 158.888890
1.13 1.144920 1.433330 94.833330 163.333330
1.12 1.135890 1.366670 94.216670 162.666670
1.11 1.126860 1.30 93.60 162.0
1.10 1.109710 1.280 94.980 161.333330
1.09 1.101130 1.260 96.360 160.666670
1.08 1.092550 1.240 97.740 160.0
1.07 1.083520 1.220 99.120 154.666670
1.06 1.074490 1.20 100.50 149.333330
1.05 1.057340 1.260 99.740 144.0
1.04 1.048760 1.320 98.980 138.666670
1.03 1.040180 1.380 98.220 133.333330
1.02 1.031150 1.440 97.460 132.0
1.01 1.022120 1.50 96.70 130.666670
1.00 1.013540 1.516670 99.20 129.333330
0.99 1.004970 1.533330 101.70 128.0
0.98 0.995940 1.550 104.20 126.666670
0.97 0.986910 1.566670 106.70 128.282830
0.96 0.969750 1.583330 109.20 129.898990
0.95 0.95440 1.60 111.70 131.515150
0.94 0.942660 1.580 109.920 133.131310
0.93 0.933630 1.560 108.140 134.747470
0.92 0.92370 1.540 106.360 136.363640
