~VERSION INFORMATION SECTION
VERS. 2.0 : CWLS LAS-VERSION 2.0
WRAP. NO : One line per depth step
~WELL INFORMATION SECTION
# MNEM.UNIT VALUE/NAME DESCRIPTION
#-------- -------------- ---------------------
STRT.Metres 14 : Start
STOP.Metres 0.38 : Stop
STEP.Metres -0.01 : Step
NULL.  -999.25 :NULL VALUE
DATE. 2025-47-11 : DATE
~CURVE INFORMATION SECTION
DEPTH.Metres : 0 Depth
Depth. : 1 Depth
Incline.Deg : 2 Incline
Azimuth.Deg : 3 Azimuth
GR.CPS : 4 GR
~PARAMETER INFORMATION SECTION
~OTHER
#-------------------------------------------------
#Produced By: GeoVista Logger - Version 7.1.107.0
Natural Gamma Sonde - 6447
Verticality Sonde - 6292
#-------------------------------------------------
~ASCII LOG DATA
# ...
3.28 3.290290 3.30 88.30 191.111110
3.27 3.279460 3.30 88.333330 183.333330
3.26 3.268620 3.30 88.366670 182.222220
3.25 3.257790 3.30 88.40 181.111110
3.24 3.246950 3.30 87.4750 180.0
3.23 3.236120 3.30 86.550 158.709680
3.22 3.225280 3.30 85.6250 137.419350
3.21 3.214450 3.30 84.70 116.129030
3.20 3.203610 3.30 85.166670 117.930110
3.19 3.192780 3.30 85.633330 119.731180
3.18 3.181940 3.30 86.10 121.532260
3.17 3.171110 3.30 86.766670 123.333330
3.16 3.165690 3.30 87.433330 140.555560
3.15 3.160270 3.30 88.10 157.777780
3.14 3.149440 3.30 88.4250 175.0
3.13 3.13770 3.30 88.750 160.0
3.12 3.126860 3.30 89.0750 145.0
3.11 3.116030 3.30 89.40 130.0
3.10 3.105190 3.233330 89.0 139.166670
3.09 3.093450 3.166670 88.60 148.333330
3.08 3.082620 3.10 88.20 157.50
3.07 3.071780 3.133330 88.266670 166.666670
3.06 3.065910 3.166670 88.333330 177.777780
3.05 3.060050 3.20 88.40 188.888890
3.04 3.049210 3.233330 88.10 200.0
3.03 3.037470 3.266670 87.80 183.333330
3.02 3.026640 3.30 87.50 166.666670
3.01 3.01580 3.2750 87.4750 150.0
3.00 3.004970 3.250 87.450 155.555560
2.99 2.993230 3.2250 87.4250 161.111110
2.98 2.982390 3.20 87.40 166.666670
2.97 2.976520 3.133330 87.533330 177.50
2.96 2.970650 3.066670 87.666670 188.333330
2.95 2.959820 3.0 87.80 199.166670
2.94 2.948980 3.0 87.70 210.0
2.93 2.937250 3.0 87.60 180.0
2.92 2.926410 3.0 87.50 150.0
2.91 2.915580 3.033330 87.533330 120.0
2.90 2.903840 3.066670 87.566670 125.555560
2.89 2.8930 3.10 87.60 131.111110
2.88 2.881260 3.1250 87.050 136.666670
2.87 2.875850 3.150 86.50 140.0
2.86 2.870430 3.1750 85.950 143.333330
2.85 2.859590 3.20 85.40 146.666670
2.84 2.847860 3.066670 86.966670 150.0
2.83 2.836120 2.933330 88.533330 156.666670
2.82 2.825280 2.80 90.10 163.333330
2.81 2.813540 2.80 89.30 170.0
2.80 2.802710 2.80 88.50 167.777780
2.79 2.790970 2.80 87.70 165.555560
2.78 2.785550 2.850 88.4750 163.333330
2.77 2.780140 2.90 89.250 171.666670
2.76 2.76930 2.950 90.0250 180.0
2.75 2.757560 3.0 90.80 188.333330
2.74 2.746730 3.0 90.033330 196.666670
2.73 2.734990 3.0 89.266670 212.929290
2.72 2.724150 3.0 88.50 229.191920
2.71 2.712420 2.866670 87.533330 245.454550
2.70 2.7070 2.733330 86.566670 215.151520
2.69 2.701580 2.60 85.60 184.848480
2.68 2.689840 2.5750 86.0 154.545450
2.67 2.679010 2.550 86.40 144.856460
2.66 2.667270 2.5250 86.80 135.167460
2.65 2.656430 2.50 87.20 125.478470
2.64 2.64470 2.60 86.366670 115.789470
2.63 2.633860 2.70 85.533330 122.748540
2.62 2.622120 2.80 84.70 129.70760
2.61 2.61670 2.866670 85.166670 136.666670
2.60 2.611290 2.933330 85.633330 147.025090
2.59 2.599550 3.0 86.10 157.383510
2.58 2.588710 2.950 86.1250 167.741940
2.57 2.576980 2.90 86.150 154.973120
2.56 2.566140 2.850 86.1750 142.20430
2.55 2.55440 2.80 86.20 129.435480
2.54 2.542660 2.766670 85.833330 116.666670
2.53 2.531830 2.733330 85.466670 128.888890
2.52 2.525960 2.70 85.10 141.111110
2.51 2.520090 2.666670 85.333330 153.333330
2.50 2.509260 2.633330 85.566670 150.0
2.49 2.497520 2.60 85.80 146.666670
2.48 2.486680 2.6250 85.650 143.333330
2.47 2.474940 2.650 85.50 142.222220
2.46 2.464110 2.6750 85.350 141.111110
2.45 2.453270 2.70 85.20 140.0
2.44 2.441530 2.766670 86.40 147.777780
2.43 2.436120 2.833330 87.60 155.555560
2.42 2.43070 2.90 88.80 163.333330
2.41 2.419860 2.90 88.10 179.166670
2.40 2.408130 2.90 87.40 195.0
2.39 2.397290 2.90 86.70 210.833330
2.38 2.386460 2.90 86.0 226.666670
2.37 2.374720 2.766670 86.333330 211.111110
2.36 2.363880 2.633330 86.666670 195.555560
2.35 2.353050 2.50 87.0 180.0
2.34 2.341310 2.533330 86.766670 190.0
2.33 2.335890 2.566670 86.533330 200.0
2.32 2.330470 2.60 86.30 210.0
2.31 2.318740 2.6250 85.80 192.222220
2.30 2.30790 2.650 85.30 174.444440
2.29 2.297070 2.6750 84.80 156.666670
2.28 2.285330 2.70 84.30 153.333330
2.27 2.274490 2.733330 84.70 150.0
2.26 2.263660 2.766670 85.10 146.666670
2.25 2.252820 2.80 85.50 143.333330
2.24 2.241080 2.80 85.5750 145.555560
2.23 2.235670 2.80 85.650 147.777780
2.22 2.230250 2.80 85.7250 150.0
2.21 2.219410 2.80 85.80 153.333330
2.20 2.208580 2.666670 88.033330 156.666670
2.19 2.197740 2.533330 90.266670 160.0
2.18 2.186910 2.40 92.50 173.571430
2.17 2.176070 2.40 90.066670 187.142860
2.16 2.165240 2.40 87.633330 200.714290
2.15 2.15440 2.40 85.20 214.285710
2.14 2.143570 2.3750 86.5250 183.597880
2.13 2.132730 2.350 87.850 152.910050
2.12 2.120990 2.3250 89.1750 122.222220
2.11 2.115580 2.30 90.50 143.70370
2.10 2.110160 2.30 87.0 165.185190
2.09 2.099320 2.30 83.50 186.666670
2.08 2.088490 2.30 80.0 190.833330
2.07 2.076750 2.366670 82.30 195.0
2.06 2.065910 2.433330 84.60 199.166670
2.05 2.055080 2.50 86.90 203.333330
2.04 2.043340 2.450 86.70 214.444440
2.03 2.032510 2.40 86.50 225.555560
2.02 2.027090 2.350 86.30 236.666670
2.01 2.021670 2.30 86.10 224.444440
2.00 2.009930 2.30 86.933330 212.222220
1.99 1.99910 2.30 87.766670 200.0
1.98 1.987360 2.30 88.60 207.258060
1.97 1.975620 2.333330 89.866670 214.516130
1.96 1.964790 2.366670 91.133330 221.774190
1.95 1.953050 2.40 92.40 229.032260
1.94 1.947180 2.450 91.650 222.688170
1.93 1.941310 2.50 90.90 216.344090
1.92 1.929570 2.550 90.150 210.0
1.91 1.917830 2.60 89.40 198.333330
1.90 1.90790 2.50 88.766670 186.666670
1.89 1.897070 2.40 88.133330 175.0
1.88 1.885330 2.30 87.50 163.333330
1.87 1.874490 2.233330 87.033330 155.555560
1.86 1.863660 2.166670 86.566670 147.777780
1.85 1.851920 2.10 86.10 140.0
1.84 1.841080 2.10 87.266670 148.333330
1.83 1.835670 2.10 88.433330 156.666670
1.82 1.830250 2.10 89.60 165.0
1.81 1.818510 2.1250 89.2250 167.916670
1.80 1.807670 2.150 88.850 170.833330
1.79 1.795940 2.1750 88.4750 173.750
1.78 1.78510 2.20 88.10 176.666670
1.77 1.773360 2.266670 88.90 160.0
1.76 1.762530 2.333330 89.70 143.333330
1.75 1.756660 2.40 90.50 126.666670
1.74 1.750790 2.30 89.10 130.0
1.73 1.739950 2.20 87.70 133.333330
1.72 1.728220 2.10 86.30 136.666670
1.71 1.717380 2.050 86.6750 140.0
1.70 1.705640 2.0 87.050 155.555560
1.69 1.694810 1.950 87.4250 171.111110
1.68 1.683070 1.90 87.80 186.666670
1.67 1.672230 1.866670 88.433330 175.555560
1.66 1.666370 1.833330 89.066670 164.444440
1.65 1.66050 1.80 89.70 153.333330
1.64 1.649660 1.90 90.350 158.181820
1.63 1.637920 2.0 91.0 163.03030
1.62 1.627090 2.10 91.650 167.878790
1.61 1.615350 2.20 92.30 172.727270
1.60 1.604510 2.20 92.80 172.294370
1.59 1.593680 2.20 93.30 171.861470
1.58 1.581940 2.20 93.80 171.428570
1.57 1.571110 2.10 92.433330 155.026460
1.56 1.565690 2.0 91.066670 138.624340
1.55 1.560270 1.90 89.70 122.222220
1.54 1.548530 1.8750 89.5750 140.833330
1.53 1.53770 1.850 89.450 159.444440
1.52 1.526860 1.8250 89.3250 178.055560
1.51 1.515120 1.80 89.20 196.666670
1.50 1.504290 1.766670 91.366670 173.333330
1.49 1.493450 1.733330 93.533330 150.0
1.48 1.481720 1.70 95.70 126.666670
1.47 1.470880 1.70 94.933330 133.333330
1.46 1.465460 1.70 94.166670 140.0
1.45 1.460050 1.70 93.40 146.666670
1.44 1.448310 1.750 94.40 153.333330
1.43 1.437470 1.80 95.40 158.888890
1.42 1.426640 1.850 96.40 164.444440
1.41 1.41490 1.90 97.40 170.0
1.40 1.404060 1.833330 94.633330 172.222220
1.39 1.393230 1.766670 91.866670 174.444440
1.38 1.381490 1.70 89.10 176.666670
1.37 1.376070 1.6750 88.8750 170.0
1.36 1.370650 1.650 88.650 163.333330
1.35 1.358920 1.6250 88.4250 156.666670
1.34 1.348080 1.60 88.20 150.0
1.33 1.337250 1.566670 87.066670 149.462370
1.32 1.325510 1.533330 85.933330 148.924730
1.31 1.314670 1.50 84.80 148.38710
1.30 1.303840 1.566670 86.833330 151.146950
1.29 1.2930 1.633330 88.866670 153.906810
1.28 1.283970 1.70 90.90 156.666670
1.27 1.274490 1.70 94.450 161.111110
1.26 1.264410 1.70 98.0 165.555560
1.25 -999.25 1.70 101.550 170.0
1.24 -999.25 1.70 105.10 159.166670
1.23 -999.25 1.666670 103.666670 148.333330
1.22 -999.25 1.633330 102.233330 137.50
1.21 -999.25 1.60 100.80 126.666670
1.20 -999.25 1.566670 99.366670 140.0
1.19 -999.25 1.533330 97.933330 153.333330
1.18 -999.25 1.50 96.50 166.666670
1.17 -999.25 1.50 94.5750 165.555560
1.16 -999.25 1.50 92.650 164.444440
1.15 -999.25 1.50 90.7250 163.333330
