~VERSION INFORMATION SECTION
VERS. 2.0 : CWLS LAS-VERSION 2.0
WRAP. NO : One line per depth step
~WELL INFORMATION SECTION
# MNEM.UNIT VALUE/NAME DESCRIPTION
#-------- -------------- ---------------------
STRT.Metres 14 : Start
STOP.Metres 0.43 : Stop
STEP.Metres -0.01 : Step
NULL.  -999.25 :NULL VALUE
DATE. 2025-57-11 : DATE
~CURVE INFORMATION SECTION
DEPTH.Metres : 0 Depth
Depth. : 1 Depth
Incline.Deg : 2 Incline
Azimuth.Deg : 3 Azimuth
GR.CPS : 4 GR
~PARAMETER INFORMATION SECTION
~OTHER
#-------------------------------------------------
#Produced By: GeoVista Logger - Version 7.1.107.0
Natural Gamma Sonde - 6447
Verticality Sonde - 6292
#-------------------------------------------------
~ASCII LOG DATA
# ...
4.38 4.414670 3.80 95.10 209.230770
4.37 4.404060 3.741670 94.250 209.487180
4.36 4.393450 3.683330 93.40 209.743590
4.35 4.382840 3.6250 92.550 210.0
4.34 4.374540 3.566670 91.70 208.333330
4.33 4.366230 3.508330 90.850 206.666670
4.32 4.357920 3.450 90.0 205.0
4.31 4.349620 3.391670 89.150 203.333330
4.30 4.341310 3.333330 88.30 201.666670
4.29 4.33070 3.2750 87.450 200.0
4.28 4.320090 3.216670 86.60 198.333330
4.27 4.309480 3.158330 85.750 196.666670
4.26 4.298870 3.10 84.90 195.0
4.25 4.288490 3.10 85.023080 193.333330
4.24 4.27810 3.10 85.146150 191.666670
4.23 4.267720 3.10 85.269230 190.0
4.22 4.257340 3.10 85.392310 185.384620
4.21 4.246950 3.10 85.515380 180.769230
4.20 4.236570 3.10 85.638460 176.153850
4.19 4.226190 3.10 85.761540 171.538460
4.18 4.21580 3.10 85.884620 166.923080
4.17 4.205190 3.10 86.007690 162.307690
4.16 4.194580 3.10 86.130770 157.692310
4.15 4.183970 3.10 86.253850 153.076920
4.14 4.173360 3.10 86.376920 148.461540
4.13 4.164880 3.10 86.50 143.846150
4.12 4.156390 3.138460 86.638460 139.230770
4.11 4.14790 3.176920 86.776920 134.615380
4.10 4.139410 3.215380 86.915380 130.0
4.09 4.130930 3.253850 87.053850 130.384620
4.08 4.120540 3.292310 87.192310 130.769230
4.07 4.110160 3.330770 87.330770 131.153850
4.06 4.099770 3.369230 87.469230 131.538460
4.05 4.089390 3.407690 87.607690 131.923080
4.04 4.078780 3.446150 87.746150 132.307690
4.03 4.068170 3.484620 87.884620 132.692310
4.02 4.057560 3.523080 88.023080 133.076920
4.01 4.046950 3.561540 88.161540 133.461540
4.00 4.036570 3.60 88.30 133.846150
3.99 4.026190 3.583330 88.483330 134.230770
3.98 4.01580 3.566670 88.666670 134.615380
3.97 4.005420 3.550 88.850 135.0
3.96 3.994810 3.533330 89.033330 140.694440
3.95 3.98420 3.516670 89.216670 146.388890
3.94 3.973590 3.50 89.40 152.083330
3.93 3.962980 3.483330 89.583330 157.777780
3.92 3.954490 3.466670 89.766670 163.472220
3.91 3.9460 3.450 89.950 169.166670
3.90 3.937520 3.433330 90.133330 174.861110
3.89 3.929030 3.416670 90.316670 180.555560
3.88 3.920540 3.40 90.50 186.250
3.87 3.909930 3.384620 90.392310 191.944440
3.86 3.899320 3.369230 90.284620 197.638890
3.85 3.888710 3.353850 90.176920 203.333330
3.84 3.87810 3.338460 90.069230 203.846150
3.83 3.867270 3.323080 89.961540 204.358970
3.82 3.856430 3.307690 89.853850 204.871790
3.81 3.84560 3.292310 89.746150 205.384620
3.80 3.834760 3.276920 89.638460 205.897440
3.79 3.826280 3.261540 89.530770 206.410260
3.78 3.817790 3.246150 89.423080 206.923080
3.77 3.80930 3.230770 89.315380 207.43590
3.76 3.800810 3.215380 89.207690 207.948720
3.75 3.792330 3.20 89.10 208.461540
3.74 3.781720 3.2250 89.408330 208.974360
3.73 3.771110 3.250 89.716670 209.487180
3.72 3.76050 3.2750 90.0250 210.0
3.71 3.749890 3.30 90.333330 207.43590
3.70 3.739280 3.3250 90.641670 204.871790
3.69 3.728670 3.350 90.950 202.307690
3.68 3.718060 3.3750 91.258330 199.743590
3.67 3.707450 3.40 91.566670 197.179490
3.66 3.696610 3.4250 91.8750 194.615380
3.65 3.685780 3.450 92.183330 192.051280
3.64 3.674940 3.4750 92.491670 189.487180
3.63 3.664110 3.50 92.80 186.923080
3.62 3.655440 3.438460 92.161540 184.358970
3.61 3.646770 3.376920 91.523080 181.794870
3.60 3.63810 3.315380 90.884620 179.230770
3.59 3.629440 3.253850 90.246150 176.666670
3.58 3.620770 3.192310 89.607690 178.333330
3.57 3.610160 3.130770 88.969230 180.0
3.56 3.599550 3.069230 88.330770 181.666670
3.55 3.588940 3.007690 87.692310 183.333330
3.54 3.578330 2.946150 87.053850 185.0
3.53 3.567720 2.884620 86.415380 186.666670
3.52 3.557110 2.823080 85.776920 188.333330
3.51 3.54650 2.761540 85.138460 190.0
3.50 3.535890 2.70 84.50 191.666670
3.49 3.525510 2.646150 85.876920 193.333330
3.48 3.515120 2.592310 87.253850 195.0
3.47 3.504740 2.538460 88.630770 196.666670
3.46 3.494360 2.484620 90.007690 198.461540
3.45 3.483970 2.430770 91.384620 200.256410
3.44 3.473590 2.376920 92.761540 202.051280
3.43 3.463210 2.323080 94.138460 203.846150
3.42 3.452820 2.269230 95.515380 205.641030
3.41 3.444510 2.215380 96.892310 207.43590
3.40 3.436210 2.161540 98.269230 209.230770
3.39 3.42790 2.107690 99.646150 211.025640
3.38 3.419590 2.053850 101.023080 212.820510
3.37 3.411290 2.0 102.40 214.615380
3.36 3.400680 2.0120 101.8680 216.410260
3.35 3.390070 2.0240 101.3360 218.205130
3.34 3.379460 2.0360 100.8040 220.0
3.33 3.368850 2.0480 100.2720 216.153850
3.32 3.358240 2.060 99.740 212.307690
3.31 3.347630 2.0720 99.2080 208.461540
3.30 3.337020 2.0840 98.6760 204.615380
3.29 3.326410 2.0960 98.1440 200.769230
3.28 3.316030 2.1080 97.6120 196.923080
3.27 3.305640 2.120 97.080 193.076920
3.26 3.295260 2.1320 96.5480 189.230770
3.25 3.284880 2.1440 96.0160 185.384620
3.24 3.276210 2.1560 95.4840 181.538460
3.23 3.267540 2.1680 94.9520 177.692310
3.22 3.258870 2.180 94.420 173.846150
3.21 3.25020 2.1920 93.8880 170.0
3.20 3.241530 2.2040 93.3560 170.0
3.19 3.23070 2.2160 92.8240 170.0
3.18 3.219860 2.2280 92.2920 170.0
3.17 3.209030 2.240 91.760 170.0
3.16 3.198190 2.2520 91.2280 170.0
3.15 3.187580 2.2640 90.6960 170.0
3.14 3.176980 2.2760 90.1640 170.0
3.13 3.166370 2.2880 89.6320 170.0
3.12 3.155760 2.30 89.10 170.0
3.11 3.147090 2.338460 90.415380 170.0
3.10 3.138420 2.376920 91.730770 170.0
3.09 3.129750 2.415380 93.046150 170.0
3.08 3.121080 2.453850 94.361540 169.487180
3.07 3.112420 2.492310 95.676920 168.974360
3.06 3.101580 2.530770 96.992310 168.461540
3.05 3.090740 2.569230 98.307690 167.948720
3.04 3.079910 2.607690 99.623080 167.43590
3.03 3.069070 2.646150 100.938460 166.923080
3.02 3.058240 2.684620 102.253850 166.410260
3.01 3.04740 2.723080 103.569230 165.897440
3.00 3.036570 2.761540 104.884620 165.384620
2.99 3.025730 2.80 106.20 164.871790
2.98 3.017070 2.830770 105.907690 164.358970
2.97 3.00840 2.861540 105.615380 163.846150
2.96 2.999730 2.892310 105.323080 163.333330
2.95 2.991060 2.923080 105.030770 164.102560
2.94 2.982390 2.953850 104.738460 164.871790
2.93 2.971330 2.984620 104.446150 165.641030
2.92 2.960270 3.015380 104.153850 166.410260
2.91 2.949210 3.046150 103.861540 167.179490
2.90 2.938150 3.076920 103.569230 167.948720
2.89 2.927310 3.107690 103.276920 168.717950
2.88 2.916480 3.138460 102.984620 169.487180
2.87 2.905640 3.169230 102.692310 170.256410
2.86 2.894810 3.20 102.40 171.025640
2.85 2.886140 3.207690 100.307690 171.794870
2.84 2.877470 3.215380 98.215380 172.56410
2.83 2.86880 3.223080 96.123080 173.333330
2.82 2.860140 3.230770 94.030770 171.538460
2.81 2.851470 3.238460 91.938460 169.743590
2.80 2.840630 3.246150 89.846150 167.948720
2.79 2.82980 3.253850 87.753850 166.153850
2.78 2.818960 3.261540 85.661540 164.358970
2.77 2.808130 3.269230 83.569230 162.56410
2.76 2.797070 3.276920 81.476920 160.769230
2.75 2.7860 3.284620 79.384620 158.974360
2.74 2.774940 3.292310 77.292310 157.179490
2.73 2.763880 3.30 75.20 155.384620
2.72 2.755210 3.261540 76.161540 153.589740
2.71 2.746550 3.223080 77.123080 151.794870
2.70 2.737880 3.184620 78.084620 150.0
2.69 2.729210 3.146150 79.046150 151.388890
2.68 2.720540 3.107690 80.007690 152.777780
2.67 2.709480 3.069230 80.969230 154.166670
2.66 2.698420 3.030770 81.930770 155.555560
2.65 2.687360 2.992310 82.892310 156.944440
2.64 2.67630 2.953850 83.853850 158.333330
2.63 2.667450 2.915380 84.815380 159.722220
2.62 2.65860 2.876920 85.776920 161.111110
2.61 2.649750 2.838460 86.738460 162.50
2.60 2.64090 2.80 87.70 163.888890
2.59 2.632050 2.784620 87.453850 165.277780
2.58 2.621220 2.769230 87.207690 166.666670
2.57 2.610380 2.753850 86.961540 163.636360
2.56 2.599550 2.738460 86.715380 160.606060
2.55 2.588710 2.723080 86.469230 157.575760
2.54 2.57810 2.707690 86.223080 154.545450
2.53 2.567490 2.692310 85.976920 151.515150
2.52 2.556880 2.676920 85.730770 148.484850
2.51 2.546280 2.661540 85.484620 145.454550
2.50 2.537610 2.646150 85.238460 142.424240
2.49 2.528940 2.630770 84.992310 139.393940
2.48 2.520270 2.615380 84.746150 136.363640
2.47 2.51160 2.60 84.50 133.333330
2.46 2.502930 2.60 85.676920 130.303030
2.45 2.49210 2.60 86.853850 127.272730
