~VERSION INFORMATION SECTION
VERS. 2.0 : CWLS LAS-VERSION 2.0
WRAP. NO : One line per depth step
~WELL INFORMATION SECTION
# MNEM.UNIT VALUE/NAME DESCRIPTION
#-------- -------------- ---------------------
STRT.Metres 14 : Start
STOP.Metres 0.38 : Stop
STEP.Metres -0.01 : Step
NULL.  -999.25 :NULL VALUE
DATE. 2025-47-11 : DATE
~CURVE INFORMATION SECTION
DEPTH.Metres : 0 Depth
Depth. : 1 Depth
Incline.Deg : 2 Incline
Azimuth.Deg : 3 Azimuth
GR.CPS : 4 GR
~PARAMETER INFORMATION SECTION
~OTHER
#-------------------------------------------------
#Produced By: GeoVista Logger - Version 7.1.107.0
Natural Gamma Sonde - 6447
Verticality Sonde - 6292
#-------------------------------------------------
~ASCII LOG DATA
14.00 -999.25 -999.25 -999.25 -999.25
13.99 13.99910 -999.25 -999.25 -999.25
13.98 13.989160 -999.25 -999.25 -999.25
13.97 13.978330 -999.25 -999.25 -999.25
13.96 13.96840 -999.25 -999.25 -999.25
13.95 13.957560 6.102080 92.564580 -999.25
13.94 13.946730 6.10 92.50 -999.25
13.93 13.935890 6.10 92.650 -999.25
13.92 13.925060 6.10 92.80 -999.25
13.91 13.914220 6.10 93.050 -999.25
13.90 13.903390 6.10 93.30 -999.25
13.89 13.892550 6.10 92.850 -999.25
13.88 13.886680 6.10 92.40 -999.25
13.87 13.880810 6.10 92.166670 -999.25
13.86 13.869980 6.10 91.933330 -999.25
13.85 13.858240 6.10 91.70 -999.25
13.84 13.84740 6.10 93.50 -999.25
13.83 13.835670 6.10 95.30 -999.25
13.82 13.824830 6.10 95.20 -999.25
13.81 13.8140 6.10 95.10 -999.25
13.80 13.802260 6.10 95.0 -999.25
13.79 13.791420 6.10 94.60 -999.25
13.78 13.7860 6.10 94.20 -999.25
13.77 13.780590 6.10 93.80 -999.25
13.76 13.768850 6.10 93.733330 -999.25
13.75 13.758010 6.10 93.666670 -999.25
13.74 13.746280 6.10 93.60 -999.25
13.73 13.735440 6.066670 93.233330 -999.25
13.72 13.72460 6.033330 92.866670 -999.25
13.71 13.712870 6.0 92.50 -999.25
13.70 13.702030 6.0 92.966670 -999.25
13.69 13.696160 6.0 93.433330 -999.25
13.68 13.690290 6.0 93.90 -999.25
13.67 13.678560 6.0 94.366670 -999.25
13.66 13.667720 6.0 94.833330 -999.25
13.65 13.655980 6.0 95.30 -999.25
13.64 13.645150 6.0 93.866670 -999.25
13.63 13.633410 6.0 92.433330 -999.25
13.62 13.622570 6.0 91.0 -999.25
13.61 13.61670 6.0 91.733330 -999.25
13.60 13.610840 6.0 92.466670 -999.25
13.59 13.60 6.0 93.20 -999.25
13.58 13.588260 6.0 93.550 -999.25
13.57 13.577430 6.0 93.90 -999.25
13.56 13.565690 6.0 94.250 -999.25
13.55 13.554850 6.0 94.60 -999.25
13.54 13.543120 5.966670 94.033330 -999.25
13.53 13.532280 5.933330 93.466670 -999.25
13.52 13.526410 5.90 92.90 -999.25
13.51 13.520540 5.90 94.133330 -999.25
13.50 13.509710 5.90 95.366670 -999.25
13.49 13.497970 5.90 96.60 -999.25
13.48 13.487130 5.90 96.450 -999.25
13.47 13.47540 5.90 96.30 -999.25
13.46 13.464560 5.90 96.150 -999.25
13.45 13.453720 5.90 96.0 -999.25
13.44 13.441990 5.866670 95.233330 -999.25
13.43 13.436120 5.833330 94.466670 -999.25
13.42 13.430250 5.80 93.70 -999.25
13.41 13.419410 5.8250 94.4250 -999.25
13.40 13.408580 5.850 95.150 -999.25
13.39 13.397740 5.8750 95.8750 -999.25
13.38 13.3860 5.90 96.60 -999.25
13.37 13.375170 5.833330 96.30 64.611890
13.36 13.363430 5.766670 96.0 129.223790
13.35 13.35260 5.70 95.70 140.0
13.34 13.340860 5.733330 95.833330 136.666670
13.33 13.335440 5.766670 95.966670 133.333330
13.32 13.330020 5.80 96.10 133.333330
13.31 13.316030 5.7750 96.0750 133.333330
13.30 13.302930 5.750 96.050 133.333330
13.29 13.2930 5.7250 96.0250 123.333330
13.28 13.281260 5.70 96.0 113.333330
13.27 13.270430 5.666670 96.166670 120.0
13.26 13.265460 5.633330 96.333330 126.666670
13.25 13.26050 5.60 96.50 133.333330
13.24 13.248760 5.6250 96.70 148.333330
13.23 13.237920 5.650 96.90 163.333330
13.22 13.227090 5.6750 97.10 152.222220
13.21 13.215350 5.70 97.30 141.111110
13.20 13.204510 5.666670 98.30 130.0
13.19 13.192780 5.633330 99.30 124.301080
13.18 13.181040 5.60 100.30 118.602150
13.17 13.175620 5.60 98.70 112.903230
13.16 13.17020 5.60 97.10 131.935480
13.15 13.159370 5.60 95.50 150.967740
13.14 13.149440 5.60 94.9250 170.0
13.13 13.13860 5.60 94.350 171.111110
13.12 13.127770 5.60 93.7750 172.222220
13.11 13.116930 5.60 93.20 173.333330
13.10 13.106090 5.566670 95.60 162.222220
13.09 13.095260 5.533330 98.0 151.111110
13.08 13.084420 5.50 100.40 140.0
13.07 13.073590 5.50 99.033330 133.333330
13.06 13.062750 5.50 97.666670 126.666670
13.05 13.051920 5.50 96.30 120.0
13.04 13.041080 5.50 95.40 125.0
13.03 13.035670 5.50 94.50 130.0
13.02 13.030250 5.50 93.60 135.0
13.01 13.019410 5.50 93.966670 131.250
13.00 13.008580 5.50 94.333330 127.50
12.99 12.997740 5.50 94.70 123.750
12.98 12.986910 5.50 95.2250 120.0
12.97 12.976070 5.50 95.750 131.111110
12.96 12.964330 5.50 96.2750 142.222220
12.95 12.95350 5.50 96.80 153.333330
12.94 12.942660 5.50 96.166670 146.666670
12.93 12.931830 5.50 95.533330 140.0
12.92 12.920990 5.50 94.90 133.333330
12.91 12.915580 5.50 94.833330 135.0
12.90 12.910160 5.50 94.766670 136.666670
12.89 12.899320 5.50 94.70 138.333330
12.88 12.888490 5.4750 94.7750 140.0
12.87 12.877650 5.450 94.850 144.444440
12.86 12.866820 5.4250 94.9250 148.888890
12.85 12.855980 5.40 95.0 153.333330
12.84 12.845150 5.433330 95.333330 151.111110
12.83 12.833410 5.466670 95.666670 148.888890
12.82 12.822570 5.50 96.0 146.666670
12.81 12.811740 5.466670 96.0 148.333330
12.80 12.80090 5.433330 96.0 150.0
12.79 12.795490 5.40 96.0 151.666670
12.78 12.790070 5.40 95.933330 153.333330
12.77 12.779230 5.40 95.866670 137.777780
12.76 12.767490 5.40 95.80 122.222220
12.75 12.756660 5.40 96.150 106.666670
12.74 12.745820 5.40 96.50 118.333330
12.73 12.734090 5.40 96.850 130.0
12.72 12.723250 5.40 97.20 141.666670
12.71 12.712420 5.366670 96.933330 153.333330
12.70 12.7070 5.333330 96.666670 147.777780
12.69 12.701580 5.30 96.40 142.222220
12.68 12.689840 5.30 95.0 136.666670
12.67 12.679010 5.30 93.60 138.888890
12.66 12.668170 5.30 92.20 141.111110
12.65 12.657340 5.266670 93.80 143.333330
12.64 12.64650 5.233330 95.40 140.833330
12.63 12.635670 5.20 97.0 138.333330
12.62 12.623930 5.20 97.0750 135.833330
12.61 12.613090 5.20 97.150 133.333330
12.60 12.602260 5.20 97.2250 133.333330
12.59 12.596840 5.20 97.30 133.333330
12.58 12.591420 5.20 95.90 133.333330
12.57 12.579680 5.20 94.50 133.870970
12.56 12.568850 5.20 93.10 134.40860
12.55 12.558010 5.233330 94.266670 134.946240
12.54 12.546280 5.266670 95.433330 135.483870
12.53 12.535440 5.30 96.60 131.433690
12.52 12.52370 5.266670 96.733330 127.383510
12.51 12.512870 5.233330 96.866670 123.333330
12.50 12.502030 5.20 97.0 124.444440
12.49 12.496610 5.20 96.6750 125.555560
12.48 12.49120 5.20 96.350 126.666670
12.47 12.479460 5.20 96.0250 118.333330
12.46 12.468620 5.20 95.70 110.0
12.45 12.457790 5.20 95.566670 101.666670
12.44 12.446950 5.20 95.433330 93.333330
12.43 12.436120 5.20 95.30 111.666670
12.42 12.424380 5.20 95.466670 130.0
12.41 12.413540 5.20 95.633330 145.555560
12.40 12.402710 5.20 95.80 161.111110
12.39 12.391870 5.1750 96.1750 176.666670
12.38 12.381040 5.150 96.550 165.0
12.37 12.375620 5.1250 96.9250 153.333330
12.36 12.37020 5.10 97.30 141.666670
12.35 12.359370 5.10 96.866670 130.0
12.34 12.348530 5.10 96.433330 125.555560
12.33 12.33770 5.10 96.0 121.111110
12.32 12.326860 5.133330 95.60 116.666670
12.31 12.316030 5.166670 95.20 121.666670
12.30 12.305190 5.20 94.80 126.666670
12.29 12.294360 5.1750 95.0250 131.666670
12.28 12.283520 5.150 95.250 136.666670
12.27 12.272690 5.1250 95.4750 142.222220
12.26 12.261850 5.10 95.70 147.777780
12.25 12.255980 5.10 95.933330 153.333330
12.24 12.250110 5.10 96.166670 151.111110
12.23 12.239280 5.10 96.40 148.888890
12.22 12.228440 5.10 96.10 146.666670
12.21 12.217610 5.10 95.80 144.444440
12.20 12.206770 5.10 95.50 142.222220
12.19 12.195030 5.1250 95.1750 140.0
12.18 12.18420 5.150 94.850 157.777780
12.17 12.173360 5.1750 94.5250 175.555560
12.16 12.162530 5.20 94.20 193.333330
12.15 12.151690 5.166670 94.60 175.0
12.14 12.140860 5.133330 95.0 156.666670
12.13 12.135440 5.10 95.40 138.333330
12.12 12.130020 5.133330 95.333330 120.0
12.11 12.119190 5.166670 95.266670 129.206350
12.10 12.108350 5.20 95.20 138.41270
12.09 12.097520 5.20 94.70 147.619050
12.08 12.086680 5.20 94.20 131.746030
12.07 12.076750 5.20 93.70 115.873020
12.06 12.065010 5.20 93.20 100.0
12.05 12.054180 5.20 93.633330 110.0
12.04 12.043340 5.20 94.066670 120.0
12.03 12.032510 5.20 94.50 130.0
12.02 12.021670 5.20 94.866670 140.0
12.01 12.016250 5.20 95.233330 140.0
12.00 12.010840 5.20 95.60 140.0
11.99 12.0 5.20 95.30 140.0
11.98 11.989160 5.20 95.0 130.0
11.97 11.978330 5.20 94.70 120.0
11.96 11.967490 5.20 94.8250 110.0
11.95 11.956660 5.20 94.950 128.172040
11.94 11.945820 5.20 95.0750 146.344090
11.93 11.934090 5.20 95.20 164.516130
11.92 11.923250 5.166670 95.20 158.38710
11.91 11.912420 5.133330 95.20 152.258060
