~VERSION INFORMATION SECTION
VERS. 2.0 : CWLS LAS-VERSION 2.0
WRAP. NO : One line per depth step
~WELL INFORMATION SECTION
# MNEM.UNIT VALUE/NAME DESCRIPTION
#-------- -------------- ---------------------
STRT.Metres 14 : Start
STOP.Metres 0.32 : Stop
STEP.Metres -0.01 : Step
NULL.  -999.25 :NULL VALUE
DATE. 2025-54-11 : DATE
~CURVE INFORMATION SECTION
DEPTH.Metres : 0 Depth
Depth. : 1 Depth
Incline.Deg : 2 Incline
Azimuth.Deg : 3 Azimuth
GR.CPS : 4 GR
~PARAMETER INFORMATION SECTION
~OTHER
#-------------------------------------------------
#Produced By: GeoVista Logger - Version 7.1.107.0
Natural Gamma Sonde - 6447
Verticality Sonde - 6292
#-------------------------------------------------
~ASCII LOG DATA
# ...
10.03 10.051170 4.50 89.70 161.428570
10.02 10.042440 4.4750 90.4750 169.047620
10.01 10.02980 4.450 91.250 176.666670
10.00 10.017160 4.4250 92.0250 175.0
9.99 10.008730 4.40 92.80 173.333330
9.98 10.00030 4.3750 93.5750 171.666670
9.97 9.991870 4.350 94.350 170.0
9.96 9.978780 4.3250 95.1250 168.333330
9.95 9.965690 4.30 95.90 166.666670
9.94 9.957260 4.3250 95.7250 165.0
9.93 9.948830 4.350 95.550 163.333330
9.92 9.940410 4.3750 95.3750 163.809520
9.91 9.931980 4.40 95.20 164.285710
9.90 9.923550 4.4250 95.0250 164.76190
9.89 9.915120 4.450 94.850 165.23810
9.88 9.902480 4.4750 94.6750 165.714290
9.87 9.889840 4.50 94.50 166.190480
9.86 9.881110 4.514290 94.628570 166.666670
9.85 9.872390 4.528570 94.757140 166.287880
9.84 9.863660 4.542860 94.885710 165.909090
9.83 9.851020 4.557140 95.014290 165.53030
9.82 9.838370 4.571430 95.142860 165.151520
9.81 9.829950 4.585710 95.271430 164.772730
9.80 9.821520 4.60 95.40 164.393940
9.79 9.813090 4.58750 95.650 164.015150
9.78 9.80 4.5750 95.90 163.636360
9.77 9.786910 4.56250 96.150 162.918660
9.76 9.778480 4.550 96.40 162.200960
9.75 9.770050 4.53750 96.650 161.483250
9.74 9.761630 4.5250 96.90 160.765550
9.73 9.748980 4.51250 97.150 160.047850
9.72 9.736340 4.50 97.40 159.330140
9.71 9.727920 4.457140 97.128570 158.612440
9.70 9.719490 4.414290 96.857140 157.894740
9.69 9.711060 4.371430 96.585710 165.338350
9.68 9.698420 4.328570 96.314290 172.781950
9.67 9.685780 4.285710 96.042860 180.225560
9.66 9.677350 4.242860 95.771430 187.669170
9.65 9.668920 4.20 95.50 195.112780
9.64 9.66050 4.250 95.50 202.556390
9.63 9.652070 4.30 95.50 210.0
9.62 9.643640 4.350 95.50 202.083330
9.61 9.635210 4.40 95.50 194.166670
9.60 9.622570 4.450 95.50 186.250
9.59 9.609930 4.50 95.50 178.333330
9.58 9.60150 4.550 95.50 170.416670
9.57 9.593080 4.60 95.50 162.50
9.56 9.584650 4.593330 95.826670 154.583330
9.55 9.572010 4.586670 96.153330 146.666670
9.54 9.559370 4.580 96.480 150.0
9.53 9.550940 4.573330 96.806670 153.333330
9.52 9.542510 4.566670 97.133330 156.666670
9.51 9.534090 4.560 97.460 160.0
9.50 9.521440 4.553330 97.786670 163.333330
9.49 9.50880 4.546670 98.113330 166.666670
9.48 9.500380 4.540 98.440 170.0
9.47 9.491950 4.533330 98.766670 173.333330
9.46 9.483520 4.526670 99.093330 169.523810
9.45 9.470880 4.520 99.420 165.714290
9.44 9.458240 4.513330 99.746670 161.904760
9.43 9.450110 4.506670 100.073330 158.095240
9.42 9.441990 4.50 100.40 154.285710
9.41 9.433860 4.51250 100.26250 150.476190
9.40 9.421220 4.5250 100.1250 146.666670
9.39 9.408580 4.53750 99.98750 149.583330
9.38 9.400150 4.550 99.850 152.50
9.37 9.391720 4.56250 99.71250 155.416670
9.36 9.38330 4.5750 99.5750 158.333330
9.35 9.37020 4.58750 99.43750 161.250
9.34 9.357110 4.60 99.30 164.166670
9.33 9.348680 4.58750 98.90 167.083330
9.32 9.340260 4.5750 98.50 170.0
9.31 9.331830 4.56250 98.10 164.166670
9.30 9.319190 4.550 97.70 158.333330
9.29 9.306550 4.53750 97.30 152.50
9.28 9.298120 4.5250 96.90 146.666670
9.27 9.289690 4.51250 96.50 140.833330
9.26 9.281260 4.50 96.10 135.0
9.25 9.268620 4.485710 96.057140 129.166670
9.24 9.255980 4.471430 96.014290 123.333330
9.23 9.247550 4.457140 95.971430 123.333330
9.22 9.239130 4.442860 95.928570 123.333330
9.21 9.23070 4.428570 95.885710 123.333330
9.20 9.221970 4.414290 95.842860 123.333330
9.19 9.213240 4.40 95.80 123.333330
9.18 9.204510 4.41250 96.06250 123.333330
9.17 9.191870 4.4250 96.3250 123.333330
9.16 9.179230 4.43750 96.58750 123.750
9.15 9.17050 4.450 96.850 124.166670
9.14 9.161780 4.46250 97.11250 124.583330
9.13 9.153050 4.4750 97.3750 125.0
9.12 9.140410 4.48750 97.63750 125.416670
9.11 9.127770 4.50 97.90 125.833330
9.10 9.119340 4.50 97.30 126.250
9.09 9.110910 4.50 96.70 126.666670
9.08 9.102480 4.50 96.10 133.809520
9.07 9.089390 4.50 95.50 140.952380
9.06 9.07630 4.50 94.90 148.095240
9.05 9.067870 4.50 94.30 155.23810
9.04 9.059440 4.50 93.70 162.380950
9.03 9.051020 4.50 94.51250 169.523810
9.02 9.038370 4.50 95.3250 176.666670
9.01 9.025730 4.50 96.13750 174.583330
9.00 9.017310 4.50 96.950 172.50
8.99 9.008880 4.50 97.76250 170.416670
8.98 9.000450 4.50 98.5750 168.333330
8.97 8.991720 4.50 99.38750 166.250
8.96 8.982990 4.50 100.20 164.166670
8.95 8.974270 4.50 99.88750 162.083330
8.94 8.961630 4.50 99.5750 160.0
8.93 8.948980 4.50 99.26250 160.6250
8.92 8.940560 4.50 98.950 161.250
8.91 8.932130 4.50 98.63750 161.8750
8.90 8.92370 4.50 98.3250 162.50
8.89 8.911060 4.50 98.01250 163.1250
8.88 8.898420 4.50 97.70 163.750
8.87 8.889690 4.50 97.614290 164.3750
8.86 8.880960 4.50 97.528570 165.0
8.85 8.872230 4.50 97.442860 160.0
8.84 8.859590 4.50 97.357140 155.0
8.83 8.846950 4.50 97.271430 150.0
8.82 8.838530 4.50 97.185710 145.0
8.81 8.83010 4.50 97.10 140.0
8.80 8.821670 4.48750 96.68750 135.0
8.79 8.809030 4.4750 96.2750 130.0
8.78 8.796390 4.46250 95.86250 130.6250
8.77 8.787960 4.450 95.450 131.250
8.76 8.779530 4.43750 95.03750 131.8750
8.75 8.771110 4.4250 94.6250 132.50
8.74 8.758470 4.41250 94.21250 133.1250
8.73 8.745820 4.40 93.80 133.750
8.72 8.73740 4.38750 94.7250 134.3750
8.71 8.728970 4.3750 95.650 135.0
8.70 8.720540 4.36250 96.5750 139.791670
8.69 8.712110 4.350 97.50 144.583330
8.68 8.703690 4.33750 98.4250 149.3750
8.67 8.695260 4.3250 99.350 154.166670
8.66 8.682620 4.31250 100.2750 158.958330
8.65 8.669980 4.30 101.20 163.750
8.64 8.657340 4.328570 100.157140 168.541670
8.63 8.64470 4.357140 99.114290 173.333330
8.62 8.636570 4.385710 98.071430 170.476190
8.61 8.628440 4.414290 97.028570 167.619050
8.60 8.620320 4.442860 95.985710 164.76190
8.59 8.611890 4.471430 94.942860 161.904760
8.58 8.603460 4.50 93.90 159.047620
8.57 8.595030 4.50 94.650 156.190480
8.56 8.582390 4.50 95.40 153.333330
8.55 8.569750 4.50 96.150 153.750
8.54 8.561320 4.50 96.90 154.166670
8.53 8.55290 4.50 97.650 154.583330
8.52 8.544470 4.50 98.40 155.0
8.51 8.531830 4.50 99.150 155.416670
8.50 8.519190 4.50 99.90 155.833330
8.49 8.510760 4.485710 99.928570 156.250
8.48 8.502330 4.471430 99.957140 156.666670
8.47 8.493910 4.457140 99.985710 163.333330
8.46 8.481260 4.442860 100.014290 170.0
8.45 8.468620 4.428570 100.042860 176.666670
8.44 8.46050 4.414290 100.071430 183.333330
8.43 8.452370 4.40 100.10 190.0
8.42 8.444240 4.40 98.7750 196.666670
8.41 8.431150 4.40 97.450 203.333330
8.40 8.418060 4.40 96.1250 193.750
8.39 8.409630 4.40 94.80 184.166670
8.38 8.40120 4.40 93.4750 174.583330
8.37 8.392780 4.40 92.150 165.0
8.36 8.380140 4.40 90.8250 155.416670
8.35 8.367490 4.40 89.50 145.833330
8.34 8.359070 4.40 90.16250 136.250
8.33 8.350640 4.40 90.8250 126.666670
8.32 8.342210 4.40 91.48750 132.916670
8.31 8.329570 4.40 92.150 139.166670
8.30 8.316930 4.40 92.81250 145.416670
8.29 8.30850 4.40 93.4750 151.666670
8.28 8.300080 4.40 94.13750 157.916670
8.27 8.291650 4.40 94.80 164.166670
8.26 8.279010 4.371430 95.085710 170.416670
8.25 8.266370 4.342860 95.371430 176.666670
8.24 8.257640 4.314290 95.657140 173.333330
8.23 8.248910 4.285710 95.942860 170.0
8.22 8.240180 4.257140 96.228570 166.666670
8.21 8.231750 4.228570 96.514290 163.333330
8.20 8.223330 4.20 96.80 160.0
8.19 8.21490 4.1750 95.51250 156.666670
8.18 8.202260 4.150 94.2250 153.333330
8.17 8.189620 4.1250 92.93750 156.250
8.16 8.181190 4.10 91.650 159.166670
8.15 8.172760 4.0750 90.36250 162.083330
8.14 8.164330 4.050 89.0750 165.0
8.13 8.151240 4.0250 87.78750 167.916670
8.12 8.138150 4.0 86.50 170.833330
8.11 8.129720 4.013330 87.186670 173.750
8.10 8.121290 4.026670 87.873330 176.666670
8.09 8.112870 4.040 88.560 174.583330
8.08 8.100230 4.053330 89.246670 172.50
8.07 8.087580 4.066670 89.933330 170.416670
8.06 8.078860 4.080 90.620 168.333330
8.05 8.070130 4.093330 91.306670 166.250
8.04 8.06140 4.106670 91.993330 164.166670
8.03 8.052970 4.120 92.680 162.083330
8.02 8.044540 4.133330 93.366670 160.0
8.01 8.036120 4.146670 94.053330 162.857140
8.00 8.023020 4.160 94.740 165.714290
7.99 8.009930 4.173330 95.426670 168.571430
7.98 8.00150 4.186670 96.113330 171.428570
7.97 7.993080 4.20 96.80 174.285710
7.96 7.984650 4.150 94.86250 177.142860
