~VERSION INFORMATION SECTION
VERS. 2.0 : CWLS LAS-VERSION 2.0
WRAP. NO : One line per depth step
~WELL INFORMATION SECTION
# MNEM.UNIT VALUE/NAME DESCRIPTION
#-------- -------------- ---------------------
STRT.Metres 14 : Start
STOP.Metres 0.03 : Stop
STEP.Metres -0.01 : Step
NULL.  -999.25 :NULL VALUE
DATE. 2025-51-11 : DATE
~CURVE INFORMATION SECTION
DEPTH.Metres : 0 Depth
Depth. : 1 Depth
Incline.Deg : 2 Incline
Azimuth.Deg : 3 Azimuth
GR.CPS : 4 GR
~PARAMETER INFORMATION SECTION
~OTHER
#-------------------------------------------------
#Produced By: GeoVista Logger - Version 7.1.107.0
Natural Gamma Sonde - 6447
Verticality Sonde - 6292
#-------------------------------------------------
~ASCII LOG DATA
# ...
11.87 11.880810 4.980 93.720 139.333330
11.86 11.872230 4.920 93.780 138.0
11.85 11.863660 4.860 93.840 136.666670
11.84 11.855080 4.80 93.90 146.111110
11.83 11.84650 4.820 94.060 155.555560
11.82 11.829350 4.840 94.220 165.0
11.81 11.820770 4.860 94.380 174.444440
11.80 11.812190 4.880 94.540 183.888890
11.79 11.803610 4.90 94.70 193.333330
11.78 11.795030 4.920 93.920 186.0
11.77 11.777880 4.940 93.140 178.666670
11.76 11.76930 4.960 92.360 171.333330
11.75 11.760720 4.980 91.580 164.0
11.74 11.751690 5.0 90.80 156.666670
11.73 11.742660 5.0 90.930 152.0
11.72 11.734090 5.0 91.060 147.333330
11.71 11.725510 5.0 91.190 142.666670
11.70 11.708350 5.0 91.320 138.0
11.69 11.699770 5.0 91.450 133.333330
11.68 11.69120 5.0 91.580 140.0
11.67 11.682620 5.0 91.710 146.666670
11.66 11.674040 5.0 91.840 153.333330
11.65 11.665010 5.0 91.970 160.0
11.64 11.655980 5.0 92.10 166.666670
11.63 11.638830 5.0 93.280 167.333330
11.62 11.630250 5.0 94.460 168.0
11.61 11.621670 5.0 95.640 168.666670
11.60 11.613090 5.0 96.820 169.333330
11.59 11.604510 5.0 98.0 170.0
11.58 11.587360 4.966670 96.616670 160.0
11.57 11.578780 4.933330 95.233330 150.0
11.56 11.57020 4.90 93.850 140.0
11.55 11.562080 4.866670 92.466670 130.0
11.54 11.553950 4.833330 91.083330 120.0
11.53 11.545370 4.80 89.70 120.967740
11.52 11.536790 4.840 90.240 121.935480
11.51 11.519640 4.880 90.780 122.903230
11.50 11.511060 4.920 91.320 123.870970
11.49 11.502480 4.960 91.860 124.838710
11.48 11.493910 5.0 92.40 125.806450
11.47 11.485330 5.0 93.420 130.645160
11.46 11.468170 5.0 94.440 135.483870
11.45 11.459590 5.0 95.460 140.322580
11.44 11.451020 5.0 96.480 145.161290
11.43 11.442440 5.0 97.50 150.0
11.42 11.433860 4.960 97.080 141.333330
11.41 11.425280 4.920 96.660 132.666670
11.40 11.41670 4.880 96.240 124.0
11.39 11.399550 4.840 95.820 115.333330
11.38 11.391420 4.80 95.40 106.666670
11.37 11.38330 4.780 94.620 114.0
11.36 11.374720 4.760 93.840 121.333330
11.35 11.366140 4.740 93.060 128.666670
11.34 11.348980 4.720 92.280 136.0
11.33 11.340410 4.70 91.50 143.333330
11.32 11.331830 4.660 91.840 140.0
11.31 11.323250 4.620 92.180 136.666670
11.30 11.314670 4.580 92.520 133.333330
11.29 11.297520 4.540 92.860 130.0
11.28 11.288940 4.50 93.20 126.666670
11.27 11.280360 4.516670 93.783330 126.0
11.26 11.271780 4.533330 94.366670 125.333330
11.25 11.263210 4.550 94.950 124.666670
11.24 11.254630 4.566670 95.533330 124.0
11.23 11.246050 4.583330 96.116670 123.333330
11.22 11.228890 4.60 96.70 132.666670
11.21 11.219860 4.640 96.50 142.0
11.20 11.210840 4.680 96.30 151.333330
11.19 11.202260 4.720 96.10 160.666670
11.18 11.193680 4.760 95.90 170.0
11.17 11.18510 4.80 95.70 166.666670
11.16 11.176520 4.80 94.880 163.333330
11.15 11.159370 4.80 94.060 160.0
11.14 11.150790 4.80 93.240 156.666670
11.13 11.142210 4.80 92.420 153.333330
11.12 11.133180 4.80 91.60 155.0
11.11 11.124150 4.80 92.960 156.666670
11.10 11.115580 4.80 94.320 158.333330
11.09 11.1070 4.80 95.680 160.0
11.08 11.089840 4.80 97.040 161.666670
11.07 11.081260 4.80 98.40 163.333330
11.06 11.072690 4.760 98.080 154.303030
11.05 11.064110 4.720 97.760 145.272730
11.04 11.055530 4.680 97.440 136.242420
11.03 11.038370 4.640 97.120 127.212120
11.02 11.029350 4.60 96.80 118.181820
11.01 11.020320 4.60 96.630 128.229670
11.00 11.011740 4.60 96.460 138.277510
10.99 11.003160 4.60 96.290 148.325360
10.98 10.994580 4.60 96.120 158.373210
10.97 10.9860 4.60 95.950 168.421050
10.96 10.968850 4.60 95.780 166.736840
10.95 10.960270 4.60 95.610 165.052630
10.94 10.951690 4.60 95.440 163.368420
10.93 10.942660 4.60 95.270 161.684210
10.92 10.933630 4.60 95.10 160.0
10.91 10.925060 4.60 95.583330 177.090910
10.90 10.916480 4.60 96.066670 194.181820
10.89 10.899320 4.60 96.550 211.272730
10.88 10.890740 4.60 97.033330 228.363640
10.87 10.882170 4.60 97.516670 245.454550
10.86 10.873140 4.60 98.0 235.3110
10.85 10.864110 4.60 98.020 225.167460
10.84 10.855530 4.60 98.040 215.023920
10.83 10.846950 4.60 98.060 204.880380
10.82 10.82980 4.60 98.080 194.736840
10.81 10.820770 4.60 98.10 190.614040
10.80 10.811740 4.580 97.10 186.491230
10.79 10.803160 4.560 96.10 182.368420
10.78 10.794580 4.540 95.10 178.245610
10.77 10.7860 4.520 94.10 174.122810
10.76 10.777430 4.50 93.10 170.0
10.75 10.759370 4.520 93.90 165.333330
10.74 10.750790 4.540 94.70 160.666670
10.73 10.742210 4.560 95.50 156.0
10.72 10.733630 4.580 96.30 151.333330
10.71 10.725060 4.60 97.10 146.666670
10.70 10.716480 4.60 96.620 146.0
10.69 10.70790 4.60 96.140 145.333330
10.68 10.689840 4.60 95.660 144.666670
10.67 10.681260 4.60 95.180 144.0
10.66 10.672690 4.60 94.70 143.333330
10.65 10.664110 4.60 94.933330 134.0
10.64 10.655530 4.60 95.166670 124.666670
10.63 10.638370 4.60 95.40 115.333330
10.62 10.62980 4.60 95.633330 106.0
10.61 10.621220 4.60 95.866670 96.666670
10.60 10.612640 4.60 96.10 118.0
10.59 10.604060 4.60 95.940 139.333330
10.58 10.595490 4.60 95.780 160.666670
10.57 10.586910 4.60 95.620 182.0
10.56 10.569750 4.60 95.460 203.333330
10.55 10.560720 4.60 95.30 192.989250
10.54 10.551690 4.60 95.360 182.645160
10.53 10.543120 4.60 95.420 172.301080
10.52 10.534540 4.60 95.480 161.956990
10.51 10.517380 4.60 95.540 151.61290
10.50 10.50880 4.60 95.60 154.623660
10.49 10.500230 4.60 95.960 157.634410
10.48 10.491650 4.60 96.320 160.645160
10.47 10.483070 4.60 96.680 163.655910
10.46 10.474040 4.60 97.040 166.666670
10.45 10.465010 4.60 97.40 164.666670
10.44 10.447860 4.520 96.820 162.666670
10.43 10.439280 4.440 96.240 160.666670
10.42 10.43070 4.360 95.660 158.666670
10.41 10.422120 4.280 95.080 156.666670
10.40 10.413540 4.20 94.50 149.444440
10.39 10.404970 4.266670 95.116670 142.222220
10.38 10.396390 4.333330 95.733330 135.0
10.37 10.379230 4.40 96.350 127.777780
10.36 10.37020 4.466670 96.966670 120.555560
10.35 10.361170 4.533330 97.583330 113.333330
10.34 10.35260 4.60 98.20 122.666670
10.33 10.344020 4.60 98.030 132.0
10.32 10.335440 4.60 97.860 141.333330
10.31 10.326860 4.60 97.690 150.666670
10.30 10.30880 4.60 97.520 160.0
10.29 10.300230 4.60 97.350 164.0
10.28 10.291650 4.60 97.180 168.0
10.27 10.283070 4.60 97.010 172.0
10.26 10.274490 4.60 96.840 176.0
10.25 10.257340 4.60 96.670 180.0
10.24 10.248760 4.60 96.50 175.333330
10.23 10.240180 4.520 96.280 170.666670
10.22 10.231150 4.440 96.060 166.0
10.21 10.222120 4.360 95.840 161.333330
10.20 10.213540 4.280 95.620 156.666670
10.19 10.204970 4.20 95.40 149.333330
10.18 10.187810 4.260 95.70 142.0
10.17 10.179230 4.320 96.0 134.666670
10.16 10.170650 4.380 96.30 127.333330
10.15 10.162080 4.440 96.60 120.0
10.14 10.15350 4.50 96.90 128.888890
10.13 10.144470 4.509090 97.190910 137.777780
10.12 10.135440 4.518180 97.481820 146.666670
10.11 10.118280 4.527270 97.772730 155.555560
10.10 10.109260 4.536360 98.063640 164.444440
10.09 10.100230 4.545450 98.354550 173.333330
10.08 10.091650 4.554550 98.645450 168.0
10.07 10.083070 4.563640 98.936360 162.666670
10.06 10.074490 4.572730 99.227270 157.333330
10.05 10.065910 4.581820 99.518180 152.0
10.04 10.047860 4.590910 99.809090 146.666670
10.03 10.039280 4.60 100.10 142.0
10.02 10.03070 4.60 99.040 137.333330
10.01 10.022120 4.60 97.980 132.666670
10.00 10.013540 4.60 96.920 128.0
9.99 10.004510 4.60 95.860 123.333330
9.98 9.995490 4.60 94.80 138.0
9.97 9.978330 4.580 95.580 152.666670
9.96 9.96930 4.560 96.360 167.333330
9.95 9.960270 4.540 97.140 182.0
9.94 9.951690 4.520 97.920 196.666670
9.93 9.943120 4.50 98.70 195.555560
9.92 9.934540 4.520 97.80 194.444440
9.91 9.925960 4.540 96.90 193.333330
9.90 9.90790 4.560 96.0 192.222220
9.89 9.899320 4.580 95.10 191.111110
9.88 9.890740 4.60 94.20 190.0
9.87 9.882170 4.566670 94.750 181.333330
9.86 9.873590 4.533330 95.30 172.666670
9.85 9.865010 4.50 95.850 164.0
9.84 9.856430 4.466670 96.40 155.333330
9.83 9.838370 4.433330 96.950 146.666670
9.82 9.82980 4.40 97.50 142.666670
9.81 9.821220 4.40 97.720 138.666670
9.80 9.812640 4.40 97.940 134.666670
9.79 9.804060 4.40 98.160 130.666670
9.78 9.795490 4.40 98.380 126.666670
