~VERSION INFORMATION SECTION
VERS. 2.0 : CWLS LAS-VERSION 2.0
WRAP. NO : One line per depth step
~WELL INFORMATION SECTION
# MNEM.UNIT VALUE/NAME DESCRIPTION
#-------- -------------- ---------------------
STRT.Metres 14 : Start
STOP.Metres 0.03 : Stop
STEP.Metres -0.01 : Step
NULL.  -999.25 :NULL VALUE
DATE. 2025-51-11 : DATE
~CURVE INFORMATION SECTION
DEPTH.Metres : 0 Depth
Depth. : 1 Depth
Incline.Deg : 2 Incline
Azimuth.Deg : 3 Azimuth
GR.CPS : 4 GR
~PARAMETER INFORMATION SECTION
~OTHER
#-------------------------------------------------
#Produced By: GeoVista Logger - Version 7.1.107.0
Natural Gamma Sonde - 6447
Verticality Sonde - 6292
#-------------------------------------------------
~ASCII LOG DATA
# ...
5.32 5.332730 3.80 93.560 176.666670
5.31 5.324150 3.80 92.680 175.0
5.30 5.315580 3.80 91.80 173.333330
5.29 5.297520 3.80 92.160 175.333330
5.28 5.288940 3.80 92.520 177.333330
5.27 5.280360 3.80 92.880 179.333330
5.26 5.271780 3.80 93.240 181.333330
5.25 5.263210 3.80 93.60 183.333330
5.24 5.254630 3.80 93.140 202.666670
5.23 5.246050 3.80 92.680 222.0
5.22 5.228890 3.80 92.220 241.333330
5.21 5.220320 3.80 91.760 260.666670
5.20 5.211740 3.80 91.30 280.0
5.19 5.203160 3.80 91.472730 258.545450
5.18 5.194580 3.80 91.645450 237.090910
5.17 5.177430 3.80 91.818180 215.636360
5.16 5.168850 3.80 91.990910 194.181820
5.15 5.160270 3.80 92.163640 172.727270
5.14 5.151690 3.80 92.336360 177.129190
5.13 5.143120 3.80 92.509090 181.53110
5.12 5.134540 3.80 92.681820 185.933010
5.11 5.125960 3.80 92.854550 190.334930
5.10 5.10880 3.80 93.027270 194.736840
5.09 5.100230 3.80 93.20 191.789470
5.08 5.091650 3.80 92.320 188.842110
5.07 5.083070 3.80 91.440 185.894740
5.06 5.074490 3.80 90.560 182.947370
5.05 5.057340 3.80 89.680 180.0
5.04 5.048760 3.80 88.80 178.333330
5.03 5.040180 3.780 90.20 176.666670
5.02 5.03160 3.760 91.60 175.0
5.01 5.023020 3.740 93.0 173.333330
5.00 5.014450 3.720 94.40 171.666670
4.99 5.005870 3.70 95.80 170.0
4.98 4.988710 3.70 94.80 164.666670
4.97 4.980140 3.70 93.80 159.333330
4.96 4.971560 3.70 92.80 154.0
4.95 4.962980 3.70 91.80 148.666670
4.94 4.95440 3.70 90.80 143.333330
4.93 4.945820 3.70 89.80 146.0
4.92 4.937250 3.710 90.040 148.666670
4.91 4.919190 3.720 90.280 151.333330
4.90 4.910610 3.730 90.520 154.0
4.89 4.902030 3.740 90.760 156.666670
4.88 4.893450 3.750 91.0 150.666670
4.87 4.884880 3.760 91.240 144.666670
4.86 4.87630 3.770 91.480 138.666670
4.85 4.867720 3.780 91.720 132.666670
4.84 4.849660 3.790 91.960 126.666670
4.83 4.841080 3.80 92.20 138.666670
4.82 4.832510 3.80 91.10 150.666670
4.81 4.823930 3.80 90.0 162.666670
4.80 4.815350 3.80 88.90 174.666670
4.79 4.798190 3.80 87.80 186.666670
4.78 4.789620 3.80 86.70 179.333330
4.77 4.781040 3.80 88.120 172.0
4.76 4.772010 3.80 89.540 164.666670
4.75 4.762980 3.80 90.960 157.333330
4.74 4.75440 3.80 92.380 150.0
4.73 4.745820 3.80 93.80 156.666670
4.72 4.728670 3.80 92.50 163.333330
4.71 4.719640 3.80 91.20 170.0
4.70 4.710610 3.80 89.90 176.666670
4.69 4.701580 3.80 88.60 183.333330
4.68 4.692550 3.80 87.30 190.0
4.67 4.683970 3.80 87.850 187.333330
4.66 4.67540 3.80 88.40 184.666670
4.65 4.658240 3.80 88.950 182.0
4.64 4.649660 3.80 89.50 179.333330
4.63 4.641080 3.80 90.050 176.666670
4.62 4.632050 3.80 90.60 180.043010
4.61 4.623020 3.80 90.060 183.419350
4.60 4.614450 3.80 89.520 186.79570
4.59 4.605870 3.80 88.980 190.172040
4.58 4.588710 3.80 88.440 193.548390
4.57 4.580590 3.80 87.90 187.505380
4.56 4.572460 3.80 88.020 181.462370
4.55 4.563880 3.80 88.140 175.419350
4.54 4.55530 3.80 88.260 169.376340
4.53 4.538150 3.80 88.380 163.333330
4.52 4.529570 3.80 88.50 170.666670
4.51 4.520990 3.680 88.50 178.0
4.50 4.512420 3.560 88.50 185.333330
4.49 4.503840 3.440 88.50 192.666670
4.48 4.495260 3.320 88.50 200.0
4.47 4.486680 3.20 88.50 190.833330
4.46 4.469530 3.20 88.140 181.666670
4.45 4.460950 3.20 87.780 172.50
4.44 4.452370 3.20 87.420 163.333330
4.43 4.443340 3.20 87.060 154.166670
4.42 4.434310 3.20 86.70 145.0
4.41 4.425730 3.283330 86.983330 147.333330
4.40 4.417160 3.366670 87.266670 149.666670
4.39 4.40 3.450 87.550 152.0
4.38 4.391420 3.533330 87.833330 154.333330
4.37 4.382840 3.616670 88.116670 156.666670
4.36 4.373810 3.70 88.40 167.333330
4.35 4.364790 3.680 89.080 178.0
4.34 4.347630 3.660 89.760 188.666670
4.33 4.339050 3.640 90.440 199.333330
4.32 4.330470 3.620 91.120 210.0
4.31 4.32190 3.60 91.80 203.333330
4.30 4.313320 3.60 90.680 196.666670
4.29 4.304740 3.60 89.560 190.0
4.28 4.296160 3.60 88.440 183.333330
4.27 4.279010 3.60 87.320 176.666670
4.26 4.270430 3.60 86.20 172.242420
4.25 4.261850 3.620 86.880 167.818180
4.24 4.253270 3.640 87.560 163.393940
4.23 4.24470 3.660 88.240 158.96970
4.22 4.227540 3.680 88.920 154.545450
4.21 4.218960 3.70 89.60 148.899520
4.20 4.210380 3.70 89.180 143.253590
4.19 4.201810 3.70 88.760 137.607660
4.18 4.193230 3.70 88.340 131.961720
4.17 4.184650 3.70 87.920 126.315790
4.16 4.176070 3.70 87.50 135.263160
4.15 4.158920 3.720 87.520 144.210530
4.14 4.150340 3.740 87.540 153.157890
4.13 4.141760 3.760 87.560 162.105260
4.12 4.133180 3.780 87.580 171.052630
4.11 4.12460 3.80 87.60 180.0
4.10 4.107450 3.766670 88.150 183.333330
4.09 4.098870 3.733330 88.70 186.666670
4.08 4.090290 3.70 89.250 190.0
4.07 4.081720 3.666670 89.80 193.333330
4.06 4.073140 3.633330 90.350 196.666670
4.05 4.064560 3.60 90.90 186.666670
4.04 4.055980 3.60 90.320 176.666670
4.03 4.038830 3.60 89.740 166.666670
4.02 4.030250 3.60 89.160 156.666670
4.01 4.021670 3.60 88.580 146.666670
4.00 4.013090 3.60 88.0 155.333330
3.99 4.004510 3.60 88.220 164.0
3.98 3.987360 3.60 88.440 172.666670
3.97 3.978780 3.60 88.660 181.333330
3.96 3.97020 3.60 88.880 190.0
3.95 3.961630 3.60 89.10 186.0
3.94 3.953050 3.60 88.720 182.0
3.93 3.944020 3.60 88.340 178.0
3.92 3.934990 3.60 87.960 174.0
3.91 3.917830 3.60 87.580 170.0
3.90 3.909260 3.60 87.20 167.222220
3.89 3.900680 3.60 87.180 164.444440
3.88 3.89210 3.60 87.160 161.666670
3.87 3.883520 3.60 87.140 158.888890
3.86 3.874940 3.60 87.120 156.111110
3.85 3.866370 3.60 87.10 153.333330
3.84 3.849210 3.580 86.980 158.0
3.83 3.840180 3.560 86.860 162.666670
3.82 3.831150 3.540 86.740 167.333330
3.81 3.822570 3.520 86.620 172.0
3.80 3.8140 3.50 86.50 176.666670
3.79 3.804970 3.483330 86.966670 182.0
3.78 3.795940 3.466670 87.433330 187.333330
3.77 3.778780 3.450 87.90 192.666670
3.76 3.769750 3.433330 88.366670 198.0
3.75 3.760720 3.416670 88.833330 203.333330
3.74 3.752140 3.40 89.30 202.666670
3.73 3.743570 3.360 89.280 202.0
3.72 3.734990 3.320 89.260 201.333330
3.71 3.726410 3.280 89.240 200.666670
3.70 3.709260 3.240 89.220 200.0
3.69 3.700230 3.20 89.20 192.0
3.68 3.69120 3.240 89.140 184.0
3.67 3.682620 3.280 89.080 176.0
3.66 3.674040 3.320 89.020 168.0
3.65 3.665460 3.360 88.960 160.0
3.64 3.656880 3.40 88.90 162.838710
3.63 3.638830 3.420 88.620 165.677420
3.62 3.630250 3.440 88.340 168.516130
3.61 3.621670 3.460 88.060 171.354840
3.60 3.612640 3.480 87.780 174.193550
3.59 3.603610 3.50 87.50 175.994620
3.58 3.595030 3.420 87.540 177.79570
3.57 3.586460 3.340 87.580 179.596770
3.56 3.56840 3.260 87.620 181.397850
3.55 3.559820 3.180 87.660 183.198920
3.54 3.551240 3.10 87.70 185.0
3.53 3.542210 3.116670 88.016670 184.0
3.52 3.533180 3.133330 88.333330 183.0
3.51 3.52460 3.150 88.650 182.0
3.50 3.516030 3.166670 88.966670 181.0
3.49 3.498870 3.183330 89.283330 180.0
3.48 3.490290 3.20 89.60 178.666670
3.47 3.481720 3.220 88.720 177.333330
3.46 3.473140 3.240 87.840 176.0
3.45 3.464560 3.260 86.960 174.666670
3.44 3.44740 3.280 86.080 173.333330
3.43 3.438830 3.30 85.20 170.666670
3.42 3.430250 3.320 86.60 168.0
3.41 3.422120 3.340 88.0 165.333330
3.40 3.4140 3.360 89.40 162.666670
3.39 3.396840 3.380 90.80 160.0
3.38 3.388710 3.40 92.20 158.666670
3.37 3.380590 3.320 91.70 157.333330
3.36 3.372010 3.240 91.20 156.0
3.35 3.363430 3.160 90.70 154.666670
3.34 3.354850 3.080 90.20 153.333330
3.33 3.346280 3.0 89.70 157.777780
3.32 3.329120 3.033330 89.316670 162.222220
3.31 3.320540 3.066670 88.933330 166.666670
3.30 3.311960 3.10 88.550 171.111110
3.29 3.303390 3.133330 88.166670 175.555560
3.28 3.294810 3.166670 87.783330 180.0
3.27 3.277650 3.20 87.40 170.0
3.26 3.269070 3.20 87.160 160.0
3.25 3.26050 3.20 86.920 150.0
3.24 3.251920 3.20 86.680 140.0
3.23 3.243340 3.20 86.440 130.0
3.22 3.234760 3.20 86.20 128.0
3.21 3.226190 3.20 86.660 126.0
3.20 3.208130 3.20 87.120 124.0
3.19 3.199550 3.20 87.580 122.0
3.18 3.190970 3.20 88.040 120.0
3.17 3.182390 3.20 88.50 123.333330
3.16 3.173810 3.210 88.570 126.666670
3.15 3.164790 3.220 88.640 130.0
3.14 3.155760 3.230 88.710 133.333330
3.13 3.13860 3.240 88.780 136.666670
3.12 3.129570 3.250 88.850 132.666670
3.11 3.120540 3.260 88.920 128.666670
