~VERSION INFORMATION SECTION
VERS. 2.0 : CWLS LAS-VERSION 2.0
WRAP. NO : One line per depth step
~WELL INFORMATION SECTION
# MNEM.UNIT VALUE/NAME DESCRIPTION
#-------- -------------- ---------------------
STRT.Metres 14 : Start
STOP.Metres 0.38 : Stop
STEP.Metres -0.01 : Step
NULL.  -999.25 :NULL VALUE
DATE. 2025-47-11 : DATE
~CURVE INFORMATION SECTION
DEPTH.Metres : 0 Depth
Depth. : 1 Depth
Incline.Deg : 2 Incline
Azimuth.Deg : 3 Azimuth
GR.CPS : 4 GR
~PARAMETER INFORMATION SECTION
~OTHER
#-------------------------------------------------
#Produced By: GeoVista Logger - Version 7.1.107.0
Natural Gamma Sonde - 6447
Verticality Sonde - 6292
#-------------------------------------------------
~ASCII LOG DATA
# ...
5.44 5.448310 3.8250 91.30 143.333330
5.43 5.437470 3.850 91.80 152.50
5.42 5.426640 3.8750 92.30 161.666670
5.41 5.41580 3.90 92.80 170.833330
5.40 5.404060 3.866670 92.533330 180.0
5.39 5.393230 3.833330 92.266670 174.444440
5.38 5.382390 3.80 92.0 168.888890
5.37 5.376520 3.80 93.166670 163.333330
5.36 5.370650 3.80 94.333330 156.666670
5.35 5.359820 3.80 95.50 150.0
5.34 5.348980 3.80 95.066670 143.333330
5.33 5.338150 3.80 94.633330 153.333330
5.32 5.326410 3.80 94.20 163.333330
5.31 5.315580 3.80 93.866670 173.333330
5.30 5.304740 3.80 93.533330 185.833330
5.29 5.293910 3.80 93.20 198.333330
5.28 5.283070 3.80 92.90 210.833330
5.27 5.272230 3.80 92.60 223.333330
5.26 5.266370 3.80 92.30 220.0
5.25 5.26050 3.80 92.0 216.666670
5.24 5.249660 3.80 91.866670 213.333330
5.23 5.238830 3.80 91.733330 202.222220
5.22 5.227990 3.80 91.60 191.111110
5.21 5.217160 3.80 91.666670 180.0
5.20 5.206320 3.80 91.733330 184.166670
5.19 5.194580 3.80 91.80 188.333330
5.18 5.183750 3.80 92.10 192.50
5.17 5.172910 3.80 92.40 196.666670
5.16 5.162080 3.80 92.70 186.666670
5.15 5.151240 3.80 93.0 176.666670
5.14 5.145820 3.80 92.633330 166.666670
5.13 5.140410 3.80 92.266670 173.333330
5.12 5.129570 3.80 91.90 180.0
5.11 5.118740 3.833330 92.033330 186.666670
5.10 5.10790 3.866670 92.166670 182.508960
5.09 5.097070 3.90 92.30 178.351250
5.08 5.086230 3.850 92.5250 174.193550
5.07 5.07540 3.80 92.750 181.478490
5.06 5.064560 3.750 92.9750 188.763440
5.05 5.053720 3.70 93.20 196.048390
5.04 5.042890 3.733330 91.70 203.333330
5.03 5.032050 3.766670 90.20 183.888890
5.02 5.021220 3.80 88.70 164.444440
5.01 5.01580 3.80 90.766670 145.0
5.00 5.010380 3.80 92.833330 150.0
4.99 4.999550 3.80 94.90 155.0
4.98 4.987810 3.80 93.30 160.0
4.97 4.976980 3.80 91.70 164.166670
4.96 4.966140 3.80 90.10 168.333330
4.95 4.95530 3.80 88.50 172.50
4.94 4.944470 3.80 89.766670 176.666670
4.93 4.933630 3.80 91.033330 173.333330
4.92 4.92280 3.80 92.30 170.0
4.91 4.911960 3.80 90.166670 166.666670
4.90 4.901130 3.80 88.033330 160.0
4.89 4.895710 3.80 85.90 153.333330
4.88 4.890290 3.80 88.166670 146.666670
4.87 4.879460 3.80 90.433330 142.222220
4.86 4.868620 3.80 92.70 137.777780
4.85 4.857790 3.80 92.2750 133.333330
4.84 4.846050 3.80 91.850 135.0
4.83 4.835210 3.80 91.4250 136.666670
4.82 4.824380 3.80 91.0 138.333330
4.81 4.813540 3.80 90.80 140.0
4.80 4.802710 3.80 90.60 144.444440
4.79 4.791870 3.80 90.40 148.888890
4.78 4.7860 3.80 90.20 153.333330
4.77 4.780140 3.80 90.0 144.444440
4.76 4.76930 3.80 89.80 135.555560
4.75 4.758470 3.80 88.966670 126.666670
4.74 4.747630 3.80 88.133330 136.666670
4.73 4.736790 3.80 87.30 146.666670
4.72 4.725960 3.80 88.250 156.666670
4.71 4.714220 3.80 89.20 157.50
4.70 4.703390 3.80 90.150 158.333330
4.69 4.692550 3.80 91.10 159.166670
4.68 4.681720 3.80 90.566670 160.0
4.67 4.67630 3.80 90.033330 146.666670
4.66 4.670880 3.80 89.50 133.333330
4.65 4.659140 3.80 89.766670 120.0
4.64 4.648310 3.80 90.033330 134.444440
4.63 4.637470 3.80 90.30 148.888890
4.62 4.625730 3.80 89.80 163.333330
4.61 4.61490 3.80 89.30 165.833330
4.60 4.604060 3.80 88.80 168.333330
4.59 4.592330 3.80 88.7750 170.833330
4.58 4.581490 3.80 88.750 173.333330
4.57 4.576070 3.80 88.7250 167.777780
4.56 4.570650 3.80 88.70 162.222220
4.55 4.559820 3.80 89.066670 156.666670
4.54 4.548980 3.80 89.433330 162.222220
4.53 4.538150 3.80 89.80 167.777780
4.52 4.526410 3.80 89.733330 173.333330
4.51 4.515580 3.80 89.666670 188.888890
4.50 4.505640 3.80 89.60 204.444440
4.49 4.493910 3.8250 89.40 220.0
4.48 4.483070 3.850 89.20 204.516130
4.47 4.473140 3.8750 89.0 189.032260
4.46 4.46230 3.90 88.80 173.548390
4.45 4.451470 3.80 89.933330 158.064520
4.44 4.446050 3.70 91.066670 157.598570
4.43 4.440630 3.60 92.20 157.132620
4.42 4.42980 3.60 90.266670 156.666670
4.41 4.418960 3.60 88.333330 148.888890
4.40 4.407220 3.60 86.40 141.111110
4.39 4.396390 3.650 86.7250 133.333330
4.38 4.385550 3.70 87.050 139.166670
4.37 4.374720 3.750 87.3750 145.0
4.36 4.363880 3.80 87.70 150.833330
4.35 4.353050 3.766670 88.766670 156.666670
4.34 4.342210 3.733330 89.833330 156.666670
4.33 4.336340 3.70 90.90 156.666670
4.32 4.330470 3.70 89.80 156.666670
4.31 4.319640 3.70 88.70 157.777780
4.30 4.30880 3.70 87.60 158.888890
4.29 4.297970 3.70 89.466670 160.0
4.28 4.287130 3.70 91.333330 163.333330
4.27 4.27540 3.70 93.20 166.666670
4.26 4.264560 3.70 91.9750 170.0
4.25 4.253720 3.70 90.750 171.666670
4.24 4.242890 3.70 89.5250 173.333330
4.23 4.232050 3.70 88.30 175.0
4.22 4.221220 3.70 88.266670 176.666670
4.21 4.21580 3.70 88.233330 162.222220
4.20 4.210380 3.70 88.20 147.777780
4.19 4.199550 3.70 88.333330 133.333330
4.18 4.188710 3.70 88.466670 164.646460
4.17 4.177880 3.70 88.60 195.95960
4.16 4.167040 3.70 88.0 227.272730
4.15 4.156210 3.70 87.40 205.901120
4.14 4.145370 3.70 86.80 184.529510
4.13 4.134540 3.70 87.1250 163.157890
4.12 4.12370 3.70 87.450 161.535090
4.11 4.112870 3.70 87.7750 159.912280
4.10 4.102030 3.70 88.10 158.289470
4.09 4.09120 3.666670 87.933330 156.666670
4.08 4.085780 3.633330 87.766670 172.222220
4.07 4.080360 3.60 87.60 187.777780
4.06 4.069530 3.60 88.10 203.333330
4.05 4.058690 3.60 88.60 185.555560
4.04 4.046950 3.60 89.10 167.777780
4.03 4.036120 3.6250 88.6250 150.0
4.02 4.025280 3.650 88.150 146.666670
4.01 4.014450 3.6750 87.6750 143.333330
4.00 4.003610 3.70 87.20 140.0
3.99 3.992780 3.70 87.133330 136.666670
3.98 3.981940 3.70 87.066670 138.888890
3.97 3.971110 3.70 87.0 141.111110
3.96 3.965690 3.70 87.10 143.333330
3.95 3.960270 3.70 87.20 154.444440
3.94 3.949440 3.70 87.30 165.555560
3.93 3.93860 3.6750 87.950 176.666670
3.92 3.927770 3.650 88.60 176.666670
3.91 3.916930 3.6250 89.250 176.666670
3.90 3.905190 3.60 89.90 176.666670
3.89 3.894360 3.60 88.766670 176.666670
3.88 3.883520 3.60 87.633330 175.555560
3.87 3.872690 3.60 86.50 174.444440
3.86 3.861850 3.633330 86.466670 173.333330
3.85 3.851020 3.666670 86.433330 163.942650
3.84 3.84560 3.70 86.40 154.551970
3.83 3.840180 3.666670 88.466670 145.161290
3.82 3.829350 3.633330 90.533330 151.218640
3.81 3.817610 3.60 92.60 157.275990
3.80 3.806770 3.6250 90.6250 163.333330
3.79 3.795940 3.650 88.650 172.50
3.78 3.78510 3.6750 86.6750 181.666670
3.77 3.774270 3.70 84.70 190.833330
3.76 3.762530 3.633330 85.066670 200.0
3.75 3.751690 3.566670 85.433330 196.666670
3.74 3.740860 3.50 85.80 193.333330
3.73 3.735440 3.533330 85.466670 190.0
3.72 3.730020 3.566670 85.133330 198.888890
3.71 3.718280 3.60 84.80 207.777780
3.70 3.707450 3.533330 87.133330 216.666670
3.69 3.696610 3.466670 89.466670 213.750
3.68 3.684880 3.40 91.80 210.833330
3.67 3.674040 3.4250 90.50 207.916670
3.66 3.663210 3.450 89.20 205.0
3.65 3.652370 3.4750 87.90 176.666670
3.64 3.64650 3.50 86.60 148.333330
3.63 3.640630 3.466670 87.533330 120.0
3.62 3.62980 3.433330 88.466670 136.666670
3.61 3.618960 3.40 89.40 153.333330
3.60 3.608130 3.466670 89.20 170.0
3.59 3.597290 3.533330 89.0 164.444440
3.58 3.585550 3.60 88.80 158.888890
3.57 3.574720 3.566670 87.90 153.333330
3.56 3.563880 3.533330 87.0 159.166670
3.55 3.552140 3.50 86.10 165.0
3.54 3.541310 3.4750 87.2750 170.833330
3.53 3.535890 3.450 88.450 176.666670
3.52 3.530470 3.4250 89.6250 181.111110
3.51 3.518740 3.40 90.80 185.555560
3.50 3.50790 3.433330 90.10 190.0
3.49 3.497070 3.466670 89.40 200.0
3.48 3.485330 3.50 88.70 210.0
3.47 3.474490 3.466670 89.40 220.0
3.46 3.463660 3.433330 90.10 205.833330
3.45 3.451920 3.40 90.80 191.666670
3.44 3.441080 3.40 89.4750 177.50
3.43 3.435670 3.40 88.150 163.333330
3.42 3.430250 3.40 86.8250 167.777780
3.41 3.419410 3.40 85.50 172.222220
3.40 3.408580 3.40 86.166670 176.666670
3.39 3.396840 3.40 86.833330 163.333330
3.38 3.3860 3.40 87.50 150.0
3.37 3.376070 3.390 87.580 136.666670
3.36 3.365240 3.380 87.660 152.222220
3.35 3.35440 3.370 87.740 167.777780
3.34 3.343570 3.360 87.820 183.333330
3.33 3.332730 3.350 87.90 189.166670
3.32 3.32280 3.340 87.980 195.0
3.31 3.311960 3.330 88.060 200.833330
3.30 3.301130 3.320 88.140 206.666670
3.29 3.295710 3.310 88.220 198.888890
