~VERSION INFORMATION SECTION
VERS. 2.0 : CWLS LAS-VERSION 2.0
WRAP. NO : One line per depth step
~WELL INFORMATION SECTION
# MNEM.UNIT VALUE/NAME DESCRIPTION
#-------- -------------- ---------------------
STRT.Metres 14 : Start
STOP.Metres 0.32 : Stop
STEP.Metres -0.01 : Step
NULL.  -999.25 :NULL VALUE
DATE. 2025-54-11 : DATE
~CURVE INFORMATION SECTION
DEPTH.Metres : 0 Depth
Depth. : 1 Depth
Incline.Deg : 2 Incline
Azimuth.Deg : 3 Azimuth
GR.CPS : 4 GR
~PARAMETER INFORMATION SECTION
~OTHER
#-------------------------------------------------
#Produced By: GeoVista Logger - Version 7.1.107.0
Natural Gamma Sonde - 6447
Verticality Sonde - 6292
#-------------------------------------------------
~ASCII LOG DATA
14.00 -999.25 -999.25 -999.25 -999.25
13.99 -999.25 -999.25 -999.25 -999.25
13.98 13.995940 -999.25 -999.25 -999.25
13.97 13.987360 6.130770 91.387690 -999.25
13.96 13.96930 6.10 91.40 -999.25
13.95 13.959820 6.10 91.250 -999.25
13.94 13.950340 6.10 91.10 -999.25
13.93 13.940860 6.10 91.450 -999.25
13.92 13.931380 6.10 91.80 -999.25
13.91 13.92190 6.10 92.133330 -999.25
13.90 13.912420 6.10 92.466670 -999.25
13.89 13.902480 6.10 92.80 -999.25
13.88 13.892550 6.033330 92.033330 -999.25
13.87 13.882620 5.966670 91.266670 -999.25
13.86 13.872690 5.90 90.50 -999.25
13.85 13.862750 5.950 90.50 -999.25
13.84 13.852820 6.0 90.50 -999.25
13.83 13.842890 6.050 90.50 -999.25
13.82 13.832960 6.10 90.50 -999.25
13.81 13.822570 6.10 91.060 -999.25
13.80 13.812190 6.10 91.620 -999.25
13.79 13.802260 6.10 92.180 -999.25
13.78 13.792330 6.10 92.740 -999.25
13.77 13.781940 6.10 93.30 -999.25
13.76 13.771560 6.0750 93.2750 -999.25
13.75 13.764640 6.050 93.250 -999.25
13.74 13.757710 6.0250 93.2250 -999.25
13.73 13.750790 6.0 93.20 -999.25
13.72 13.739950 5.983330 92.750 -999.25
13.71 13.729120 5.966670 92.30 -999.25
13.70 13.718280 5.950 91.850 -999.25
13.69 13.707450 5.933330 91.40 -999.25
13.68 13.696610 5.916670 90.950 -999.25
13.67 13.685780 5.90 90.50 -999.25
13.66 13.674490 5.920 90.30 -999.25
13.65 13.663210 5.940 90.10 -999.25
13.64 13.655680 5.960 89.90 -999.25
13.63 13.648160 5.980 89.70 -999.25
13.62 13.640630 6.0 89.50 -999.25
13.61 13.62980 6.0 90.116670 -999.25
13.60 13.618960 6.0 90.733330 -999.25
13.59 13.608580 6.0 91.350 -999.25
13.58 13.598190 6.0 91.966670 -999.25
13.57 13.586910 6.0 92.583330 -999.25
13.56 13.575620 6.0 93.20 -999.25
13.55 13.564790 5.983330 92.683330 -999.25
13.54 13.553950 5.966670 92.166670 -999.25
13.53 13.543120 5.950 91.650 -999.25
13.52 13.532280 5.933330 91.133330 -999.25
13.51 13.525060 5.916670 90.616670 -999.25
13.50 13.517830 5.90 90.10 -999.25
13.49 13.510610 5.842860 89.885710 -999.25
13.48 13.499320 5.785710 89.671430 -999.25
13.47 13.488040 5.728570 89.457140 -999.25
13.46 13.476750 5.671430 89.242860 -999.25
13.45 13.465460 5.614290 89.028570 -999.25
13.44 13.454180 5.557140 88.814290 -999.25
13.43 13.442890 5.50 88.60 -999.25
13.42 13.435360 5.550 89.250 -999.25
13.41 13.427840 5.60 89.90 -999.25
13.40 13.420320 5.650 90.550 -999.25
13.39 13.408580 5.70 91.20 129.39020
13.38 13.396840 5.750 91.850 126.666670
13.37 13.385550 5.80 92.50 166.666670
13.36 13.374270 5.80 92.585710 156.666670
13.35 13.366740 5.80 92.671430 146.666670
13.34 13.359220 5.80 92.757140 136.666670
13.33 13.351690 5.80 92.842860 126.666670
13.32 13.339950 5.80 92.928570 116.666670
13.31 13.328220 5.80 93.014290 111.111110
13.30 13.316930 5.80 93.10 105.555560
13.29 13.305640 5.783330 93.150 100.0
13.28 13.294810 5.766670 93.20 104.166670
13.27 13.283970 5.750 93.250 108.333330
13.26 13.276450 5.733330 93.30 112.50
13.25 13.268920 5.716670 93.350 116.666670
13.24 13.26140 5.70 93.40 121.666670
13.23 13.249660 5.671430 93.342860 126.666670
13.22 13.237920 5.642860 93.285710 131.666670
13.21 13.22980 5.614290 93.228570 136.666670
13.20 13.221670 5.585710 93.171430 136.0
13.19 13.213540 5.557140 93.114290 135.333330
13.18 13.201350 5.528570 93.057140 134.666670
13.17 13.189160 5.50 93.0 134.0
13.16 13.176980 5.492860 92.878570 133.333330
13.15 13.164790 5.485710 92.757140 136.0
13.14 13.156960 5.478570 92.635710 138.666670
13.13 13.149130 5.471430 92.514290 141.333330
13.12 13.141310 5.464290 92.392860 144.0
13.11 13.129120 5.457140 92.271430 146.666670
13.10 13.116930 5.450 92.150 142.494620
13.09 13.10880 5.442860 92.028570 138.322580
13.08 13.100680 5.435710 91.907140 134.150540
13.07 13.092550 5.428570 91.785710 129.978490
13.06 13.080360 5.421430 91.664290 125.806450
13.05 13.068170 5.414290 91.542860 124.838710
13.04 13.056430 5.407140 91.421430 123.870970
13.03 13.04470 5.40 91.30 122.903230
13.02 13.036570 5.383330 91.850 121.935480
13.01 13.028440 5.366670 92.40 120.967740
13.00 13.020320 5.350 92.950 120.0
12.99 13.008130 5.333330 93.50 125.0
12.98 12.995940 5.316670 94.050 130.0
12.97 12.987810 5.30 94.60 135.0
12.96 12.979680 5.28750 94.150 140.0
12.95 12.971560 5.2750 93.70 145.0
12.94 12.959370 5.26250 93.250 150.0
12.93 12.947180 5.250 92.80 142.222220
12.92 12.939050 5.23750 92.350 134.444440
12.91 12.930930 5.2250 91.90 126.666670
12.90 12.92280 5.21250 91.450 118.888890
12.89 12.910610 5.20 91.0 111.111110
12.88 12.898420 5.228570 91.042860 103.333330
12.87 12.889990 5.257140 91.085710 104.76190
12.86 12.881570 5.285710 91.128570 106.190480
12.85 12.873140 5.314290 91.171430 107.619050
12.84 12.860950 5.342860 91.214290 109.047620
12.83 12.848760 5.371430 91.257140 110.476190
12.82 12.840630 5.40 91.30 111.904760
12.81 12.832510 5.328570 91.471430 113.333330
12.80 12.824380 5.257140 91.642860 118.095240
12.79 12.812190 5.185710 91.814290 122.857140
12.78 12.80 5.114290 91.985710 127.619050
12.77 12.791570 5.042860 92.157140 132.380950
12.76 12.783150 4.971430 92.328570 137.142860
12.75 12.774720 4.90 92.50 141.904760
12.74 12.762080 4.928570 92.071430 146.666670
12.73 12.749440 4.957140 91.642860 143.888890
12.72 12.741010 4.985710 91.214290 141.111110
12.71 12.732580 5.014290 90.785710 138.333330
12.70 12.724150 5.042860 90.357140 135.555560
12.69 12.711510 5.071430 89.928570 132.777780
12.68 12.698870 5.10 89.50 130.0
12.67 12.690740 5.08750 90.08750 132.380950
12.66 12.682620 5.0750 90.6750 134.76190
12.65 12.674490 5.06250 91.26250 137.142860
12.64 12.661850 5.050 91.850 139.523810
12.63 12.649210 5.03750 92.43750 141.904760
12.62 12.640780 5.0250 93.0250 144.285710
12.61 12.632360 5.01250 93.61250 146.666670
12.60 12.623930 5.0 94.20 150.0
12.59 12.611290 4.985710 94.028570 153.333330
12.58 12.598650 4.971430 93.857140 156.666670
12.57 12.590220 4.957140 93.685710 160.0
12.56 12.581790 4.942860 93.514290 163.333330
12.55 12.573360 4.928570 93.342860 166.666670
12.54 12.560270 4.914290 93.171430 165.714290
12.53 12.547180 4.90 93.0 164.76190
12.52 12.538750 4.91250 92.71250 163.809520
12.51 12.530320 4.9250 92.4250 162.857140
12.50 12.52190 4.93750 92.13750 161.904760
12.49 12.509260 4.950 91.850 160.952380
12.48 12.496610 4.96250 91.56250 160.0
12.47 12.488190 4.9750 91.2750 156.623380
12.46 12.479760 4.98750 90.98750 153.246750
12.45 12.471330 5.0 90.70 149.870130
12.44 12.458690 5.0 91.428570 146.493510
12.43 12.446050 5.0 92.157140 143.116880
12.42 12.437620 5.0 92.885710 139.740260
12.41 12.429190 5.0 93.614290 136.363640
12.40 12.420770 5.0 94.342860 137.971550
12.39 12.408130 5.0 95.071430 139.579470
12.38 12.395490 5.0 95.80 141.187380
12.37 12.387060 5.0250 95.850 142.79530
12.36 12.378630 5.050 95.90 144.403220
12.35 12.37020 5.0750 95.950 146.011130
12.34 12.358010 5.10 96.0 147.619050
12.33 12.345820 5.1250 96.050 145.578230
12.32 12.33740 5.150 96.10 143.537410
12.31 12.328970 5.1750 96.150 141.49660
12.30 12.320540 5.20 96.20 139.455780
12.29 12.312110 5.214290 95.714290 137.414970
12.28 12.303690 5.228570 95.228570 135.374150
12.27 12.295260 5.242860 94.742860 133.333330
12.26 12.282620 5.257140 94.257140 130.416670
12.25 12.269980 5.271430 93.771430 127.50
12.24 12.261550 5.285710 93.285710 124.583330
12.23 12.253120 5.30 92.80 121.666670
12.22 12.24470 5.28750 93.050 118.750
12.21 12.232050 5.2750 93.30 115.833330
12.20 12.219410 5.26250 93.550 112.916670
12.19 12.210990 5.250 93.80 110.0
12.18 12.202560 5.23750 94.050 119.047620
12.17 12.194130 5.2250 94.30 128.095240
12.16 12.181490 5.21250 94.550 137.142860
12.15 12.168850 5.20 94.80 146.190480
12.14 12.160420 5.20 95.142860 155.23810
12.13 12.151990 5.20 95.485710 164.285710
12.12 12.143570 5.20 95.828570 173.333330
12.11 12.131380 5.20 96.171430 164.217690
12.10 12.119190 5.20 96.514290 155.102040
12.09 12.110760 5.20 96.857140 145.986390
12.08 12.102330 5.20 97.20 136.870750
12.07 12.093910 5.18750 96.41250 127.75510
12.06 12.081260 5.1750 95.6250 118.639460
12.05 12.068620 5.16250 94.83750 109.523810
12.04 12.06020 5.150 94.050 108.333330
12.03 12.051770 5.13750 93.26250 107.142860
