~VERSION INFORMATION SECTION
VERS. 2.0 : CWLS LAS-VERSION 2.0
WRAP. NO : One line per depth step
~WELL INFORMATION SECTION
# MNEM.UNIT VALUE/NAME DESCRIPTION
#-------- -------------- ---------------------
STRT.Metres 14 : Start
STOP.Metres 0.03 : Stop
STEP.Metres -0.01 : Step
NULL.  -999.25 :NULL VALUE
DATE. 2025-51-11 : DATE
~CURVE INFORMATION SECTION
DEPTH.Metres : 0 Depth
Depth. : 1 Depth
Incline.Deg : 2 Incline
Azimuth.Deg : 3 Azimuth
GR.CPS : 4 GR
~PARAMETER INFORMATION SECTION
~OTHER
#-------------------------------------------------
#Produced By: GeoVista Logger - Version 7.1.107.0
Natural Gamma Sonde - 6447
Verticality Sonde - 6292
#-------------------------------------------------
~ASCII LOG DATA
# ...
7.56 7.575620 4.160 97.620 164.336920
7.55 7.566590 4.140 96.680 159.587810
7.54 7.549440 4.120 95.740 154.838710
7.53 7.540860 4.10 94.80 168.537630
7.52 7.532280 4.10 95.580 182.236560
7.51 7.52370 4.10 96.360 195.935480
7.50 7.515120 4.10 97.140 209.634410
7.49 7.497970 4.10 97.920 223.333330
7.48 7.489390 4.10 98.70 217.333330
7.47 7.480810 4.10 99.360 211.333330
7.46 7.472230 4.10 100.020 205.333330
7.45 7.463660 4.10 100.680 199.333330
7.44 7.455080 4.10 101.340 193.333330
7.43 7.44650 4.10 102.0 192.666670
7.42 7.428440 4.120 100.320 192.0
7.41 7.419860 4.140 98.640 191.333330
7.40 7.411290 4.160 96.960 190.666670
7.39 7.402260 4.180 95.280 190.0
7.38 7.393230 4.20 93.60 190.833330
7.37 7.384650 4.166670 94.566670 191.666670
7.36 7.376070 4.133330 95.533330 192.50
7.35 7.358920 4.10 96.50 193.333330
7.34 7.350340 4.066670 97.466670 194.166670
7.33 7.341760 4.033330 98.433330 195.0
7.32 7.332730 4.0 99.40 192.0
7.31 7.32370 4.0 98.90 189.0
7.30 7.315120 4.0 98.40 186.0
7.29 7.306550 4.0 97.90 183.0
7.28 7.289390 4.0 97.40 180.0
7.27 7.280810 4.0 96.90 187.0
7.26 7.272230 4.020 95.980 194.0
7.25 7.263210 4.040 95.060 201.0
7.24 7.254180 4.060 94.140 208.0
7.23 7.24560 4.080 93.220 215.0
7.22 7.237020 4.10 92.30 212.666670
7.21 7.218960 4.10 93.640 210.333330
7.20 7.210380 4.10 94.980 208.0
7.19 7.201810 4.10 96.320 205.666670
7.18 7.192780 4.10 97.660 203.333330
7.17 7.183750 4.10 99.0 216.666670
7.16 7.175170 4.10 99.10 230.0
7.15 7.166590 4.10 99.20 243.333330
7.14 7.149440 4.10 99.30 256.666670
7.13 7.140410 4.10 99.40 270.0
7.12 7.131380 4.10 99.50 283.333330
7.11 7.12280 4.10 98.433330 267.333330
7.10 7.114220 4.10 97.366670 251.333330
7.09 7.105190 4.10 96.30 235.333330
7.08 7.096160 4.10 95.233330 219.333330
7.07 7.079010 4.10 94.166670 203.333330
7.06 7.070430 4.10 93.10 199.03030
7.05 7.061850 4.10 93.60 194.727270
7.04 7.053270 4.10 94.10 190.424240
7.03 7.04470 4.10 94.60 186.121210
7.02 7.027540 4.10 95.10 181.818180
7.01 7.018960 4.10 95.60 179.138760
7.00 7.010380 4.10 95.940 176.459330
6.99 7.001810 4.10 96.280 173.77990
6.98 6.993230 4.10 96.620 171.100480
6.97 6.98420 4.10 96.960 168.421050
6.96 6.975170 4.10 97.30 171.403510
6.95 6.958010 4.10 96.440 174.385960
6.94 6.949440 4.10 95.580 177.368420
6.93 6.940860 4.10 94.720 180.350880
6.92 6.932280 4.10 93.860 183.333330
6.91 6.92370 4.10 93.0 185.555560
6.90 6.915120 4.116670 93.766670 187.777780
6.89 6.906550 4.133330 94.533330 190.0
6.88 6.889390 4.150 95.30 192.222220
6.87 6.880360 4.166670 96.066670 194.444440
6.86 6.871330 4.183330 96.833330 196.666670
6.85 6.862750 4.20 97.60 192.666670
6.84 6.854180 4.160 97.540 188.666670
6.83 6.84560 4.120 97.480 184.666670
6.82 6.837020 4.080 97.420 180.666670
6.81 6.819860 4.040 97.360 176.666670
6.80 6.811290 4.0 97.30 175.619050
6.79 6.802710 4.020 96.420 174.571430
6.78 6.794130 4.040 95.540 173.523810
6.77 6.785550 4.060 94.660 172.476190
6.76 6.76840 4.080 93.780 171.428570
6.75 6.759820 4.10 92.90 177.142860
6.74 6.751240 4.10 93.520 182.857140
6.73 6.742660 4.10 94.140 188.571430
6.72 6.734090 4.10 94.760 194.285710
6.71 6.725510 4.10 95.380 200.0
6.70 6.716930 4.10 96.0 196.0
6.69 6.699770 4.10 96.120 192.0
6.68 6.69120 4.10 96.240 188.0
6.67 6.682620 4.10 96.360 184.0
6.66 6.674040 4.10 96.480 180.0
6.65 6.665460 4.10 96.60 188.666670
6.64 6.648310 4.10 96.250 197.333330
6.63 6.639280 4.10 95.90 206.0
6.62 6.630250 4.10 95.550 214.666670
6.61 6.621670 4.10 95.20 223.333330
6.60 6.613090 4.10 94.850 214.06810
6.59 6.604510 4.10 94.50 204.802870
6.58 6.595940 4.10 94.80 195.537630
6.57 6.578780 4.10 95.10 186.27240
6.56 6.57020 4.10 95.40 177.007170
6.55 6.561630 4.10 95.70 167.741940
6.54 6.55260 4.10 96.0 168.860220
6.53 6.543570 4.10 96.0 169.978490
6.52 6.534990 4.10 96.0 171.096770
6.51 6.526410 4.10 96.0 172.215050
6.50 6.509260 4.10 96.0 173.333330
6.49 6.500230 4.10 96.0 181.333330
6.48 6.49120 4.060 95.540 189.333330
6.47 6.482620 4.020 95.080 197.333330
6.46 6.474040 3.980 94.620 205.333330
6.45 6.465460 3.940 94.160 213.333330
6.44 6.456880 3.90 93.70 204.666670
6.43 6.439730 3.920 93.960 196.0
6.42 6.431150 3.940 94.220 187.333330
6.41 6.422570 3.960 94.480 178.666670
6.40 6.4140 3.980 94.740 170.0
6.39 6.405420 4.0 95.0 173.888890
6.38 6.387360 3.980 94.920 177.777780
6.37 6.378780 3.960 94.840 181.666670
6.36 6.37020 3.940 94.760 185.555560
6.35 6.361630 3.920 94.680 189.444440
6.34 6.353050 3.90 94.60 193.333330
6.33 6.344020 3.90 94.283330 194.0
6.32 6.334990 3.90 93.966670 194.666670
6.31 6.317830 3.90 93.650 195.333330
6.30 6.309260 3.90 93.333330 196.0
6.29 6.300680 3.90 93.016670 196.666670
6.28 6.291650 3.90 92.70 196.0
6.27 6.282620 3.90 93.340 195.333330
6.26 6.274040 3.90 93.980 194.666670
6.25 6.265460 3.90 94.620 194.0
6.24 6.248310 3.90 95.260 193.333330
6.23 6.239730 3.90 95.90 197.333330
6.22 6.231150 3.90 95.860 201.333330
6.21 6.222120 3.90 95.820 205.333330
6.20 6.213090 3.90 95.780 209.333330
6.19 6.204510 3.90 95.740 213.333330
6.18 6.195940 3.90 95.70 210.0
6.17 6.178780 3.90 95.390 206.666670
6.16 6.17020 3.90 95.080 203.333330
6.15 6.161630 3.90 94.770 200.0
6.14 6.153050 3.90 94.460 196.666670
6.13 6.144470 3.90 94.150 193.888890
6.12 6.127310 3.90 93.840 191.111110
6.11 6.118740 3.90 93.530 188.333330
6.10 6.110160 3.90 93.220 185.555560
6.09 6.101580 3.90 92.910 182.777780
6.08 6.0930 3.90 92.60 180.0
6.07 6.084420 3.90 92.90 186.0
6.06 6.075850 3.90 93.20 192.0
6.05 6.058690 3.90 93.50 198.0
6.04 6.049660 3.90 93.80 204.0
6.03 6.040630 3.90 94.10 210.0
6.02 6.032050 3.90 94.40 199.428570
6.01 6.023480 3.840 93.280 188.857140
6.00 6.01490 3.780 92.160 178.285710
5.99 6.006320 3.720 91.040 167.714290
5.98 5.989160 3.660 89.920 157.142860
5.97 5.980590 3.60 88.80 154.603170
5.96 5.972010 3.620 90.380 152.063490
5.95 5.963430 3.640 91.960 149.523810
5.94 5.954850 3.660 93.540 146.984130
5.93 5.945820 3.680 95.120 144.444440
5.92 5.936790 3.70 96.70 150.888890
5.91 5.919640 3.680 95.620 157.333330
5.90 5.911060 3.660 94.540 163.777780
5.89 5.902480 3.640 93.460 170.222220
5.88 5.893910 3.620 92.380 176.666670
5.87 5.885330 3.60 91.30 174.0
5.86 5.868170 3.640 91.960 171.333330
5.85 5.859590 3.680 92.620 168.666670
5.84 5.851020 3.720 93.280 166.0
5.83 5.842440 3.760 93.940 163.333330
5.82 5.833860 3.80 94.60 164.444440
5.81 5.824830 3.816670 94.516670 165.555560
5.80 5.81580 3.833330 94.433330 166.666670
5.79 5.798650 3.850 94.350 167.777780
5.78 5.790070 3.866670 94.266670 168.888890
5.77 5.781490 3.883330 94.183330 170.0
5.76 5.772910 3.90 94.10 168.0
5.75 5.764330 3.90 94.360 166.0
5.74 5.747180 3.90 94.620 164.0
5.73 5.73860 3.90 94.880 162.0
5.72 5.730020 3.90 95.140 160.0
5.71 5.721440 3.90 95.40 160.0
5.70 5.712870 3.880 95.140 160.0
5.69 5.704740 3.860 94.880 160.0
5.68 5.696610 3.840 94.620 160.0
5.67 5.679460 3.820 94.360 160.0
5.66 5.670880 3.80 94.10 172.0
5.65 5.66230 3.80 93.740 184.0
5.64 5.653720 3.80 93.380 196.0
5.63 5.645150 3.80 93.020 208.0
5.62 5.627990 3.80 92.660 220.0
5.61 5.619410 3.80 92.30 203.741940
5.60 5.610840 3.80 92.640 187.483870
5.59 5.602260 3.80 92.980 171.225810
5.58 5.593680 3.80 93.320 154.967740
5.57 5.58510 3.80 93.660 138.709680
5.56 5.576520 3.80 94.0 144.480290
5.55 5.558470 3.816670 93.466670 150.25090
5.54 5.549890 3.833330 92.933330 156.021510
5.53 5.541310 3.850 92.40 161.792110
5.52 5.532730 3.866670 91.866670 167.562720
5.51 5.524150 3.883330 91.333330 173.333330
5.50 5.515580 3.90 90.80 170.666670
5.49 5.5070 3.880 91.980 168.0
5.48 5.489840 3.860 93.160 165.333330
5.47 5.480810 3.840 94.340 162.666670
5.46 5.471780 3.820 95.520 160.0
5.45 5.463210 3.80 96.70 159.0
5.44 5.454630 3.80 96.140 158.0
5.43 5.44560 3.80 95.580 157.0
5.42 5.436570 3.80 95.020 156.0
5.41 5.419410 3.80 94.460 155.0
5.40 5.410840 3.80 93.90 160.666670
5.39 5.402260 3.80 94.360 166.333330
5.38 5.393680 3.80 94.820 172.0
5.37 5.38510 3.80 95.280 177.666670
5.36 5.376070 3.80 95.740 183.333330
5.35 5.367040 3.80 96.20 181.666670
5.34 5.349890 3.80 95.320 180.0
5.33 5.341310 3.80 94.440 178.333330
