~VERSION INFORMATION SECTION
VERS. 2.0 : CWLS LAS-VERSION 2.0
WRAP. NO : One line per depth step
~WELL INFORMATION SECTION
# MNEM.UNIT VALUE/NAME DESCRIPTION
#-------- -------------- ---------------------
STRT.Metres 14 : Start
STOP.Metres 0.32 : Stop
STEP.Metres -0.01 : Step
NULL.  -999.25 :NULL VALUE
DATE. 2025-54-11 : DATE
~CURVE INFORMATION SECTION
DEPTH.Metres : 0 Depth
Depth. : 1 Depth
Incline.Deg : 2 Incline
Azimuth.Deg : 3 Azimuth
GR.CPS : 4 GR
~PARAMETER INFORMATION SECTION
~OTHER
#-------------------------------------------------
#Produced By: GeoVista Logger - Version 7.1.107.0
Natural Gamma Sonde - 6447
Verticality Sonde - 6292
#-------------------------------------------------
~ASCII LOG DATA
# ...
7.95 7.972010 4.10 92.9250 180.0
7.94 7.959370 4.050 90.98750 178.333330
7.93 7.950640 4.0 89.050 176.666670
7.92 7.941910 3.950 87.11250 175.0
7.91 7.933180 3.90 85.1750 173.333330
7.90 7.920540 3.850 83.23750 171.666670
7.89 7.90790 3.80 81.30 170.0
7.88 7.899470 3.857140 83.30 168.333330
7.87 7.891050 3.914290 85.30 166.666670
7.86 7.882620 3.971430 87.30 166.190480
7.85 7.870430 4.028570 89.30 165.714290
7.84 7.858240 4.085710 91.30 165.23810
7.83 7.849810 4.142860 93.30 164.76190
7.82 7.841380 4.20 95.30 164.285710
7.81 7.832960 4.150 95.06250 163.809520
7.80 7.820320 4.10 94.8250 163.333330
7.79 7.807670 4.050 94.58750 165.0
7.78 7.799250 4.0 94.350 166.666670
7.77 7.790820 3.950 94.11250 168.333330
7.76 7.782390 3.90 93.8750 170.0
7.75 7.769750 3.850 93.63750 171.666670
7.74 7.757110 3.80 93.40 173.333330
7.73 7.748680 3.83750 92.81250 175.0
7.72 7.740260 3.8750 92.2250 176.666670
7.71 7.731830 3.91250 91.63750 177.50
7.70 7.719190 3.950 91.050 178.333330
7.69 7.706550 3.98750 90.46250 179.166670
7.68 7.698120 4.0250 89.8750 180.0
7.67 7.689690 4.06250 89.28750 180.833330
7.66 7.681260 4.10 88.70 181.666670
7.65 7.668620 4.014290 89.671430 182.50
7.64 7.655980 3.928570 90.642860 183.333330
7.63 7.647550 3.842860 91.614290 187.619050
7.62 7.639130 3.757140 92.585710 191.904760
7.61 7.63070 3.671430 93.557140 196.190480
7.60 7.618510 3.585710 94.528570 200.476190
7.59 7.606320 3.50 95.50 204.76190
7.58 7.597890 3.56250 95.86250 209.047620
7.57 7.589470 3.6250 96.2250 213.333330
7.56 7.581040 3.68750 96.58750 212.876340
7.55 7.56840 3.750 96.950 212.419350
7.54 7.555760 3.81250 97.31250 211.962370
7.53 7.547330 3.8750 97.6750 211.505380
7.52 7.53890 3.93750 98.03750 211.048390
7.51 7.530470 4.0 98.40 210.59140
7.50 7.522050 4.0 98.042860 210.134410
7.49 7.513620 4.0 97.685710 209.677420
7.48 7.505190 4.0 97.328570 204.96160
7.47 7.492550 4.0 96.971430 200.245780
7.46 7.479910 4.0 96.614290 195.529950
7.45 7.471480 4.0 96.257140 190.814130
7.44 7.463050 4.0 95.90 186.098310
7.43 7.454630 3.9750 95.28750 181.382490
7.42 7.441990 3.950 94.6750 176.666670
7.41 7.429350 3.9250 94.06250 173.333330
7.40 7.421220 3.90 93.450 170.0
7.39 7.413090 3.8750 92.83750 166.666670
7.38 7.404970 3.850 92.2250 163.333330
7.37 7.391870 3.8250 91.61250 160.0
7.36 7.378780 3.80 91.0 156.666670
7.35 7.370350 3.785710 92.714290 153.333330
7.34 7.361930 3.771430 94.428570 150.0
7.33 7.35350 3.757140 96.142860 155.0
7.32 7.340860 3.742860 97.857140 160.0
7.31 7.328220 3.728570 99.571430 165.0
7.30 7.319790 3.714290 101.285710 170.0
7.29 7.311360 3.70 103.0 175.0
7.28 7.302930 3.68750 101.7250 180.0
7.27 7.290290 3.6750 100.450 185.0
7.26 7.277650 3.66250 99.1750 190.0
7.25 7.269220 3.650 97.90 192.857140
7.24 7.26080 3.63750 96.6250 195.714290
7.23 7.252370 3.6250 95.350 198.571430
7.22 7.239730 3.61250 94.0750 201.428570
7.21 7.227090 3.60 92.80 204.285710
7.20 7.218360 3.650 92.76250 207.142860
7.19 7.209630 3.70 92.7250 210.0
7.18 7.20090 3.750 92.68750 212.083330
7.17 7.188260 3.80 92.650 214.166670
7.16 7.175620 3.850 92.61250 216.250
7.15 7.167190 3.90 92.5750 218.333330
7.14 7.158770 3.950 92.53750 220.416670
7.13 7.150340 4.0 92.50 222.50
7.12 7.141610 4.0 93.628570 224.583330
7.11 7.132880 4.0 94.757140 226.666670
7.10 7.124150 4.0 95.885710 227.083330
7.09 7.111510 4.0 97.014290 227.50
7.08 7.098870 4.0 98.142860 227.916670
7.07 7.090440 4.0 99.271430 228.333330
7.06 7.082020 4.0 100.40 228.750
7.05 7.073590 4.01250 99.70 229.166670
7.04 7.06050 4.0250 99.0 229.583330
7.03 7.04740 4.03750 98.30 230.0
7.02 7.038980 4.050 97.60 234.76190
7.01 7.030550 4.06250 96.90 239.523810
7.00 7.022120 4.0750 96.20 244.285710
6.99 7.009480 4.08750 95.50 249.047620
6.98 6.996840 4.10 94.80 253.809520
6.97 6.988410 4.10 94.028570 258.571430
6.96 6.979980 4.10 93.257140 263.333330
6.95 6.971560 4.10 92.485710 256.250
6.94 6.958920 4.10 91.714290 249.166670
6.93 6.946280 4.10 90.942860 242.083330
6.92 6.937850 4.10 90.171430 235.0
6.91 6.929420 4.10 89.40 227.916670
6.90 6.920990 4.08750 91.01250 220.833330
6.89 6.908350 4.0750 92.6250 213.750
6.88 6.895710 4.06250 94.23750 206.666670
6.87 6.887280 4.050 95.850 197.619050
6.86 6.878860 4.03750 97.46250 188.571430
6.85 6.870430 4.0250 99.0750 179.523810
6.84 6.8620 4.01250 100.68750 170.476190
6.83 6.853570 4.0 102.30 161.428570
6.82 6.845150 4.0 101.63750 152.380950
6.81 6.832510 4.0 100.9750 143.333330
6.80 6.819860 4.0 100.31250 145.416670
6.79 6.811440 4.0 99.650 147.50
6.78 6.803010 4.0 98.98750 149.583330
6.77 6.794580 4.0 98.3250 151.666670
6.76 6.781940 4.0 97.66250 153.750
6.75 6.76930 4.0 97.0 155.833330
6.74 6.761170 4.028570 96.50 157.916670
6.73 6.753050 4.057140 96.0 160.0
6.72 6.744920 4.085710 95.50 167.619050
6.71 6.732280 4.114290 95.0 175.23810
6.70 6.719640 4.142860 94.50 182.857140
6.69 6.711210 4.171430 94.0 190.476190
6.68 6.702780 4.20 93.50 198.095240
6.67 6.694360 4.18750 93.950 205.714290
6.66 6.681720 4.1750 94.40 213.333330
6.65 6.669070 4.16250 94.850 212.916670
6.64 6.660650 4.150 95.30 212.50
6.63 6.652220 4.13750 95.750 212.083330
6.62 6.643790 4.1250 96.20 211.666670
6.61 6.63160 4.11250 96.650 211.250
6.60 6.619410 4.10 97.10 210.833330
6.59 6.610990 4.10 96.085710 210.416670
6.58 6.602560 4.10 95.071430 210.0
6.57 6.594130 4.10 94.057140 203.750
6.56 6.581490 4.10 93.042860 197.50
6.55 6.568850 4.10 92.028570 191.250
6.54 6.560420 4.10 91.014290 185.0
6.53 6.551990 4.10 90.0 178.750
6.52 6.543570 4.0750 90.28750 172.50
6.51 6.530930 4.050 90.5750 166.250
6.50 6.518280 4.0250 90.86250 160.0
6.49 6.509860 4.0 91.150 166.190480
6.48 6.501430 3.9750 91.43750 172.380950
6.47 6.4930 3.950 91.7250 178.571430
6.46 6.480360 3.9250 92.01250 184.76190
6.45 6.467720 3.90 92.30 190.952380
6.44 6.459290 3.9250 92.43750 197.142860
6.43 6.450870 3.950 92.5750 203.333330
6.42 6.442440 3.9750 92.71250 202.50
6.41 6.42980 4.0 92.850 201.666670
6.40 6.417160 4.0250 92.98750 200.833330
6.39 6.408730 4.050 93.1250 200.0
6.38 6.40030 4.0750 93.26250 199.166670
6.37 6.391870 4.10 93.40 198.333330
6.36 6.379230 4.028570 92.857140 197.50
6.35 6.366590 3.957140 92.314290 196.666670
6.34 6.357860 3.885710 91.771430 201.904760
6.33 6.349130 3.814290 91.228570 207.142860
6.32 6.340410 3.742860 90.685710 212.380950
6.31 6.332280 3.671430 90.142860 217.619050
6.30 6.324150 3.60 89.60 222.857140
6.29 6.316030 3.620 89.960 228.095240
6.28 6.302930 3.640 90.320 233.333330
6.27 6.289840 3.660 90.680 229.166670
6.26 6.281410 3.680 91.040 225.0
6.25 6.272990 3.70 91.40 220.833330
6.24 6.264560 3.720 91.760 216.666670
6.23 6.251920 3.740 92.120 212.50
6.22 6.239280 3.760 92.480 208.333330
6.21 6.230850 3.780 92.840 204.166670
6.20 6.222420 3.80 93.20 200.0
6.19 6.2140 3.820 93.560 204.166670
6.18 6.201350 3.840 93.920 208.333330
6.17 6.188710 3.860 94.280 212.50
6.16 6.180290 3.880 94.640 216.666670
6.15 6.171860 3.90 95.0 220.833330
6.14 6.163430 3.8750 94.68750 225.0
6.13 6.150790 3.850 94.3750 229.166670
6.12 6.138150 3.8250 94.06250 233.333330
6.11 6.129420 3.80 93.750 231.336410
6.10 6.120690 3.7750 93.43750 229.339480
6.09 6.111960 3.750 93.1250 227.342550
6.08 6.099320 3.7250 92.81250 225.345620
6.07 6.086680 3.70 92.50 223.348690
6.06 6.078560 3.657140 92.428570 221.351770
6.05 6.070430 3.614290 92.357140 219.354840
6.04 6.06230 3.571430 92.285710 219.435480
6.03 6.049660 3.528570 92.214290 219.516130
6.02 6.037020 3.485710 92.142860 219.596770
6.01 6.028590 3.442860 92.071430 219.677420
6.00 6.020170 3.40 92.0 219.758060
5.99 6.011740 3.4250 91.73750 219.838710
5.98 5.99910 3.450 91.4750 219.919350
5.97 5.986460 3.4750 91.21250 220.0
5.96 5.978030 3.50 90.950 217.083330
5.95 5.96960 3.5250 90.68750 214.166670
5.94 5.961170 3.550 90.4250 211.250
5.93 5.948530 3.5750 90.16250 208.333330
5.92 5.935890 3.60 89.90 205.416670
5.91 5.927460 3.63750 90.4250 202.50
5.90 5.919040 3.6750 90.950 199.583330
5.89 5.910610 3.71250 91.4750 196.666670
5.88 5.897970 3.750 92.0 195.23810
5.87 5.885330 3.78750 92.5250 193.809520
5.86 5.87720 3.8250 93.050 192.380950
