~VERSION INFORMATION SECTION
VERS. 2.0 : CWLS LAS-VERSION 2.0
WRAP. NO : One line per depth step
~WELL INFORMATION SECTION
# MNEM.UNIT VALUE/NAME DESCRIPTION
#-------- -------------- ---------------------
STRT.Metres 14 : Start
STOP.Metres 0.38 : Stop
STEP.Metres -0.01 : Step
NULL.  -999.25 :NULL VALUE
DATE. 2025-47-11 : DATE
~CURVE INFORMATION SECTION
DEPTH.Metres : 0 Depth
Depth. : 1 Depth
Incline.Deg : 2 Incline
Azimuth.Deg : 3 Azimuth
GR.CPS : 4 GR
~PARAMETER INFORMATION SECTION
~OTHER
#-------------------------------------------------
#Produced By: GeoVista Logger - Version 7.1.107.0
Natural Gamma Sonde - 6447
Verticality Sonde - 6292
#-------------------------------------------------
~ASCII LOG DATA
# ...
7.62 7.628890 4.20 98.70 157.777780
7.61 7.617160 4.20 98.30 150.0
7.60 7.606320 4.20 97.90 165.555560
7.59 7.595490 4.20 97.50 181.111110
7.58 7.584650 4.20 97.10 196.666670
7.57 7.573810 4.20 97.0 197.777780
7.56 7.562980 4.20 96.90 198.888890
7.55 7.552140 4.20 96.80 200.0
7.54 7.541310 4.20 97.20 194.166670
7.53 7.535890 4.20 97.60 188.333330
7.52 7.530470 4.20 98.0 182.50
7.51 7.519640 4.20 97.833330 176.666670
7.50 7.50880 4.20 97.666670 172.222220
7.49 7.497970 4.20 97.50 167.777780
7.48 7.487130 4.20 97.50 163.333330
7.47 7.47630 4.20 97.50 171.111110
7.46 7.465460 4.20 97.50 178.888890
7.45 7.454630 4.20 97.50 186.666670
7.44 7.442890 4.166670 98.133330 198.333330
7.43 7.432050 4.133330 98.766670 210.0
7.42 7.421220 4.10 99.40 221.666670
7.41 7.41580 4.10 98.433330 233.333330
7.40 7.410380 4.10 97.466670 221.111110
7.39 7.399550 4.10 96.50 208.888890
7.38 7.388710 4.10 97.766670 196.666670
7.37 7.377880 4.10 99.033330 208.888890
7.36 7.366140 4.10 100.30 221.111110
7.35 7.35530 4.10 99.40 233.333330
7.34 7.344470 4.10 98.50 228.333330
7.33 7.333630 4.10 97.60 223.333330
7.32 7.32280 4.10 96.70 218.333330
7.31 7.311060 4.066670 97.70 213.333330
7.30 7.305640 4.033330 98.70 220.0
7.29 7.300230 4.0 99.70 226.666670
7.28 7.289390 4.0 99.366670 233.333330
7.27 7.278560 4.0 99.033330 224.444440
7.26 7.267720 4.0 98.70 215.555560
7.25 7.256880 4.0250 97.60 206.666670
7.24 7.245150 4.050 96.50 211.666670
7.23 7.234310 4.0750 95.40 216.666670
7.22 7.223480 4.10 94.30 221.666670
7.21 7.212640 4.10 95.10 226.666670
7.20 7.201810 4.10 95.90 226.666670
7.19 7.195940 4.10 96.70 226.666670
7.18 7.190070 4.10 97.033330 226.666670
7.17 7.179230 4.10 97.366670 222.222220
7.16 7.16840 4.10 97.70 217.777780
7.15 7.156660 4.10 96.966670 213.333330
7.14 7.145820 4.10 96.233330 216.666670
7.13 7.134990 4.10 95.50 220.0
7.12 7.124150 4.10 95.8250 223.333330
7.11 7.112420 4.10 96.150 226.666670
7.10 7.101580 4.10 96.4750 215.555560
7.09 7.096160 4.10 96.80 204.444440
7.08 7.090740 4.10 96.733330 193.333330
7.07 7.079910 4.10 96.666670 188.888890
7.06 7.068170 4.10 96.60 184.444440
7.05 7.057340 4.10 96.533330 180.0
7.04 7.04650 4.10 96.466670 175.555560
7.03 7.034760 4.10 96.40 171.111110
7.02 7.023930 4.10 96.4250 166.666670
7.01 7.013090 4.10 96.450 166.666670
7.00 7.002260 4.10 96.4750 166.666670
6.99 6.991420 4.10 96.50 166.666670
6.98 6.9860 4.10 96.40 166.666670
6.97 6.980590 4.10 96.30 165.949820
6.96 6.968850 4.10 96.20 165.232970
6.95 6.958010 4.10 96.10 164.516130
6.94 6.947180 4.10 96.0 177.45520
6.93 6.936340 4.10 95.90 190.394270
6.92 6.925510 4.10 95.50 203.333330
6.91 6.914670 4.10 95.10 204.444440
6.90 6.903840 4.10 94.70 205.555560
6.89 6.8930 4.10 94.9250 206.666670
6.88 6.881260 4.10 95.150 205.0
6.87 6.875850 4.10 95.3750 203.333330
6.86 6.870430 4.10 95.60 201.666670
6.85 6.859590 4.10 95.70 200.0
6.84 6.848760 4.10 95.80 196.666670
6.83 6.837920 4.10 95.90 193.333330
6.82 6.827090 4.133330 95.40 190.0
6.81 6.816250 4.166670 94.90 188.888890
6.80 6.805420 4.20 94.40 187.777780
6.79 6.793680 4.1750 94.5750 186.666670
6.78 6.782840 4.150 94.750 183.333330
6.77 6.772010 4.1250 94.9250 180.0
6.76 6.761170 4.10 95.10 176.666670
6.75 6.755760 4.10 95.166670 173.333330
6.74 6.750340 4.10 95.233330 184.444440
6.73 6.73950 4.10 95.30 195.555560
6.72 6.728670 4.10 94.933330 206.666670
6.71 6.717830 4.10 94.566670 195.555560
6.70 6.7070 4.10 94.20 184.444440
6.69 6.696160 4.10 94.1250 173.333330
6.68 6.685330 4.10 94.050 188.888890
6.67 6.674490 4.10 93.9750 204.444440
6.66 6.663660 4.10 93.90 220.0
6.65 6.652820 4.10 93.633330 205.0
6.64 6.641990 4.10 93.366670 190.0
6.63 6.631150 4.10 93.10 175.0
6.62 6.625730 4.10 93.866670 160.0
6.61 6.620320 4.10 94.633330 176.666670
6.60 6.608580 4.10 95.40 193.333330
6.59 6.597740 4.10 95.20 210.0
6.58 6.586910 4.10 95.0 202.222220
6.57 6.576070 4.10 94.80 194.444440
6.56 6.565240 4.10 94.60 186.666670
6.55 6.55440 4.10 94.233330 178.888890
6.54 6.542660 4.10 93.866670 171.111110
6.53 6.531830 4.10 93.50 163.333330
6.52 6.520990 4.10 94.266670 173.333330
6.51 6.515580 4.10 95.033330 183.333330
6.50 6.510160 4.10 95.80 193.333330
6.49 6.499320 4.10 95.566670 203.333330
6.48 6.488490 4.10 95.333330 205.555560
6.47 6.477650 4.10 95.10 207.777780
6.46 6.466820 4.10 95.050 210.0
6.45 6.455080 4.10 95.0 197.777780
6.44 6.444240 4.10 94.950 185.555560
6.43 6.433410 4.10 94.90 173.333330
6.42 6.422570 4.066670 94.866670 184.166670
6.41 6.417160 4.033330 94.833330 195.0
6.40 6.411740 4.0 94.80 205.833330
6.39 6.40 4.0 94.966670 216.666670
6.38 6.389160 4.0 95.133330 208.888890
6.37 6.378330 4.0 95.30 201.111110
6.36 6.367490 4.0 95.066670 193.333330
6.35 6.356660 4.0 94.833330 192.222220
6.34 6.345820 4.0 94.60 191.111110
6.33 6.334990 4.0 94.4750 190.0
6.32 6.323250 4.0 94.350 194.11290
6.31 6.312420 4.0 94.2250 198.225810
6.30 6.301580 4.0 94.10 202.338710
6.29 6.296160 4.0 94.166670 206.451610
6.28 6.290740 4.0 94.233330 205.412190
6.27 6.279010 4.0 94.30 204.372760
6.26 6.268170 4.0 94.766670 203.333330
6.25 6.257340 4.0 95.233330 208.888890
6.24 6.24650 4.0 95.70 214.444440
6.23 6.235670 4.0 95.0250 220.0
6.22 6.223930 4.0 94.350 219.166670
6.21 6.213090 4.0 93.6750 218.333330
6.20 6.202260 4.0 93.0 217.50
6.19 6.196840 4.0 94.066670 216.666670
6.18 6.191420 4.0 95.133330 218.888890
6.17 6.179680 4.0 96.20 221.111110
6.16 6.168850 4.0 95.833330 223.333330
6.15 6.158010 4.0 95.466670 225.555560
6.14 6.147180 4.0 95.10 227.777780
6.13 6.136340 4.0 95.10 230.0
6.12 6.12460 4.0 95.10 220.833330
6.11 6.113770 4.0 95.10 211.666670
6.10 6.102930 4.0 95.050 202.50
6.09 6.09210 4.0 95.0 193.333330
6.08 6.081260 4.0 94.950 198.888890
6.07 6.075850 4.0 94.90 204.444440
6.06 6.070430 4.0 94.766670 210.0
6.05 6.059590 4.0 94.633330 205.555560
6.04 6.048760 4.0 94.50 201.111110
6.03 6.037920 4.0 94.266670 196.666670
6.02 6.027090 4.0 94.033330 195.555560
6.01 6.015350 4.0 93.80 194.444440
6.00 6.004510 3.9750 94.5250 193.333330
5.99 5.993680 3.950 95.250 189.166670
5.98 5.982840 3.9250 95.9750 185.0
5.97 5.972010 3.90 96.70 180.833330
5.96 5.961170 3.90 95.80 176.666670
5.95 5.955760 3.90 94.90 170.0
5.94 5.950340 3.90 94.0 163.333330
5.93 5.93950 3.80 93.633330 156.666670
5.92 5.928670 3.70 93.266670 166.666670
5.91 5.916930 3.60 92.90 176.666670
5.90 5.906090 3.650 93.6250 186.666670
5.89 5.895260 3.70 94.350 196.666670
5.88 5.884420 3.750 95.0750 206.666670
5.87 5.873590 3.80 95.80 216.666670
5.86 5.862750 3.833330 95.50 204.166670
5.85 5.851920 3.866670 95.20 191.666670
5.84 5.841080 3.90 94.90 179.166670
5.83 5.835670 3.866670 95.166670 166.666670
5.82 5.830250 3.833330 95.433330 168.888890
5.81 5.819410 3.80 95.70 171.111110
5.80 5.807670 3.833330 94.666670 173.333330
5.79 5.796840 3.866670 93.633330 180.0
5.78 5.7860 3.90 92.60 186.666670
5.77 5.775170 3.90 93.10 193.333330
5.76 5.764330 3.90 93.60 193.333330
5.75 5.75350 3.90 94.10 193.333330
5.74 5.741760 3.90 94.60 193.333330
5.73 5.730930 3.90 94.466670 193.333330
5.72 5.725510 3.90 94.333330 169.74910
5.71 5.720090 3.90 94.20 146.164870
5.70 5.709260 3.90 93.333330 122.580650
5.69 5.698420 3.90 92.466670 131.720430
5.68 5.687580 3.90 91.60 140.860220
5.67 5.676750 3.8750 92.80 150.0
5.66 5.665910 3.850 94.0 161.111110
5.65 5.655080 3.8250 95.20 172.222220
5.64 5.644240 3.80 96.40 183.333330
5.63 5.633410 3.80 94.966670 177.50
5.62 5.622570 3.80 93.533330 171.666670
5.61 5.611740 3.80 92.10 165.833330
5.60 5.60090 3.80 92.666670 160.0
5.59 5.590970 3.80 93.233330 170.0
5.58 5.585550 3.80 93.80 180.0
5.57 5.580140 3.833330 94.30 190.0
5.56 5.56930 3.866670 94.80 184.444440
5.55 5.558470 3.90 95.30 178.888890
5.54 5.547630 3.90 94.70 173.333330
5.53 5.535890 3.90 94.10 175.833330
5.52 5.525060 3.90 93.50 178.333330
5.51 5.514220 3.90 92.90 180.833330
5.50 5.503390 3.90 92.266670 183.333330
5.49 5.492550 3.90 91.633330 182.222220
5.48 5.481720 3.90 91.0 181.111110
5.47 5.47630 3.866670 90.933330 180.0
5.46 5.470880 3.833330 90.866670 167.777780
5.45 5.459140 3.80 90.80 155.555560
