~VERSION INFORMATION SECTION
VERS. 2.0 : CWLS LAS-VERSION 2.0
WRAP. NO : One line per depth step
~WELL INFORMATION SECTION
# MNEM.UNIT VALUE/NAME DESCRIPTION
#-------- -------------- ---------------------
STRT.Metres 14 : Start
STOP.Metres 0.03 : Stop
STEP.Metres -0.01 : Step
NULL.  -999.25 :NULL VALUE
DATE. 2025-51-11 : DATE
~CURVE INFORMATION SECTION
DEPTH.Metres : 0 Depth
Depth. : 1 Depth
Incline.Deg : 2 Incline
Azimuth.Deg : 3 Azimuth
GR.CPS : 4 GR
~PARAMETER INFORMATION SECTION
~OTHER
#-------------------------------------------------
#Produced By: GeoVista Logger - Version 7.1.107.0
Natural Gamma Sonde - 6447
Verticality Sonde - 6292
#-------------------------------------------------
~ASCII LOG DATA
# ...
9.77 9.786910 4.40 98.60 125.333330
9.76 9.768850 4.440 98.30 124.0
9.75 9.760270 4.480 98.0 122.666670
9.74 9.751690 4.520 97.70 121.333330
9.73 9.743120 4.560 97.40 120.0
9.72 9.734540 4.60 97.10 126.0
9.71 9.717380 4.60 97.11250 132.0
9.70 9.70880 4.60 97.1250 138.0
9.69 9.700230 4.60 97.13750 144.0
9.68 9.691650 4.60 97.150 150.0
9.67 9.683070 4.60 97.16250 160.0
9.66 9.674490 4.60 97.1750 170.0
9.65 9.665910 4.60 97.18750 180.0
9.64 9.648760 4.60 97.20 190.0
9.63 9.640180 4.60 97.21250 200.0
9.62 9.63160 4.60 97.2250 183.333330
9.61 9.623020 4.60 97.23750 166.666670
9.60 9.614450 4.60 97.250 150.0
9.59 9.605420 4.60 97.26250 133.333330
9.58 9.596390 4.60 97.2750 116.666670
9.57 9.579230 4.60 97.28750 100.0
9.56 9.570650 4.60 97.30 110.322580
9.55 9.562080 4.60 97.560 120.645160
9.54 9.55350 4.60 97.820 130.967740
9.53 9.544920 4.60 98.080 141.290320
9.52 9.527770 4.60 98.340 151.61290
9.51 9.519190 4.60 98.60 159.290320
9.50 9.510610 4.60 98.40 166.967740
9.49 9.502030 4.60 98.20 174.645160
9.48 9.493450 4.60 98.0 182.322580
9.47 9.484880 4.60 97.80 190.0
9.46 9.47630 4.60 97.60 172.0
9.45 9.458240 4.60 97.40 154.0
9.44 9.449660 4.60 97.20 136.0
9.43 9.441080 4.60 97.0 118.0
9.42 9.432510 4.60 96.80 100.0
9.41 9.423930 4.60 96.60 119.0
9.40 9.415350 4.60 96.716670 138.0
9.39 9.406770 4.60 96.833330 157.0
9.38 9.388710 4.60 96.950 176.0
9.37 9.380140 4.60 97.066670 195.0
9.36 9.371560 4.60 97.183330 183.611110
9.35 9.362980 4.60 97.30 172.222220
9.34 9.35440 4.580 97.960 160.833330
9.33 9.337250 4.560 98.620 149.444440
9.32 9.328670 4.540 99.280 138.055560
9.31 9.320090 4.520 99.940 126.666670
9.30 9.311060 4.50 100.60 136.0
9.29 9.302030 4.50 98.960 145.333330
9.28 9.293450 4.50 97.320 154.666670
9.27 9.284880 4.50 95.680 164.0
9.26 9.27630 4.50 94.040 173.333330
9.25 9.267720 4.50 92.40 164.0
9.24 9.249660 4.520 94.380 154.666670
9.23 9.240630 4.540 96.360 145.333330
9.22 9.23160 4.560 98.340 136.0
9.21 9.223020 4.580 100.320 126.666670
9.20 9.214450 4.60 102.30 140.666670
9.19 9.205870 4.580 102.240 154.666670
9.18 9.197290 4.560 102.180 168.666670
9.17 9.179230 4.540 102.120 182.666670
9.16 9.170650 4.520 102.060 196.666670
9.15 9.162080 4.50 102.0 193.333330
9.14 9.15350 4.433330 100.466670 190.0
9.13 9.144920 4.366670 98.933330 186.666670
9.12 9.135890 4.30 97.40 183.333330
9.11 9.126860 4.233330 95.866670 180.0
9.10 9.109710 4.166670 94.333330 176.666670
9.09 9.101130 4.10 92.80 176.0
9.08 9.092550 4.160 94.040 175.333330
9.07 9.083520 4.220 95.280 174.666670
9.06 9.074490 4.280 96.520 174.0
9.05 9.057340 4.340 97.760 173.333330
9.04 9.048760 4.40 99.0 170.666670
9.03 9.040180 4.420 98.560 168.0
9.02 9.031150 4.440 98.120 165.333330
9.01 9.022120 4.460 97.680 162.666670
9.00 9.013540 4.480 97.240 160.0
8.99 9.004970 4.50 96.80 162.545450
8.98 8.987810 4.520 95.880 165.090910
8.97 8.979230 4.540 94.960 167.636360
8.96 8.970650 4.560 94.040 170.181820
8.95 8.961630 4.580 93.120 172.727270
8.94 8.95260 4.60 92.20 165.869220
8.93 8.944020 4.583330 93.383330 159.011160
8.92 8.935440 4.566670 94.566670 152.153110
8.91 8.917380 4.550 95.750 145.295060
8.90 8.90880 4.533330 96.933330 138.4370
8.89 8.900230 4.516670 98.116670 131.578950
8.88 8.891650 4.50 99.30 139.929820
8.87 8.883070 4.50 98.920 148.28070
8.86 8.874040 4.50 98.540 156.631580
8.85 8.865010 4.50 98.160 164.982460
8.84 8.847860 4.50 97.780 173.333330
8.83 8.839280 4.50 97.40 172.0
8.82 8.83070 4.50 96.820 170.666670
8.81 8.822120 4.50 96.240 169.333330
8.80 8.813540 4.50 95.660 168.0
8.79 8.804970 4.50 95.080 166.666670
8.78 8.796390 4.50 94.50 170.666670
8.77 8.779230 4.50 95.020 174.666670
8.76 8.770650 4.50 95.540 178.666670
8.75 8.762080 4.50 96.060 182.666670
8.74 8.75350 4.50 96.580 186.666670
8.73 8.744920 4.50 97.10 182.0
8.72 8.727770 4.520 97.060 177.333330
8.71 8.719190 4.540 97.020 172.666670
8.70 8.710610 4.560 96.980 168.0
8.69 8.702030 4.580 96.940 163.333330
8.68 8.693450 4.60 96.90 164.0
8.67 8.684880 4.583330 96.10 164.666670
8.66 8.67630 4.566670 95.30 165.333330
8.65 8.659140 4.550 94.50 166.0
8.64 8.650560 4.533330 93.70 166.666670
8.63 8.641990 4.516670 92.90 163.333330
8.62 8.633410 4.50 92.10 160.0
8.61 8.624830 4.50 93.640 156.666670
8.60 8.607670 4.50 95.180 153.333330
8.59 8.59910 4.50 96.720 150.0
8.58 8.590520 4.50 98.260 146.666670
8.57 8.581940 4.50 99.80 147.655910
8.56 8.573360 4.50 99.160 148.645160
8.55 8.564790 4.50 98.520 149.634410
8.54 8.556210 4.50 97.880 150.623660
8.53 8.538150 4.50 97.240 151.61290
8.52 8.529570 4.50 96.60 150.623660
8.51 8.520990 4.460 95.420 149.634410
8.50 8.512420 4.420 94.240 148.645160
8.49 8.503840 4.380 93.060 147.655910
8.48 8.495260 4.340 91.880 146.666670
8.47 8.486680 4.30 90.70 154.666670
8.46 8.469530 4.30 91.920 162.666670
8.45 8.460950 4.30 93.140 170.666670
8.44 8.452370 4.30 94.360 178.666670
8.43 8.443340 4.30 95.580 186.666670
8.42 8.434310 4.30 96.80 186.666670
8.41 8.425730 4.316670 96.566670 186.666670
8.40 8.417160 4.333330 96.333330 186.666670
8.39 8.40 4.350 96.10 186.666670
8.38 8.391420 4.366670 95.866670 186.666670
8.37 8.382840 4.383330 95.633330 181.666670
8.36 8.374270 4.40 95.40 176.666670
8.35 8.365690 4.40 94.780 171.666670
8.34 8.347630 4.40 94.160 166.666670
8.33 8.339050 4.40 93.540 161.666670
8.32 8.330470 4.40 92.920 156.666670
8.31 8.321440 4.40 92.30 158.0
8.30 8.312420 4.40 93.50 159.333330
8.29 8.303840 4.40 94.70 160.666670
8.28 8.295260 4.40 95.90 162.0
8.27 8.27720 4.40 97.10 163.333330
8.26 8.268620 4.40 98.30 162.0
8.25 8.260050 4.380 98.520 160.666670
8.24 8.251470 4.360 98.740 159.333330
8.23 8.242890 4.340 98.960 158.0
8.22 8.233860 4.320 99.180 156.666670
8.21 8.224830 4.30 99.40 158.666670
8.20 8.207670 4.30 97.520 160.666670
8.19 8.19910 4.30 95.640 162.666670
8.18 8.190520 4.30 93.760 164.666670
8.17 8.181940 4.30 91.880 166.666670
8.16 8.173360 4.30 90.0 163.888890
8.15 8.164330 4.280 91.0 161.111110
8.14 8.15530 4.260 92.0 158.333330
8.13 8.138150 4.240 93.0 155.555560
8.12 8.129120 4.220 94.0 152.777780
8.11 8.120090 4.20 95.0 150.0
8.10 8.111510 4.190910 95.118180 160.0
8.09 8.102930 4.181820 95.236360 170.0
8.08 8.093910 4.172730 95.354550 180.0
8.07 8.084880 4.163640 95.472730 190.0
8.06 8.07630 4.154550 95.590910 200.0
8.05 8.067720 4.145450 95.709090 203.333330
8.04 8.049660 4.136360 95.827270 206.666670
8.03 8.041080 4.127270 95.945450 210.0
8.02 8.032510 4.118180 96.063640 213.333330
8.01 8.023930 4.109090 96.181820 216.666670
8.00 8.015350 4.10 96.30 207.333330
7.99 7.997290 4.120 96.160 198.0
7.98 7.988710 4.140 96.020 188.666670
7.97 7.980140 4.160 95.880 179.333330
7.96 7.971560 4.180 95.740 170.0
7.95 7.962980 4.20 95.60 175.0
7.94 7.95440 4.220 95.460 180.0
7.93 7.945820 4.240 95.320 185.0
7.92 7.928670 4.260 95.180 190.0
7.91 7.920090 4.280 95.040 195.0
7.90 7.911510 4.30 94.90 200.0
7.89 7.902930 4.30 94.650 192.0
7.88 7.894360 4.30 94.40 184.0
7.87 7.87720 4.30 94.150 176.0
7.86 7.868620 4.30 93.90 168.0
7.85 7.860050 4.30 93.650 160.0
7.84 7.851470 4.30 93.40 165.333330
7.83 7.842890 4.280 93.90 170.666670
7.82 7.834310 4.260 94.40 176.0
7.81 7.825730 4.240 94.90 181.333330
7.80 7.808580 4.220 95.40 186.666670
7.79 7.80 4.20 95.90 176.0
7.78 7.791420 4.20 96.160 165.333330
7.77 7.782390 4.20 96.420 154.666670
7.76 7.773360 4.20 96.680 144.0
7.75 7.764790 4.20 96.940 133.333330
7.74 7.756210 4.20 97.20 141.333330
7.73 7.739050 4.20 97.190910 149.333330
7.72 7.730470 4.20 97.181820 157.333330
7.71 7.72190 4.20 97.172730 165.333330
7.70 7.713320 4.20 97.163640 173.333330
7.69 7.704740 4.20 97.154550 171.333330
7.68 7.687580 4.20 97.145450 169.333330
7.67 7.679010 4.20 97.136360 167.333330
7.66 7.670430 4.20 97.127270 165.333330
7.65 7.661850 4.20 97.118180 163.333330
7.64 7.653270 4.20 97.109090 167.333330
7.63 7.64470 4.20 97.10 171.333330
7.62 7.636120 4.20 97.580 175.333330
7.61 7.618960 4.20 98.060 179.333330
7.60 7.610380 4.20 98.540 183.333330
7.59 7.601810 4.20 99.020 178.584230
7.58 7.593230 4.20 99.50 173.835130
7.57 7.584650 4.180 98.560 169.086020
