~VERSION INFORMATION SECTION
VERS. 2.0 : CWLS LAS-VERSION 2.0
WRAP. NO : One line per depth step
~WELL INFORMATION SECTION
# MNEM.UNIT VALUE/NAME DESCRIPTION
#-------- -------------- ---------------------
STRT.Metres 14 : Start
STOP.Metres 0.43 : Stop
STEP.Metres -0.01 : Step
NULL.  -999.25 :NULL VALUE
DATE. 2025-57-11 : DATE
~CURVE INFORMATION SECTION
DEPTH.Metres : 0 Depth
Depth. : 1 Depth
Incline.Deg : 2 Incline
Azimuth.Deg : 3 Azimuth
GR.CPS : 4 GR
~PARAMETER INFORMATION SECTION
~OTHER
#-------------------------------------------------
#Produced By: GeoVista Logger - Version 7.1.107.0
Natural Gamma Sonde - 6447
Verticality Sonde - 6292
#-------------------------------------------------
~ASCII LOG DATA
14.00 -999.25 -999.25 -999.25 -999.25
13.99 4.663660 -999.25 -999.25 -999.25
13.98 9.327310 -999.25 -999.25 -999.25
13.97 13.990970 -999.25 -999.25 -999.25
13.96 13.98330 -999.25 -999.25 -999.25
13.95 13.975620 -999.25 -999.25 -999.25
13.94 13.967950 -999.25 -999.25 -999.25
13.93 13.960270 6.10 93.01250 -999.25
13.92 13.949740 6.10 92.956250 -999.25
13.91 13.93920 6.10 92.90 -999.25
13.90 13.928670 6.10 93.0 -999.25
13.89 13.917530 6.10 93.10 -999.25
13.88 13.90640 6.10 92.90 -999.25
13.87 13.895260 6.10 92.70 -999.25
13.86 13.886460 6.10 92.50 -999.25
13.85 13.877650 6.10 92.30 -999.25
13.84 13.868850 6.080 92.680 -999.25
13.83 13.860050 6.060 93.060 -999.25
13.82 13.850790 6.040 93.440 -999.25
13.81 13.841530 6.020 93.820 -999.25
13.80 13.832280 6.0 94.20 -999.25
13.79 13.823020 6.0 94.10 -999.25
13.78 13.813320 6.0 94.0 -999.25
13.77 13.803610 6.0 93.90 -999.25
13.76 13.793910 6.0 93.80 -999.25
13.75 13.78420 6.0 93.70 -999.25
13.74 13.774040 6.0 93.60 -999.25
13.73 13.763880 6.0 93.50 -999.25
13.72 13.753720 5.960 92.910 -999.25
13.71 13.743570 5.920 92.320 -999.25
13.70 13.733860 5.880 91.730 -999.25
13.69 13.724150 5.840 91.140 -999.25
13.68 13.714450 5.80 90.550 -999.25
13.67 13.704740 5.760 89.960 -999.25
13.66 13.694580 5.720 89.370 -999.25
13.65 13.684420 5.680 88.780 -999.25
13.64 13.674270 5.640 88.190 -999.25
13.63 13.664110 5.60 87.60 -999.25
13.62 13.653720 5.590 87.620 -999.25
13.61 13.643340 5.580 87.640 -999.25
13.60 13.632960 5.570 87.660 -999.25
13.59 13.622570 5.560 87.680 -999.25
13.58 13.614270 5.550 87.70 -999.25
13.57 13.605960 5.540 87.720 -999.25
13.56 13.597650 5.530 87.740 -999.25
13.55 13.589350 5.520 87.760 -999.25
13.54 13.581040 5.510 87.780 -999.25
13.53 13.570650 5.50 87.80 -999.25
13.52 13.560270 5.5250 88.20 -999.25
13.51 13.549890 5.550 88.60 -999.25
13.50 13.53950 5.5750 89.0 -999.25
13.49 13.528890 5.60 89.40 -999.25
13.48 13.518280 5.6250 89.80 -999.25
13.47 13.507670 5.650 90.20 -999.25
13.46 13.497070 5.6750 90.60 -999.25
13.45 13.486460 5.70 91.0 -999.25
13.44 13.475850 5.7250 91.40 -999.25
13.43 13.465240 5.750 91.80 -999.25
13.42 13.454630 5.7750 92.20 -999.25
13.41 13.446140 5.80 92.60 -999.25
13.40 13.437650 5.80 92.658330 -999.25
13.39 13.429160 5.80 92.716670 -999.25
13.38 13.420680 5.80 92.7750 -999.25
13.37 13.412190 5.80 92.833330 -999.25
13.36 13.401580 5.80 92.891670 -999.25
13.35 13.390970 5.80 92.950 68.650750
13.34 13.380360 5.80 93.008330 137.30150
13.33 13.369750 5.80 93.066670 148.650750
13.32 13.358920 5.80 93.1250 160.0
13.31 13.348080 5.80 93.183330 158.333330
13.30 13.337250 5.80 93.241670 156.666670
13.29 13.326410 5.80 93.30 155.0
13.28 13.315580 5.784620 93.20 153.333330
13.27 13.304740 5.769230 93.10 145.833330
13.26 13.293910 5.753850 93.0 138.333330
13.25 13.283070 5.738460 92.90 130.833330
13.24 13.274760 5.723080 92.80 123.333330
13.23 13.266460 5.707690 92.70 125.23810
13.22 13.258150 5.692310 92.60 127.142860
13.21 13.249840 5.676920 92.50 129.047620
13.20 13.241530 5.661540 92.40 130.952380
13.19 13.231150 5.646150 92.30 132.857140
13.18 13.220770 5.630770 92.20 134.76190
13.17 13.210380 5.615380 92.10 136.666670
13.16 13.20 5.60 92.0 138.750
13.15 13.189390 5.60 92.376920 140.833330
13.14 13.178780 5.60 92.753850 142.916670
13.13 13.168170 5.60 93.130770 145.0
13.12 13.157560 5.60 93.507690 147.083330
13.11 13.147180 5.60 93.884620 149.166670
13.10 13.136790 5.60 94.261540 151.250
13.09 13.126410 5.60 94.638460 153.333330
13.08 13.116030 5.60 95.015380 150.333330
13.07 13.105420 5.60 95.392310 147.333330
13.06 13.094810 5.60 95.769230 144.333330
13.05 13.08420 5.60 96.146150 141.333330
13.04 13.073590 5.60 96.523080 138.333330
13.03 13.065280 5.60 96.90 135.333330
13.02 13.056980 5.558330 96.308330 132.333330
13.01 13.048670 5.516670 95.716670 129.333330
13.00 13.040360 5.4750 95.1250 126.333330
12.99 13.032050 5.433330 94.533330 123.333330
12.98 13.021440 5.391670 93.941670 124.444440
12.97 13.010840 5.350 93.350 125.555560
12.96 13.000230 5.308330 92.758330 126.666670
12.95 12.989620 5.266670 92.166670 127.777780
12.94 12.979010 5.2250 91.5750 128.888890
12.93 12.96840 5.183330 90.983330 130.0
12.92 12.957790 5.141670 90.391670 131.111110
12.91 12.947180 5.10 89.80 132.222220
12.90 12.936570 5.107690 90.415380 133.333330
12.89 12.925960 5.115380 91.030770 134.444440
12.88 12.915350 5.123080 91.646150 135.555560
12.87 12.904740 5.130770 92.261540 136.666670
12.86 12.896070 5.138460 92.876920 135.277780
12.85 12.88740 5.146150 93.492310 133.888890
12.84 12.878740 5.153850 94.107690 132.50
12.83 12.870070 5.161540 94.723080 131.111110
12.82 12.86140 5.169230 95.338460 129.722220
12.81 12.850790 5.176920 95.953850 128.333330
12.80 12.840180 5.184620 96.569230 126.944440
12.79 12.829570 5.192310 97.184620 125.555560
12.78 12.818960 5.20 97.80 124.166670
12.77 12.808350 5.169230 96.838460 122.777780
12.76 12.797740 5.138460 95.876920 121.388890
12.75 12.787130 5.107690 94.915380 120.0
12.74 12.776520 5.076920 93.953850 121.794870
12.73 12.767860 5.046150 92.992310 123.589740
12.72 12.759190 5.015380 92.030770 125.384620
12.71 12.750520 4.984620 91.069230 127.179490
12.70 12.741850 4.953850 90.107690 128.974360
12.69 12.733180 4.923080 89.146150 130.769230
12.68 12.722350 4.892310 88.184620 132.56410
12.67 12.711510 4.861540 87.223080 134.358970
12.66 12.700680 4.830770 86.261540 136.153850
12.65 12.689840 4.80 85.30 137.948720
12.64 12.679230 4.776920 84.923080 139.743590
12.63 12.668620 4.753850 84.546150 141.538460
12.62 12.658010 4.730770 84.169230 143.333330
12.61 12.64740 4.707690 83.792310 143.055560
12.60 12.636570 4.684620 83.415380 142.777780
12.59 12.625730 4.661540 83.038460 142.50
12.58 12.61490 4.638460 82.661540 142.222220
12.57 12.604060 4.615380 82.284620 141.944440
12.56 12.595580 4.592310 81.907690 141.666670
12.55 12.587090 4.569230 81.530770 141.388890
12.54 12.57860 4.546150 81.153850 141.111110
12.53 12.570110 4.523080 80.776920 140.833330
12.52 12.561630 4.50 80.40 140.555560
12.51 12.551020 4.5250 81.616670 140.277780
12.50 12.540410 4.550 82.833330 140.0
12.49 12.52980 4.5750 84.050 140.512820
12.48 12.519190 4.60 85.266670 141.025640
12.47 12.50880 4.6250 86.483330 141.538460
12.46 12.498420 4.650 87.70 142.051280
12.45 12.488040 4.6750 88.916670 142.56410
12.44 12.477650 4.70 90.133330 143.076920
12.43 12.467040 4.7250 91.350 143.589740
12.42 12.456430 4.750 92.566670 144.102560
12.41 12.445820 4.7750 93.783330 144.615380
12.40 12.435210 4.80 95.0 145.128210
12.39 12.42460 4.784620 94.792310 145.641030
12.38 12.4140 4.769230 94.584620 146.153850
12.37 12.403390 4.753850 94.376920 146.666670
12.36 12.392780 4.738460 94.169230 143.589740
12.35 12.384290 4.723080 93.961540 140.512820
12.34 12.37580 4.707690 93.753850 137.43590
12.33 12.367310 4.692310 93.546150 134.358970
12.32 12.358830 4.676920 93.338460 131.282050
12.31 12.350340 4.661540 93.130770 128.205130
12.30 12.339730 4.646150 92.923080 125.128210
12.29 12.329120 4.630770 92.715380 122.051280
12.28 12.318510 4.615380 92.507690 118.974360
12.27 12.30790 4.60 92.30 115.897440
12.26 12.297520 4.646150 92.461540 112.820510
12.25 12.287130 4.692310 92.623080 109.743590
12.24 12.276750 4.738460 92.784620 106.666670
12.23 12.266370 4.784620 92.946150 110.277780
12.22 12.255760 4.830770 93.107690 113.888890
12.21 12.245150 4.876920 93.269230 117.50
12.20 12.234540 4.923080 93.430770 121.111110
12.19 12.223930 4.969230 93.592310 124.722220
12.18 12.215620 5.015380 93.753850 128.333330
12.17 12.207310 5.061540 93.915380 131.944440
12.16 12.199010 5.107690 94.076920 135.555560
12.15 12.19070 5.153850 94.238460 139.166670
12.14 12.182390 5.20 94.40 142.777780
12.13 12.171780 5.192310 94.446150 146.388890
12.12 12.161170 5.184620 94.492310 150.0
12.11 12.150560 5.176920 94.538460 150.256410
12.10 12.139950 5.169230 94.584620 150.512820
12.09 12.129350 5.161540 94.630770 150.769230
12.08 12.118740 5.153850 94.676920 151.025640
12.07 12.108130 5.146150 94.723080 151.282050
12.06 12.097520 5.138460 94.769230 151.538460
