~VERSION INFORMATION SECTION
VERS. 2.0 : CWLS LAS-VERSION 2.0
WRAP. NO : One line per depth step
~WELL INFORMATION SECTION
# MNEM.UNIT VALUE/NAME DESCRIPTION
#-------- -------------- ---------------------
STRT.Metres 11 : Start
STOP.Metres 0.38 : Stop
STEP.Metres -0.01 : Step
NULL.  -999.25 :NULL VALUE
DATE. 2025-01-11 : DATE
~CURVE INFORMATION SECTION
DEPTH.Metres : 0 Depth
Depth. : 1 Depth
Incline.Deg : 2 Incline
Azimuth.Deg : 3 Azimuth
GR.CPS : 4 GR
~PARAMETER INFORMATION SECTION
~OTHER
#-------------------------------------------------
#Produced By: GeoVista Logger - Version 7.1.107.0
Natural Gamma Sonde - 6447
Verticality Sonde - 6292
#-------------------------------------------------
~ASCII LOG DATA
11.00 -999.25 -999.25 -999.25 -999.25
10.99 10.994130 1.60 27.933330 -999.25
10.98 10.98420 3.20 55.866670 -999.25
10.97 10.973360 4.80 83.80 -999.25
10.96 10.963430 4.833330 83.90 -999.25
10.95 10.95350 4.866670 84.0 -999.25
10.94 10.942660 4.90 84.10 -999.25
10.93 10.932730 4.866670 84.433330 -999.25
10.92 10.92190 4.833330 84.766670 -999.25
10.91 10.911960 4.80 85.10 -999.25
10.90 10.902030 4.80 85.266670 -999.25
10.89 10.89120 4.80 85.433330 -999.25
10.88 10.881260 4.80 85.60 -999.25
10.87 10.870430 4.80 85.60 -999.25
10.86 10.86050 4.80 85.60 -999.25
10.85 10.855530 4.80 85.60 -999.25
10.84 10.850560 4.80 85.933330 -999.25
10.83 10.839730 4.80 86.266670 -999.25
10.82 10.82980 4.80 86.60 -999.25
10.81 10.819860 4.80 86.166670 -999.25
10.80 10.809030 4.80 85.733330 -999.25
10.79 10.79910 4.80 85.30 -999.25
10.78 10.788260 4.80 85.366670 155.542090
10.77 10.778330 4.80 85.433330 160.0
10.76 10.76840 4.80 85.50 136.666670
10.75 10.757560 4.466670 87.166670 113.333330
10.74 10.747630 4.133330 88.833330 121.666670
10.73 10.736790 3.80 90.50 130.0
10.72 10.726860 4.066670 88.233330 140.0
10.71 10.716030 4.333330 85.966670 150.0
10.70 10.706090 4.60 83.70 149.206350
10.69 10.695260 4.60 85.30 148.41270
10.68 10.685330 4.60 86.90 147.619050
10.67 10.67540 4.60 88.50 157.142860
10.66 10.664560 4.666670 87.366670 166.666670
10.65 10.654630 4.733330 86.233330 156.666670
10.64 10.643790 4.80 85.10 146.666670
10.63 10.633860 4.766670 85.433330 136.666670
10.62 10.623020 4.733330 85.766670 156.666670
10.61 10.613090 4.70 86.10 176.666670
10.60 10.603160 4.70 86.833330 196.666670
10.59 10.592330 4.70 87.566670 166.075270
10.58 10.582390 4.70 88.30 135.483870
10.57 10.572460 4.70 88.050 155.878140
10.56 10.561630 4.70 87.80 176.27240
10.55 10.551690 4.70 87.550 196.666670
10.54 10.541760 4.70 87.30 173.333330
10.53 10.531830 4.70 86.366670 150.0
10.52 10.520990 4.70 85.433330 126.666670
10.51 10.511060 4.70 84.50 142.222220
10.50 10.501130 4.70 86.0 157.777780
10.49 10.490290 4.70 87.50 173.333330
10.48 10.480360 4.70 89.0 167.777780
10.47 10.47540 4.70 88.266670 162.222220
10.46 10.470430 4.70 87.533330 156.666670
10.45 10.459590 4.70 86.80 162.222220
10.44 10.449660 4.666670 86.70 167.777780
10.43 10.438830 4.633330 86.60 173.333330
10.42 10.428890 4.60 86.50 172.222220
10.41 10.418960 4.566670 87.033330 171.111110
10.40 10.408130 4.533330 87.566670 170.0
10.39 10.398190 4.50 88.10 160.0
10.38 10.388260 4.50 86.466670 150.0
10.37 10.377430 4.50 84.833330 140.0
10.36 10.367490 4.50 83.20 152.063490
10.35 10.357560 4.533330 83.066670 164.126980
10.34 10.346730 4.566670 82.933330 176.190480
10.33 10.336790 4.60 82.80 161.904760
10.32 10.326860 4.60 84.866670 147.619050
10.31 10.316930 4.60 86.933330 133.333330
10.30 10.306090 4.60 89.0 152.222220
10.29 10.296160 4.583330 88.216670 171.111110
10.28 10.286230 4.566670 87.433330 190.0
10.27 10.27540 4.550 86.650 181.111110
10.26 10.265460 4.533330 85.866670 172.222220
10.25 10.255530 4.516670 85.083330 163.333330
10.24 10.24470 4.50 84.30 157.777780
10.23 10.234760 4.50 85.033330 152.222220
10.22 10.223930 4.50 85.766670 146.666670
10.21 10.2140 4.50 86.50 156.666670
10.20 10.203160 4.533330 86.233330 166.666670
10.19 10.193230 4.566670 85.966670 176.666670
10.18 10.18330 4.60 85.70 173.333330
10.17 10.172460 4.6250 85.150 170.0
10.16 10.162530 4.650 84.60 166.666670
10.15 10.15260 4.6750 84.050 161.111110
10.14 10.141760 4.70 83.50 155.555560
10.13 10.131830 4.70 84.60 150.0
10.12 10.12190 4.70 85.70 150.0
10.11 10.111060 4.70 86.80 150.0
10.10 10.101130 4.666670 86.133330 150.0
10.09 10.09120 4.633330 85.466670 148.888890
10.08 10.080360 4.60 84.80 147.777780
10.07 10.07540 4.60 84.70 146.666670
10.06 10.070430 4.60 84.60 144.444440
10.05 10.059590 4.60 84.50 142.222220
10.04 10.049660 4.60 84.50 140.0
10.03 10.038830 4.60 84.50 138.494620
10.02 10.028890 4.60 84.50 136.989250
10.01 10.018060 4.60 84.833330 135.483870
10.00 10.008130 4.60 85.166670 142.54480
9.99 9.998190 4.60 85.50 149.605730
9.98 9.987360 4.566670 85.50 156.666670
9.97 9.977430 4.533330 85.50 155.555560
9.96 9.966590 4.50 85.50 154.444440
9.95 9.956660 4.533330 84.666670 153.333330
9.94 9.945820 4.566670 83.833330 154.166670
9.93 9.935890 4.60 83.0 155.0
9.92 9.925060 4.566670 83.666670 155.833330
9.91 9.915120 4.533330 84.333330 156.666670
9.90 9.904290 4.50 85.0 160.0
9.89 9.894360 4.50 84.70 163.333330
9.88 9.883520 4.50 84.40 166.666670
9.87 9.873590 4.50 84.10 175.555560
9.86 9.862750 4.50 83.833330 184.444440
9.85 9.852820 4.50 83.566670 193.333330
9.84 9.841990 4.50 83.30 183.333330
9.83 9.832050 4.50 83.966670 173.333330
9.82 9.821220 4.50 84.633330 163.333330
9.81 9.811290 4.50 85.30 191.111110
9.80 9.801350 4.50 84.60 218.888890
9.79 9.790520 4.50 83.90 246.666670
9.78 9.780590 4.50 83.20 218.888890
9.77 9.775620 4.5250 82.950 191.111110
9.76 9.770650 4.550 82.70 163.333330
9.75 9.759820 4.5750 82.450 153.333330
9.74 9.749890 4.60 82.20 143.333330
9.73 9.739950 4.566670 82.10 133.333330
9.72 9.729120 4.533330 82.0 152.222220
9.71 9.719190 4.50 81.90 171.111110
9.70 9.708350 4.50 81.866670 190.0
9.69 9.698420 4.50 81.833330 201.111110
9.68 9.688490 4.50 81.80 212.222220
9.67 9.677650 4.50 82.533330 223.333330
9.66 9.667720 4.50 83.266670 209.494950
9.65 9.657790 4.50 84.0 195.656570
9.64 9.647860 4.50 83.433330 181.818180
9.63 9.637920 4.50 82.866670 186.12440
9.62 9.627090 4.50 82.30 190.430620
9.61 9.617160 4.466670 81.866670 194.736840
9.60 9.607220 4.433330 81.433330 193.157890
9.59 9.597290 4.40 81.0 191.578950
9.58 9.586460 4.433330 82.10 190.0
9.57 9.576520 4.466670 83.20 191.666670
9.56 9.566590 4.50 84.30 193.333330
9.55 9.556660 4.466670 84.366670 195.0
9.54 9.545820 4.433330 84.433330 196.666670
9.53 9.535890 4.40 84.50 203.333330
9.52 9.525960 4.40 84.566670 210.0
9.51 9.516030 4.40 84.633330 216.666670
9.50 9.505190 4.40 84.70 200.0
9.49 9.495260 4.40 84.533330 183.333330
9.48 9.485330 4.40 84.366670 166.666670
9.47 9.474490 4.40 84.20 172.222220
9.46 9.464560 4.40 84.1750 177.777780
9.45 9.454630 4.40 84.150 183.333330
9.44 9.443790 4.40 84.1250 183.512540
9.43 9.433860 4.40 84.10 183.691760
9.42 9.423930 4.40 84.70 183.870970
9.41 9.4140 4.40 85.30 185.913980
9.40 9.403160 4.40 85.90 187.956990
9.39 9.393230 4.40 85.30 190.0
9.38 9.38330 4.40 84.70 213.333330
9.37 9.372460 4.40 84.10 236.666670
9.36 9.362530 4.40 84.433330 260.0
9.35 9.35260 4.40 84.766670 265.555560
9.34 9.341760 4.40 85.10 271.111110
9.33 9.331830 4.40 86.033330 276.666670
9.32 9.32190 4.40 86.966670 261.111110
9.31 9.311060 4.40 87.90 245.555560
9.30 9.301130 4.40 87.166670 230.0
9.29 9.29120 4.40 86.433330 245.555560
9.28 9.280360 4.40 85.70 261.111110
9.27 9.27540 4.40 85.10 276.666670
9.26 9.270430 4.40 84.50 268.888890
9.25 9.259590 4.40 83.90 261.111110
9.24 9.249660 4.40 84.80 253.333330
9.23 9.239730 4.40 85.70 247.777780
9.22 9.228890 4.40 86.60 242.222220
9.21 9.218960 4.40 86.733330 236.666670
9.20 9.209030 4.40 86.866670 244.444440
9.19 9.198190 4.40 87.0 252.222220
9.18 9.188260 4.40 86.70 260.0
9.17 9.178330 4.40 86.40 246.666670
9.16 9.167490 4.40 86.10 233.333330
9.15 9.157560 4.40 85.533330 220.0
9.14 9.146730 4.40 84.966670 206.666670
9.13 9.136790 4.40 84.40 203.333330
9.12 9.125960 4.40 84.90 200.0
9.11 9.115120 4.40 85.40 196.666670
9.10 9.105190 4.40 85.90 207.777780
9.09 9.095260 4.40 85.90 218.888890
9.08 9.084420 4.40 85.90 230.0
9.07 9.074490 4.40 85.90 215.555560
9.06 9.063660 4.40 85.066670 201.111110
9.05 9.053720 4.40 84.233330 186.666670
9.04 9.042890 4.40 83.40 201.111110
9.03 9.032960 4.40 83.70 215.555560
9.02 9.022120 4.40 84.0 230.0
9.01 9.012190 4.40 84.30 232.222220
9.00 9.002260 4.40 84.70 234.444440
8.99 8.991420 4.40 85.10 236.666670
8.98 8.981490 4.40 85.50 236.666670
8.97 8.970650 4.3750 84.7750 236.666670
8.96 8.965690 4.350 84.050 236.666670
8.95 8.960720 4.3250 83.3250 213.333330
8.94 8.949890 4.30 82.60 190.0
8.93 8.939950 4.30 83.866670 166.666670
8.92 8.929120 4.30 85.133330 186.666670
8.91 8.919190 4.30 86.40 206.666670
