~VERSION INFORMATION SECTION
VERS. 2.0 : CWLS LAS-VERSION 2.0
WRAP. NO : One line per depth step
~WELL INFORMATION SECTION
# MNEM.UNIT VALUE/NAME DESCRIPTION
#-------- -------------- ---------------------
STRT.Metres 11 : Start
STOP.Metres -0.95 : Stop
STEP.Metres -0.01 : Step
NULL.  -999.25 :NULL VALUE
DATE. 2025-07-11 : DATE
~CURVE INFORMATION SECTION
DEPTH.Metres : 0 Depth
Depth. : 1 Depth
Incline.Deg : 2 Incline
Azimuth.Deg : 3 Azimuth
GR.CPS : 4 GR
~PARAMETER INFORMATION SECTION
~OTHER
#-------------------------------------------------
#Produced By: GeoVista Logger - Version 7.1.107.0
Natural Gamma Sonde - 6447
Verticality Sonde - 6292
#-------------------------------------------------
~ASCII LOG DATA
# ...
2.44 -999.25 2.5250 56.1250 125.106230
2.43 -999.25 2.450 54.550 125.2640
2.42 -999.25 2.3750 52.9750 125.421760
2.41 -999.25 2.30 51.40 125.579520
2.40 -999.25 2.350 53.6750 125.737280
2.39 -999.25 2.40 55.950 125.895050
2.38 -999.25 2.450 58.2250 126.052810
2.37 -999.25 2.50 60.50 126.210570
2.36 -999.25 2.550 62.7750 126.368340
2.35 -999.25 2.60 65.050 126.52610
2.34 -999.25 2.650 67.3250 126.683860
2.33 -999.25 2.70 69.60 126.841630
2.32 -999.25 2.757140 65.342860 126.999390
2.31 -999.25 2.814290 61.085710 127.157150
2.30 -999.25 2.871430 56.828570 127.314920
2.29 -999.25 2.928570 52.571430 127.472680
2.28 -999.25 2.985710 48.314290 127.630440
2.27 -999.25 3.042860 44.057140 127.788210
2.26 -999.25 3.10 39.80 127.945970
2.25 -999.25 3.03750 43.81250 128.103730
2.24 -999.25 2.9750 47.8250 128.26150
2.23 -999.25 2.91250 51.83750 128.419260
2.22 -999.25 2.850 55.850 128.577020
2.21 -999.25 2.78750 59.86250 128.734790
2.20 -999.25 2.7250 63.8750 128.892550
2.19 -999.25 2.66250 67.88750 129.050310
2.18 -999.25 2.60 71.90 129.208080
2.17 -999.25 2.58750 69.51250 129.365840
2.16 -999.25 2.5750 67.1250 129.52360
2.15 -999.25 2.56250 64.73750 129.681370
2.14 -999.25 2.550 62.350 129.839130
2.13 -999.25 2.53750 59.96250 129.996890
2.12 -999.25 2.5250 57.5750 130.154650
2.11 -999.25 2.51250 55.18750 130.312420
2.10 -999.25 2.50 52.80 130.470180
2.09 -999.25 2.4750 56.350 130.627940
2.08 -999.25 2.450 59.90 130.785710
2.07 -999.25 2.4250 63.450 130.943470
2.06 -999.25 2.40 67.0 131.101230
2.05 -999.25 2.3750 70.550 131.2590
2.04 -999.25 2.350 74.10 131.416760
2.03 -999.25 2.3250 77.650 131.574520
2.02 -999.25 2.30 81.20 131.732290
2.01 -999.25 2.3250 77.48750 131.890050
2.00 -999.25 2.350 73.7750 132.047810
1.99 -999.25 2.3750 70.06250 132.205580
1.98 -999.25 2.40 66.350 132.363340
1.97 -999.25 2.4250 62.63750 132.52110
1.96 -999.25 2.450 58.9250 132.678870
1.95 -999.25 2.4750 55.21250 132.836630
1.94 -999.25 2.50 51.50 132.994390
1.93 -999.25 2.50 52.526670 133.152160
1.92 -999.25 2.50 53.553330 133.309920
1.91 -999.25 2.50 54.580 133.467680
1.90 -999.25 2.50 55.606670 133.625450
1.89 -999.25 2.50 56.633330 133.783210
1.88 -999.25 2.50 57.660 133.940970
1.87 -999.25 2.50 58.686670 134.098740
1.86 -999.25 2.50 59.713330 134.25650
1.85 -999.25 2.50 60.740 134.414260
1.84 -999.25 2.50 61.766670 134.572030
1.83 -999.25 2.50 62.793330 134.729790
1.82 -999.25 2.50 63.820 134.887550
1.81 -999.25 2.50 64.846670 135.045310
1.80 -999.25 2.50 65.873330 135.203080
1.79 -999.25 2.50 66.90 135.360840
1.78 -999.25 2.43750 66.78750 135.51860
1.77 -999.25 2.3750 66.6750 135.676370
1.76 -999.25 2.31250 66.56250 135.834130
1.75 -999.25 2.250 66.450 135.991890
1.74 -999.25 2.18750 66.33750 136.149660
1.73 -999.25 2.1250 66.2250 136.307420
1.72 -999.25 2.06250 66.11250 136.465180
1.71 -999.25 2.0 66.0 136.622950
1.70 -999.25 2.0250 66.050 136.780710
1.69 -999.25 2.050 66.10 136.938470
1.68 -999.25 2.0750 66.150 137.096240
1.67 -999.25 2.10 66.20 137.2540
1.66 -999.25 2.1250 66.250 137.411760
1.65 -999.25 2.150 66.30 137.569530
1.64 -999.25 2.1750 66.350 137.727290
1.63 -999.25 2.20 66.40 137.885050
1.62 -999.25 2.18750 66.9750 138.042820
1.61 -999.25 2.1750 67.550 138.200580
1.60 -999.25 2.16250 68.1250 138.358340
1.59 -999.25 2.150 68.70 138.516110
1.58 -999.25 2.13750 69.2750 138.673870
1.57 -999.25 2.1250 69.850 138.831630
1.56 -999.25 2.11250 70.4250 138.98940
1.55 -999.25 2.10 71.0 139.147160
1.54 -999.25 2.050 69.91250 139.304920
1.53 -999.25 2.0 68.8250 139.462680
1.52 -999.25 1.950 67.73750 139.620450
1.51 -999.25 1.90 66.650 139.778210
1.50 -999.25 1.850 65.56250 139.935970
1.49 -999.25 1.80 64.4750 140.093740
1.48 -999.25 1.750 63.38750 140.25150
1.47 -999.25 1.70 62.30 140.409260
1.46 -999.25 1.7750 62.550 140.567030
1.45 -999.25 1.850 62.80 140.724790
1.44 -999.25 1.9250 63.050 140.882550
1.43 -999.25 2.0 63.30 141.040320
1.42 -999.25 2.0750 63.550 141.198080
1.41 -999.25 2.150 63.80 141.355840
1.40 -999.25 2.2250 64.050 141.513610
1.39 -999.25 2.30 64.30 141.671370
1.38 -999.25 2.214290 68.114290 141.829130
1.37 -999.25 2.128570 71.928570 141.98690
1.36 -999.25 2.042860 75.742860 142.144660
1.35 -999.25 1.957140 79.557140 142.302420
1.34 -999.25 1.871430 83.371430 142.460190
1.33 -999.25 1.785710 87.185710 142.617950
1.32 -999.25 1.70 91.0 142.775710
1.31 -999.25 1.76250 85.250 142.933480
1.30 -999.25 1.8250 79.50 143.091240
1.29 -999.25 1.88750 73.750 143.2490
1.28 -999.25 1.950 68.0 143.406770
1.27 -999.25 2.01250 62.250 143.564530
1.26 -999.25 2.0750 56.50 143.722290
1.25 -999.25 2.13750 50.750 143.880050
1.24 -999.25 2.20 45.0 144.037820
1.23 -999.25 2.180 46.780 144.195580
1.22 -999.25 2.160 48.560 144.353340
1.21 -999.25 2.140 50.340 144.511110
1.20 -999.25 2.120 52.120 144.668870
1.19 -999.25 2.10 53.90 144.826630
1.18 -999.25 1.90 56.333330 144.98440
1.17 -999.25 1.70 58.766670 145.142160
1.16 -999.25 1.50 61.20 145.299920
1.15 -999.25 1.70 49.70 145.457690
1.14 -999.25 1.90 38.20 145.615450
1.13 -999.25 1.850 39.9750 145.773210
1.12 -999.25 1.80 41.750 145.930980
1.11 -999.25 1.750 43.5250 146.088740
1.10 -999.25 1.70 45.30 146.24650
1.09 -999.25 1.566670 46.40 146.404270
1.08 -999.25 1.433330 47.50 146.562030
1.07 -999.25 1.30 48.60 146.719790
1.06 -999.25 1.40 47.966670 146.877560
1.05 -999.25 1.50 47.333330 147.035320
1.04 -999.25 1.60 46.70 147.193080
1.03 -999.25 1.550 43.950 147.350850
1.02 -999.25 1.50 41.20 147.508610
1.01 -999.25 1.550 38.20 147.666370
1.00 -999.25 1.60 35.20 147.824140
0.99 -999.25 1.30 40.10 147.98190
0.98 -999.25 -999.25 -999.25 148.139660
0.97 -999.25 -999.25 -999.25 148.297430
0.96 -999.25 -999.25 -999.25 148.455190
0.95 -999.25 -999.25 -999.25 148.612950
0.94 -999.25 -999.25 -999.25 148.770710
0.93 -999.25 -999.25 -999.25 148.928480
0.92 -999.25 -999.25 -999.25 149.086240
0.91 -999.25 -999.25 -999.25 149.2440
0.90 -999.25 -999.25 -999.25 149.401770
0.89 -999.25 -999.25 -999.25 149.559530
0.88 -999.25 -999.25 -999.25 149.717290
0.87 -999.25 -999.25 -999.25 149.875060
0.86 -999.25 -999.25 -999.25 150.032820
0.85 -999.25 -999.25 -999.25 150.190580
0.84 -999.25 -999.25 -999.25 150.348350
0.83 -999.25 -999.25 -999.25 150.506110
0.82 -999.25 -999.25 -999.25 150.663870
0.81 -999.25 -999.25 -999.25 150.821640
0.80 -999.25 -999.25 -999.25 150.97940
0.79 -999.25 -999.25 -999.25 151.137160
0.78 -999.25 -999.25 -999.25 151.294930
0.77 -999.25 -999.25 -999.25 151.452690
0.76 -999.25 -999.25 -999.25 151.610450
0.75 -999.25 -999.25 -999.25 151.768220
0.74 -999.25 -999.25 -999.25 151.925980
0.73 -999.25 -999.25 -999.25 152.083740
0.72 -999.25 -999.25 -999.25 152.241510
0.71 -999.25 -999.25 -999.25 152.399270
0.70 -999.25 -999.25 -999.25 152.557030
0.69 -999.25 -999.25 -999.25 152.71480
0.68 -999.25 -999.25 -999.25 152.872560
0.67 -999.25 -999.25 -999.25 153.030320
0.66 -999.25 -999.25 -999.25 153.188080
0.65 -999.25 -999.25 -999.25 153.345850
0.64 -999.25 -999.25 -999.25 153.503610
0.63 -999.25 -999.25 -999.25 153.661370
0.62 -999.25 -999.25 -999.25 153.819140
0.61 -999.25 -999.25 -999.25 153.97690
0.60 -999.25 -999.25 -999.25 154.134660
0.59 -999.25 -999.25 -999.25 154.292430
0.58 -999.25 -999.25 -999.25 154.450190
0.57 -999.25 -999.25 -999.25 154.607950
0.56 -999.25 -999.25 -999.25 154.765720
0.55 -999.25 -999.25 -999.25 154.923480
0.54 -999.25 -999.25 -999.25 155.081240
0.53 -999.25 -999.25 -999.25 155.239010
0.52 -999.25 -999.25 -999.25 155.396770
0.51 -999.25 -999.25 -999.25 155.554530
0.50 -999.25 -999.25 -999.25 155.71230
0.49 -999.25 -999.25 -999.25 155.870060
0.48 -999.25 -999.25 -999.25 156.027820
0.47 -999.25 -999.25 -999.25 156.185590
0.46 -999.25 -999.25 -999.25 156.343350
0.45 -999.25 -999.25 -999.25 156.501110
0.44 -999.25 -999.25 -999.25 156.658880
0.43 -999.25 -999.25 -999.25 156.816640
0.42 -999.25 -999.25 -999.25 156.97440
0.41 -999.25 -999.25 -999.25 157.132170
0.40 -999.25 -999.25 -999.25 157.289930
0.39 -999.25 -999.25 -999.25 157.447690
0.38 -999.25 -999.25 -999.25 157.605450
0.37 -999.25 -999.25 -999.25 157.763220
