~VERSION INFORMATION SECTION
VERS. 2.0 : CWLS LAS-VERSION 2.0
WRAP. NO : One line per depth step
~WELL INFORMATION SECTION
# MNEM.UNIT VALUE/NAME DESCRIPTION
#-------- -------------- ---------------------
STRT.Metres 11 : Start
STOP.Metres 0.38 : Stop
STEP.Metres -0.01 : Step
NULL.  -999.25 :NULL VALUE
DATE. 2025-01-11 : DATE
~CURVE INFORMATION SECTION
DEPTH.Metres : 0 Depth
Depth. : 1 Depth
Incline.Deg : 2 Incline
Azimuth.Deg : 3 Azimuth
GR.CPS : 4 GR
~PARAMETER INFORMATION SECTION
~OTHER
#-------------------------------------------------
#Produced By: GeoVista Logger - Version 7.1.107.0
Natural Gamma Sonde - 6447
Verticality Sonde - 6292
#-------------------------------------------------
~ASCII LOG DATA
# ...
6.76 6.762080 4.0 80.3750 188.888890
6.75 6.751240 4.0 80.50 194.444440
6.74 6.741310 4.0 80.466670 200.0
6.73 6.731380 4.0 80.433330 184.444440
6.72 6.721440 4.0 80.40 168.888890
6.71 6.711510 4.0 80.866670 153.333330
6.70 6.701580 4.0 81.333330 155.555560
6.69 6.691650 4.0 81.80 157.777780
6.68 6.681720 4.0 80.533330 160.0
6.67 6.671780 4.0 79.266670 165.555560
6.66 6.661850 4.0 78.0 171.111110
6.65 6.651920 4.033330 79.333330 176.666670
6.64 6.641990 4.066670 80.666670 181.111110
6.63 6.631150 4.10 82.0 185.555560
6.62 6.621220 4.033330 81.10 190.0
6.61 6.611290 3.966670 80.20 180.0
6.60 6.600450 3.90 79.30 170.0
6.59 6.590520 3.90 78.833330 160.0
6.58 6.585550 3.90 78.366670 157.777780
6.57 6.580590 3.90 77.90 155.555560
6.56 6.569750 3.90 79.40 153.333330
6.55 6.559820 3.90 80.90 147.383510
6.54 6.549890 3.90 82.40 141.433690
6.53 6.539050 3.933330 81.233330 135.483870
6.52 6.529120 3.966670 80.066670 153.655910
6.51 6.518280 4.0 78.90 171.827960
6.50 6.508350 3.966670 80.233330 190.0
6.49 6.498420 3.933330 81.566670 183.333330
6.48 6.487580 3.90 82.90 176.666670
6.47 6.477650 3.866670 83.233330 170.0
6.46 6.466820 3.833330 83.566670 163.333330
6.45 6.456880 3.80 83.90 155.555560
6.44 6.446050 3.833330 82.933330 147.777780
6.43 6.436120 3.866670 81.966670 140.0
6.42 6.426190 3.90 81.0 130.0
6.41 6.415350 3.866670 81.766670 120.0
6.40 6.405420 3.833330 82.533330 110.0
6.39 6.394580 3.80 83.30 127.777780
6.38 6.384650 3.833330 81.633330 145.555560
6.37 6.373810 3.866670 79.966670 163.333330
6.36 6.363880 3.90 78.30 156.666670
6.35 6.353950 3.90 78.10 150.0
6.34 6.343120 3.90 77.90 143.333330
6.33 6.333180 3.90 77.70 134.444440
6.32 6.322350 3.90 79.333330 125.555560
6.31 6.312420 3.90 80.966670 116.666670
6.30 6.302480 3.90 82.60 131.111110
6.29 6.291650 3.933330 79.20 145.555560
6.28 6.281720 3.966670 75.80 160.0
6.27 6.270880 4.0 72.40 155.555560
6.26 6.260950 3.950 75.4750 151.111110
6.25 6.250110 3.90 78.550 146.666670
6.24 6.245150 3.850 81.6250 143.333330
6.23 6.240180 3.80 84.70 140.0
6.22 6.229350 3.80 83.133330 136.666670
6.21 6.219410 3.80 81.566670 154.444440
6.20 6.208580 3.80 80.0 172.222220
6.19 6.198650 3.833330 77.966670 190.0
6.18 6.188710 3.866670 75.933330 188.333330
6.17 6.177880 3.90 73.90 186.666670
6.16 6.167950 3.90 75.433330 185.0
6.15 6.157110 3.90 76.966670 183.333330
6.14 6.147180 3.90 78.50 177.777780
6.13 6.137250 3.90 77.533330 172.222220
6.12 6.126410 3.90 76.566670 166.666670
6.11 6.116480 3.90 75.60 170.0
6.10 6.105640 3.933330 75.566670 173.333330
6.09 6.095710 3.966670 75.533330 176.666670
6.08 6.085780 4.0 75.50 172.222220
6.07 6.074940 3.966670 74.90 167.777780
6.06 6.065010 3.933330 74.30 163.333330
6.05 6.055080 3.90 73.70 157.777780
6.04 6.044240 3.933330 73.933330 152.222220
6.03 6.034310 3.966670 74.166670 146.666670
6.02 6.024380 4.0 74.40 144.444440
6.01 6.014450 4.0 74.70 142.222220
6.00 6.003610 4.0 75.0 140.0
5.99 5.993680 4.0 75.30 150.0
5.98 5.983750 4.0 74.633330 160.0
5.97 5.972910 4.0 73.966670 170.0
5.96 5.962980 4.0 73.30 171.397850
5.95 5.953050 4.0250 74.0 172.79570
5.94 5.942210 4.050 74.70 174.193550
5.93 5.932280 4.0750 75.40 162.79570
5.92 5.922350 4.10 76.10 151.397850
5.91 5.911510 4.066670 74.80 140.0
5.90 5.901580 4.033330 73.50 137.777780
5.89 5.890740 4.0 72.20 135.555560
5.88 5.880810 4.0 73.233330 133.333330
5.87 5.870880 4.0 74.266670 146.666670
5.86 5.860050 4.0 75.30 160.0
5.85 5.850110 3.966670 74.90 173.333330
5.84 5.840180 3.933330 74.50 167.222220
5.83 5.835210 3.90 74.10 161.111110
5.82 5.830250 3.966670 74.10 155.0
5.81 5.819410 4.033330 74.10 150.0
5.80 5.809480 4.10 74.10 145.0
5.79 5.799550 4.066670 74.633330 140.0
5.78 5.788710 4.033330 75.166670 141.111110
5.77 5.778780 4.0 75.70 142.222220
5.76 5.768850 4.0 74.766670 143.333330
5.75 5.758920 4.0 73.833330 168.888890
5.74 5.748080 4.0 72.90 194.444440
5.73 5.738150 4.0 72.966670 220.0
5.72 5.727310 4.0 73.033330 191.111110
5.71 5.717380 4.0 73.10 162.222220
5.70 5.706550 4.0 73.633330 133.333330
5.69 5.696610 4.0 74.166670 137.50
5.68 5.686680 4.0 74.70 141.666670
5.67 5.675850 4.0 75.433330 145.833330
5.66 5.665910 4.0 76.166670 150.0
5.65 5.655980 4.0 76.90 157.777780
5.64 5.645150 4.0 76.550 165.555560
5.63 5.635210 4.0 76.20 173.333330
5.62 5.625280 4.0 75.850 164.444440
5.61 5.615350 4.0 75.50 155.555560
5.60 5.605420 4.0 75.150 146.666670
5.59 5.595490 4.0 74.80 141.111110
5.58 5.584650 4.0 74.866670 135.555560
5.57 5.574720 4.0 74.933330 130.0
5.56 5.564790 4.0 75.0 132.222220
5.55 5.554850 4.0 75.10 134.444440
5.54 5.544920 4.0 75.20 136.666670
5.53 5.534990 4.0 75.30 137.777780
5.52 5.524150 4.0 75.40 138.888890
5.51 5.514220 4.0 75.70 140.0
5.50 5.504290 4.0 76.0 141.111110
5.49 5.493450 4.0 76.30 142.222220
5.48 5.483520 4.0 76.133330 143.333330
5.47 5.473590 4.0 75.966670 125.555560
5.46 5.462750 4.0 75.80 107.777780
5.45 5.452820 4.0 76.20 90.0
5.44 5.442890 4.0 76.60 109.206350
5.43 5.432050 4.0 77.0 128.41270
5.42 5.422120 4.0 76.60 147.619050
5.41 5.412190 4.0 76.20 149.206350
5.40 5.401350 4.0 75.80 150.793650
5.39 5.391420 4.0 76.066670 152.380950
5.38 5.380590 4.0 76.333330 141.785710
5.37 5.375620 4.0 76.60 131.190480
5.36 5.370650 4.0 76.80 120.595240
5.35 5.359820 4.0 77.0 110.0
5.34 5.349890 4.0 77.20 127.777780
5.33 5.339050 4.0 76.533330 145.555560
5.32 5.329120 4.0 75.866670 163.333330
5.31 5.318280 4.0 75.20 147.777780
5.30 5.308350 4.0 74.133330 132.222220
5.29 5.297520 4.0 73.066670 116.666670
5.28 5.287580 4.0 72.0 140.0
5.27 5.276750 4.0 74.333330 163.333330
5.26 5.266820 4.0 76.666670 186.666670
5.25 5.256880 4.0 79.0 171.111110
5.24 5.246050 4.0 77.60 155.555560
5.23 5.236120 4.0 76.20 140.0
5.22 5.226190 4.0 74.80 154.444440
5.21 5.215350 4.0 74.633330 168.888890
5.20 5.205420 4.0 74.466670 183.333330
5.19 5.195490 4.0 74.30 183.888890
5.18 5.184650 4.0 75.466670 184.444440
5.17 5.174720 4.0 76.633330 185.0
5.16 5.164790 4.0 77.80 156.666670
5.15 5.153950 4.0 77.10 128.333330
5.14 5.144020 4.0 76.40 100.0
5.13 5.134090 4.0 75.70 121.666670
5.12 5.124150 4.0 75.433330 143.333330
5.11 5.114220 4.0 75.166670 165.0
5.10 5.103390 4.0 74.90 156.666670
5.09 5.093450 4.0 75.233330 148.333330
5.08 5.083520 4.0 75.566670 140.0
5.07 5.072690 4.0 75.90 138.888890
5.06 5.062750 4.0 76.6250 137.777780
5.05 5.052820 4.0 77.350 136.666670
5.04 5.042890 4.0 78.0750 137.777780
5.03 5.032050 4.0 78.80 138.888890
5.02 5.022120 4.0 75.60 140.0
5.01 5.012190 4.0 72.40 147.878790
5.00 5.001350 4.0 69.20 155.757580
4.99 4.991420 4.0 70.60 163.636360
4.98 4.981490 4.0 72.0 152.950560
4.97 4.971560 4.0 73.40 142.264750
4.96 4.960720 4.0 74.733330 131.578950
4.95 4.950790 4.0 76.066670 147.71930
4.94 4.940860 4.0 77.40 163.859650
4.93 4.930930 3.966670 77.466670 180.0
4.92 4.920090 3.933330 77.533330 176.666670
4.91 4.910160 3.90 77.60 173.333330
4.90 4.905190 3.933330 75.666670 170.0
4.89 4.900230 3.966670 73.733330 166.666670
4.88 4.889390 4.0 71.80 165.079370
4.87 4.879460 3.933330 72.366670 163.492060
4.86 4.869530 3.866670 72.933330 161.904760
4.85 4.858690 3.80 73.50 185.714290
4.84 4.848760 3.80 73.60 209.523810
4.83 4.838830 3.80 73.70 233.333330
4.82 4.827990 3.80 73.80 220.0
4.81 4.818060 3.70 74.70 206.666670
4.80 4.808130 3.60 75.60 193.333330
4.79 4.797290 3.50 76.50 179.426520
4.78 4.787360 3.60 71.333330 165.519710
4.77 4.776520 3.70 66.166670 151.61290
4.76 4.766590 3.80 61.0 179.964160
4.75 4.756660 3.833330 61.90 208.315410
4.74 4.745820 3.866670 62.80 236.666670
4.73 4.735890 3.90 63.70 230.0
4.72 4.725960 3.866670 68.80 223.333330
4.71 4.715120 3.833330 73.90 216.666670
4.70 4.705190 3.80 79.0 197.777780
4.69 4.694360 3.833330 74.80 178.888890
4.68 4.684420 3.866670 70.60 160.0
4.67 4.674490 3.90 66.40 148.888890
4.66 4.663660 3.933330 66.866670 137.777780
4.65 4.653720 3.966670 67.333330 126.666670
4.64 4.643790 4.0 67.80 131.111110
4.63 4.632960 4.0 69.533330 135.555560
4.62 4.622120 4.0 71.266670 140.0
4.61 4.612190 4.0 73.0 148.888890
4.60 4.601350 3.9750 72.150 157.777780
4.59 4.591420 3.950 71.30 166.666670
