~VERSION INFORMATION SECTION
VERS. 2.0 : CWLS LAS-VERSION 2.0
WRAP. NO : One line per depth step
~WELL INFORMATION SECTION
# MNEM.UNIT VALUE/NAME DESCRIPTION
#-------- -------------- ---------------------
STRT.Metres 11 : Start
STOP.Metres 0.38 : Stop
STEP.Metres -0.01 : Step
NULL.  -999.25 :NULL VALUE
DATE. 2025-01-11 : DATE
~CURVE INFORMATION SECTION
DEPTH.Metres : 0 Depth
Depth. : 1 Depth
Incline.Deg : 2 Incline
Azimuth.Deg : 3 Azimuth
GR.CPS : 4 GR
~PARAMETER INFORMATION SECTION
~OTHER
#-------------------------------------------------
#Produced By: GeoVista Logger - Version 7.1.107.0
Natural Gamma Sonde - 6447
Verticality Sonde - 6292
#-------------------------------------------------
~ASCII LOG DATA
# ...
8.90 8.908350 4.266670 86.50 226.666670
8.89 8.898420 4.233330 86.60 221.111110
8.88 8.888490 4.20 86.70 215.555560
8.87 8.877650 4.233330 86.10 210.0
8.86 8.867720 4.266670 85.50 205.0
8.85 8.856880 4.30 84.90 200.0
8.84 8.846950 4.30 84.966670 195.0
8.83 8.836120 4.30 85.033330 190.0
8.82 8.826190 4.30 85.10 188.333330
8.81 8.816250 4.266670 85.80 186.666670
8.80 8.805420 4.233330 86.50 185.0
8.79 8.795490 4.20 87.20 192.222220
8.78 8.784650 4.20 86.333330 199.444440
8.77 8.774720 4.20 85.466670 206.666670
8.76 8.764790 4.20 84.60 198.888890
8.75 8.753950 4.20 85.30 191.111110
8.74 8.744020 4.20 86.0 183.333330
8.73 8.734090 4.20 86.70 185.555560
8.72 8.723250 4.20 85.766670 187.777780
8.71 8.713320 4.20 84.833330 190.0
8.70 8.703390 4.20 83.90 184.444440
8.69 8.693450 4.20 82.233330 178.888890
8.68 8.683520 4.20 80.566670 173.333330
8.67 8.672690 4.20 78.90 163.333330
8.66 8.662750 4.20 80.6250 153.333330
8.65 8.652820 4.20 82.350 143.333330
8.64 8.641990 4.20 84.0750 156.666670
8.63 8.632050 4.20 85.80 170.0
8.62 8.622120 4.20 84.933330 183.333330
8.61 8.612190 4.20 84.066670 190.0
8.60 8.601350 4.20 83.20 196.666670
8.59 8.591420 4.20 82.733330 203.333330
8.58 8.581490 4.20 82.266670 185.555560
8.57 8.571560 4.20 81.80 167.777780
8.56 8.560720 4.20 82.166670 150.0
8.55 8.550790 4.20 82.533330 156.666670
8.54 8.540860 4.20 82.90 163.333330
8.53 8.530930 4.20 83.90 170.0
8.52 8.520090 4.20 84.90 176.82540
8.51 8.510160 4.20 85.90 183.650790
8.50 8.505190 4.20 84.366670 190.476190
8.49 8.500230 4.20 82.833330 197.35450
8.48 8.489390 4.20 81.30 204.23280
8.47 8.479460 4.20 81.233330 211.111110
8.46 8.469530 4.20 81.166670 199.629630
8.45 8.459590 4.20 81.10 188.148150
8.44 8.449660 4.20 81.933330 176.666670
8.43 8.438830 4.20 82.766670 190.0
8.42 8.428890 4.20 83.60 203.333330
8.41 8.418960 4.20 83.266670 216.666670
8.40 8.408130 4.20 82.933330 201.111110
8.39 8.398190 4.20 82.60 185.555560
8.38 8.388260 4.20 81.333330 170.0
8.37 8.377430 4.20 80.066670 178.690480
8.36 8.367490 4.20 78.80 187.380950
8.35 8.357560 4.20 80.633330 196.071430
8.34 8.346730 4.20 82.466670 204.76190
8.33 8.336790 4.20 84.30 173.544970
8.32 8.326860 4.20 84.166670 142.328040
8.31 8.316030 4.20 84.033330 111.111110
8.30 8.306090 4.20 83.90 141.851850
8.29 8.296160 4.20 82.70 172.592590
8.28 8.285330 4.20 81.50 203.333330
8.27 8.27540 4.20 80.30 190.394270
8.26 8.264560 4.20 81.366670 177.45520
8.25 8.254630 4.20 82.433330 164.516130
8.24 8.243790 4.20 83.50 177.45520
8.23 8.233860 4.20 82.466670 190.394270
8.22 8.223020 4.20 81.433330 203.333330
8.21 8.213090 4.20 80.40 183.333330
8.20 8.202260 4.20 80.2250 163.333330
8.19 8.192330 4.20 80.050 143.333330
8.18 8.181490 4.20 79.8750 164.444440
8.17 8.171560 4.20 79.70 185.555560
8.16 8.160720 4.233330 80.433330 206.666670
8.15 8.150790 4.266670 81.166670 177.777780
8.14 8.140860 4.30 81.90 148.888890
8.13 8.130020 4.30 81.466670 120.0
8.12 8.125060 4.30 81.033330 136.666670
8.11 8.120090 4.30 80.60 153.333330
8.10 8.109260 4.30 80.466670 170.0
8.09 8.099320 4.30 80.333330 176.666670
8.08 8.088490 4.30 80.20 183.333330
8.07 8.078560 4.30 80.166670 190.0
8.06 8.067720 4.30 80.133330 179.166670
8.05 8.057790 4.30 80.10 168.333330
8.04 8.046950 4.333330 80.166670 157.50
8.03 8.037020 4.366670 80.233330 146.666670
8.02 8.026190 4.40 80.30 147.777780
8.01 8.016250 4.40 79.833330 148.888890
8.00 8.005420 4.40 79.366670 150.0
7.99 7.995490 4.40 78.90 158.888890
7.98 7.984650 4.40 80.10 167.777780
7.97 7.974720 4.40 81.30 176.666670
7.96 7.963880 4.40 82.50 190.0
7.95 7.953950 4.40 81.466670 203.333330
7.94 7.943120 4.40 80.433330 216.666670
7.93 7.933180 4.40 79.40 212.222220
7.92 7.922350 4.40 80.133330 207.777780
7.91 7.912420 4.40 80.866670 203.333330
7.90 7.901580 4.40 81.60 208.888890
7.89 7.891650 4.366670 81.366670 214.444440
7.88 7.881720 4.333330 81.133330 220.0
7.87 7.870880 4.30 80.90 206.666670
7.86 7.860950 4.333330 81.133330 193.333330
7.85 7.851020 4.366670 81.366670 180.0
7.84 7.840180 4.40 81.60 188.888890
7.83 7.830250 4.3750 81.60 197.777780
7.82 7.820320 4.350 81.60 206.666670
7.81 7.815350 4.3250 81.60 197.777780
7.80 7.810380 4.30 81.60 188.888890
7.79 7.799550 4.30 81.633330 180.0
7.78 7.789620 4.30 81.666670 171.111110
7.77 7.779680 4.30 81.70 162.222220
7.76 7.768850 4.30 81.733330 153.333330
7.75 7.758920 4.30 81.766670 167.777780
7.74 7.748980 4.30 81.80 182.222220
7.73 7.738150 4.30 81.50 196.666670
7.72 7.728220 4.30 81.20 173.046590
7.71 7.718280 4.30 80.90 149.426520
7.70 7.707450 4.30 80.90 125.806450
7.69 7.697520 4.30 80.90 157.20430
7.68 7.687580 4.30 80.90 188.602150
7.67 7.677650 4.30 81.433330 220.0
7.66 7.666820 4.30 81.966670 203.333330
7.65 7.656880 4.30 82.50 186.666670
7.64 7.646050 4.30 82.166670 170.0
7.63 7.636120 4.30 81.833330 168.333330
7.62 7.626190 4.30 81.50 166.666670
7.61 7.615350 4.30 81.40 165.0
7.60 7.605420 4.30 81.30 163.333330
7.59 7.595490 4.30 81.20 196.666670
7.58 7.584650 4.30 81.433330 230.0
7.57 7.574720 4.30 81.666670 226.666670
7.56 7.564790 4.30 81.90 223.333330
7.55 7.554850 4.30 82.233330 220.0
7.54 7.544020 4.30 82.566670 216.666670
7.53 7.534090 4.30 82.90 192.222220
7.52 7.524150 4.30 82.5750 167.777780
7.51 7.513320 4.30 82.250 143.333330
7.50 7.503390 4.30 81.9250 144.444440
7.49 7.493450 4.30 81.60 145.555560
7.48 7.482620 4.30 81.80 146.666670
7.47 7.472690 4.30 82.0 170.0
7.46 7.462750 4.30 82.20 193.333330
7.45 7.451920 4.30 82.766670 216.666670
7.44 7.441990 4.30 83.333330 204.444440
7.43 7.432050 4.30 83.90 192.222220
7.42 7.421220 4.30 83.033330 180.0
7.41 7.411290 4.30 82.166670 178.888890
7.40 7.401350 4.30 81.30 177.777780
7.39 7.390520 4.30 81.166670 176.666670
7.38 7.380590 4.30 81.033330 185.555560
7.37 7.375620 4.30 80.90 194.444440
7.36 7.370650 4.333330 81.666670 203.333330
7.35 7.359820 4.366670 82.433330 204.444440
7.34 7.349890 4.40 83.20 205.555560
7.33 7.339050 4.366670 82.133330 206.666670
7.32 7.329120 4.333330 81.066670 192.222220
7.31 7.318280 4.30 80.0 177.777780
7.30 7.308350 4.30 81.70 163.333330
7.29 7.297520 4.30 83.40 176.666670
7.28 7.287580 4.30 85.10 190.0
7.27 7.277650 4.266670 83.733330 203.333330
7.26 7.266820 4.233330 82.366670 195.0
7.25 7.256880 4.20 81.0 186.666670
7.24 7.246050 4.233330 81.866670 178.333330
7.23 7.236120 4.266670 82.733330 170.0
7.22 7.226190 4.30 83.60 152.222220
7.21 7.215350 4.266670 83.80 134.444440
7.20 7.205420 4.233330 84.0 116.666670
7.19 7.194580 4.20 84.20 130.0
7.18 7.184650 4.20 83.0 143.333330
7.17 7.173810 4.20 81.80 156.666670
7.16 7.163880 4.20 80.60 162.222220
7.15 7.153050 4.20 80.733330 167.777780
7.14 7.143120 4.20 80.866670 173.333330
7.13 7.132280 4.20 81.0 189.74910
7.12 7.122350 4.20 81.60 206.164870
7.11 7.111510 4.20 82.20 222.580650
7.10 7.101580 4.20 82.80 199.498210
7.09 7.090740 4.20 81.533330 176.415770
7.08 7.085780 4.20 80.266670 153.333330
7.07 7.080810 4.20 79.0 182.222220
7.06 7.072910 4.1750 80.4250 211.111110
7.05 7.065010 4.150 81.850 240.0
7.04 7.049210 4.1250 83.2750 217.777780
7.03 7.039280 4.10 84.70 195.555560
7.02 7.028440 4.133330 83.60 173.333330
7.01 7.018510 4.166670 82.50 185.555560
7.00 7.007670 4.20 81.40 197.777780
6.99 6.997740 4.20 81.766670 210.0
6.98 6.986910 4.20 82.133330 201.666670
6.97 6.976980 4.20 82.50 193.333330
6.96 6.967040 4.166670 84.0 185.0
6.95 6.956210 4.133330 85.50 205.555560
6.94 6.946280 4.10 87.0 226.111110
6.93 6.936340 4.066670 82.933330 246.666670
6.92 6.925510 4.033330 78.866670 237.50
6.91 6.915580 4.0 74.80 228.333330
6.90 6.905640 4.0 77.033330 219.166670
6.89 6.894810 4.0 79.266670 210.0
6.88 6.884880 4.0 81.50 198.888890
6.87 6.874940 4.0 81.366670 187.777780
6.86 6.864110 4.0 81.233330 176.666670
6.85 6.854180 4.0 81.10 178.888890
6.84 6.843340 4.0 81.166670 181.111110
6.83 6.833410 4.0 81.233330 183.333330
6.82 6.822570 4.0 81.30 187.777780
6.81 6.812640 4.0 80.866670 192.222220
6.80 6.802710 4.0 80.433330 196.666670
6.79 6.791870 4.0 80.0 192.222220
6.78 6.781940 4.0 80.1250 187.777780
6.77 6.772010 4.0 80.250 183.333330
