~VERSION INFORMATION SECTION
VERS. 2.0 : CWLS LAS-VERSION 2.0
WRAP. NO : One line per depth step
~WELL INFORMATION SECTION
# MNEM.UNIT VALUE/NAME DESCRIPTION
#-------- -------------- ---------------------
STRT.Metres 11 : Start
STOP.Metres 0.48 : Stop
STEP.Metres -0.01 : Step
NULL.  -999.25 :NULL VALUE
DATE. 2025-04-11 : DATE
~CURVE INFORMATION SECTION
DEPTH.Metres : 0 Depth
Depth. : 1 Depth
Incline.Deg : 2 Incline
Azimuth.Deg : 3 Azimuth
GR.CPS : 4 GR
~PARAMETER INFORMATION SECTION
~OTHER
#-------------------------------------------------
#Produced By: GeoVista Logger - Version 7.1.107.0
Natural Gamma Sonde - 6447
Verticality Sonde - 6292
#-------------------------------------------------
~ASCII LOG DATA
# ...
6.56 6.570650 3.860 81.720 148.0
6.55 6.562080 3.840 81.380 145.333330
6.54 6.55350 3.820 81.040 142.666670
6.53 6.544920 3.80 80.70 140.0
6.52 6.536340 3.820 79.860 139.333330
6.51 6.519190 3.840 79.020 138.666670
6.50 6.510610 3.860 78.180 138.0
6.49 6.502030 3.880 77.340 137.333330
6.48 6.493450 3.90 76.50 136.666670
6.47 6.484880 3.90 78.040 140.666670
6.46 6.467720 3.90 79.580 144.666670
6.45 6.459140 3.90 81.120 148.666670
6.44 6.450560 3.90 82.660 152.666670
6.43 6.441990 3.90 84.20 156.666670
6.42 6.433410 3.90 83.420 154.424240
6.41 6.425280 3.90 82.640 152.181820
6.40 6.417160 3.90 81.860 149.939390
6.39 6.40 3.90 81.080 147.696970
6.38 6.391420 3.90 80.30 145.454550
6.37 6.382840 3.90 80.470 147.878790
6.36 6.374270 3.90 80.640 150.303030
6.35 6.365690 3.90 80.810 152.727270
6.34 6.348530 3.90 80.980 155.151520
6.33 6.339950 3.90 81.150 157.575760
6.32 6.331380 3.90 81.320 160.0
6.31 6.32280 3.90 81.490 163.333330
6.30 6.314220 3.90 81.660 166.666670
6.29 6.305640 3.90 81.830 170.0
6.28 6.297070 3.90 82.0 173.333330
6.27 6.279910 3.90 81.266670 176.666670
6.26 6.271330 3.90 80.533330 181.333330
6.25 6.262750 3.90 79.80 186.0
6.24 6.254180 3.90 79.066670 190.666670
6.23 6.24560 3.90 78.333330 195.333330
6.22 6.228440 3.90 77.60 200.0
6.21 6.219860 3.890 77.80 198.0
6.20 6.211290 3.880 78.0 196.0
6.19 6.202710 3.870 78.20 194.0
6.18 6.194130 3.860 78.40 192.0
6.17 6.185550 3.850 78.60 190.0
6.16 6.176980 3.840 78.80 182.666670
6.15 6.159820 3.830 79.0 175.333330
6.14 6.151240 3.820 79.20 168.0
6.13 6.142660 3.810 79.40 160.666670
6.12 6.134540 3.80 79.60 153.333330
6.11 6.126410 3.840 78.820 152.0
6.10 6.109260 3.880 78.040 150.666670
6.09 6.100680 3.920 77.260 149.333330
6.08 6.09210 3.960 76.480 148.0
6.07 6.083520 4.0 75.70 146.666670
6.06 6.074940 4.0 75.720 144.666670
6.05 6.057790 4.0 75.740 142.666670
6.04 6.049660 4.0 75.760 140.666670
6.03 6.041530 4.0 75.780 138.666670
6.02 6.032960 4.0 75.80 136.666670
6.01 6.024380 3.960 75.160 137.333330
6.00 6.007220 3.920 74.520 138.0
5.99 5.998650 3.880 73.880 138.666670
5.98 5.990070 3.840 73.240 139.333330
5.97 5.981490 3.80 72.60 140.0
5.96 5.972910 3.860 72.980 146.0
5.95 5.964330 3.920 73.360 152.0
5.94 5.955760 3.980 73.740 158.0
5.93 5.93950 4.040 74.120 164.0
5.92 5.930930 4.10 74.50 170.0
5.91 5.922350 4.10 75.020 163.333330
5.90 5.913770 4.10 75.540 156.666670
5.89 5.905190 4.10 76.060 150.0
5.88 5.888040 4.10 76.580 143.333330
5.87 5.879910 4.10 77.10 136.666670
5.86 5.871780 4.083330 76.166670 143.333330
5.85 5.863210 4.066670 75.233330 150.0
5.84 5.854630 4.050 74.30 156.666670
5.83 5.837470 4.033330 73.366670 163.333330
5.82 5.828890 4.016670 72.433330 170.0
5.81 5.820320 4.0 71.50 172.777780
5.80 5.811740 4.0 72.940 175.555560
5.79 5.803160 4.0 74.380 178.333330
5.78 5.794580 4.0 75.820 181.111110
5.77 5.7860 4.0 77.260 183.888890
5.76 5.768850 4.0 78.70 186.666670
5.75 5.760270 4.0 78.540 185.333330
5.74 5.751690 4.0 78.380 184.0
5.73 5.743120 4.0 78.220 182.666670
5.72 5.734540 4.0 78.060 181.333330
5.71 5.717380 4.0 77.90 180.0
5.70 5.709260 4.0 76.80 178.545450
5.69 5.701130 4.0 75.70 177.090910
5.68 5.692550 4.0 74.60 175.636360
5.67 5.683970 4.0 73.50 174.181820
5.66 5.667720 4.0 72.40 172.727270
5.65 5.659140 4.0 73.260 172.918660
5.64 5.650560 4.0 74.120 173.110050
5.63 5.642440 4.0 74.980 173.301440
5.62 5.634310 4.0 75.840 173.492820
5.61 5.625730 4.0 76.70 173.684210
5.60 5.617160 4.0 77.060 164.401910
5.59 5.60 4.0 77.420 155.119620
5.58 5.591870 4.0 77.780 145.837320
5.57 5.583750 4.0 78.140 136.555020
5.56 5.575170 4.0 78.50 127.272730
5.55 5.566590 4.0 77.720 130.909090
5.54 5.549440 4.0 76.940 134.545450
5.53 5.540860 4.0 76.160 138.181820
5.52 5.532280 4.0 75.380 141.818180
5.51 5.52370 4.0 74.60 145.454550
5.50 5.515120 4.020 74.920 152.153110
5.49 5.497970 4.040 75.240 158.851670
5.48 5.489390 4.060 75.560 165.550240
5.47 5.480810 4.080 75.880 172.24880
5.46 5.472230 4.10 76.20 178.947370
5.45 5.463660 4.060 76.340 179.157890
5.44 5.455080 4.020 76.480 179.368420
5.43 5.44650 3.980 76.620 179.578950
5.42 5.429350 3.940 76.760 179.789470
5.41 5.420770 3.90 76.90 180.0
5.40 5.412190 3.90 76.480 176.344090
5.39 5.403610 3.90 76.060 172.688170
5.38 5.395030 3.90 75.640 169.032260
5.37 5.377880 3.90 75.220 165.376340
5.36 5.36930 3.90 74.80 161.720430
5.35 5.360720 3.909090 74.681820 158.064520
5.34 5.352140 3.918180 74.563640 159.118280
5.33 5.343570 3.927270 74.445450 160.172040
5.32 5.334990 3.936360 74.327270 161.225810
5.31 5.326410 3.945450 74.209090 162.279570
5.30 5.309260 3.954550 74.090910 163.333330
5.29 5.300680 3.963640 73.972730 148.666670
5.28 5.29210 3.972730 73.854550 134.0
5.27 5.283520 3.981820 73.736360 119.333330
5.26 5.274940 3.990910 73.618180 104.666670
5.25 5.258690 4.0 73.50 90.0
5.24 5.250110 4.0 74.560 112.0
5.23 5.241530 4.0 75.620 134.0
5.22 5.232960 4.0 76.680 156.0
5.21 5.224380 4.0 77.740 178.0
5.20 5.208130 4.0 78.80 200.0
5.19 5.199550 4.0 77.460 190.0
5.18 5.190970 4.0 76.120 180.0
5.17 5.182390 4.0 74.780 170.0
5.16 5.173810 4.0 73.440 160.0
5.15 5.156660 4.0 72.10 150.0
5.14 5.148530 4.0 73.160 150.666670
5.13 5.140410 4.0 74.220 151.333330
5.12 5.131830 4.0 75.280 152.0
5.11 5.123250 4.0 76.340 152.666670
5.10 5.114670 4.0 77.40 153.333330
5.09 5.106090 4.0 76.40 156.0
5.08 5.089840 4.0 75.40 158.666670
5.07 5.081260 4.0 74.40 161.333330
5.06 5.072690 4.0 73.40 164.0
5.05 5.064110 4.0 72.40 166.666670
5.04 5.055530 4.0 72.920 159.333330
5.03 5.038370 4.0 73.440 152.0
5.02 5.030250 4.0 73.960 144.666670
5.01 5.022120 4.0 74.480 137.333330
5.00 5.013540 4.0 75.0 130.0
4.99 5.004970 4.0 74.680 132.0
4.98 4.987810 4.0 74.360 134.0
4.97 4.979230 4.0 74.040 136.0
4.96 4.970650 4.0 73.720 138.0
4.95 4.962080 4.0 73.40 140.0
4.94 4.95350 3.990 73.530 141.666670
4.93 4.937250 3.980 73.660 143.333330
4.92 4.928670 3.970 73.790 145.0
4.91 4.920090 3.960 73.920 146.666670
4.90 4.911510 3.950 74.050 148.333330
4.89 4.902930 3.940 74.180 150.0
4.88 4.894360 3.930 74.310 162.0
4.87 4.885780 3.920 74.440 174.0
4.86 4.868620 3.910 74.570 186.0
4.85 4.860050 3.90 74.70 198.0
4.84 4.851470 3.90 74.720 210.0
4.83 4.842890 3.90 74.740 208.666670
4.82 4.834310 3.90 74.760 207.333330
4.81 4.825730 3.90 74.780 206.0
4.80 4.817160 3.90 74.80 204.666670
4.79 4.80 3.916670 74.083330 203.333330
4.78 4.791870 3.933330 73.366670 203.333330
4.77 4.783750 3.950 72.650 203.333330
4.76 4.775170 3.966670 71.933330 203.333330
4.75 4.766590 3.983330 71.216670 203.333330
4.74 4.749440 4.0 70.50 203.333330
4.73 4.740860 4.0 70.710 192.0
4.72 4.732280 4.0 70.920 180.666670
4.71 4.72370 4.0 71.130 169.333330
4.70 4.715120 4.0 71.340 158.0
4.69 4.706550 4.0 71.550 146.666670
4.68 4.697970 4.0 71.760 159.151520
4.67 4.679910 4.0 71.970 171.636360
4.66 4.671330 4.0 72.180 184.121210
4.65 4.662750 4.0 72.390 196.606060
4.64 4.654180 4.0 72.60 209.090910
4.63 4.64560 4.0 71.940 204.114830
4.62 4.628440 4.0 71.280 199.138760
4.61 4.619860 4.0 70.620 194.162680
4.60 4.611290 4.0 69.960 189.18660
4.59 4.602710 4.0 69.30 184.210530
4.58 4.594130 3.980 68.680 180.035090
4.57 4.576980 3.960 68.060 175.859650
4.56 4.568850 3.940 67.440 171.684210
4.55 4.560720 3.920 66.820 167.508770
4.54 4.552140 3.90 66.20 163.333330
4.53 4.543570 3.90 68.020 154.0
4.52 4.526410 3.90 69.840 144.666670
4.51 4.518280 3.90 71.660 135.333330
4.50 4.510160 3.90 73.480 126.0
4.49 4.501580 3.90 75.30 116.666670
4.48 4.4930 3.880 74.720 123.333330
4.47 4.484420 3.860 74.140 130.0
4.46 4.475850 3.840 73.560 136.666670
4.45 4.459590 3.820 72.980 143.333330
4.44 4.451020 3.80 72.40 150.0
4.43 4.442440 3.820 72.60 156.666670
4.42 4.433860 3.840 72.80 158.881720
4.41 4.425280 3.860 73.0 161.096770
4.40 4.408130 3.880 73.20 163.311830
4.39 4.40 3.90 73.40 165.526880
4.38 4.391870 3.90 72.683330 167.741940
4.37 4.38330 3.90 71.966670 158.860220
4.36 4.374720 3.90 71.250 149.978490
4.35 4.357560 3.90 70.533330 141.096770
4.34 4.348980 3.90 69.816670 132.215050
4.33 4.340410 3.90 69.10 123.333330
4.32 4.331830 3.90 69.260 134.0
