~VERSION INFORMATION SECTION
VERS. 2.0 : CWLS LAS-VERSION 2.0
WRAP. NO : One line per depth step
~WELL INFORMATION SECTION
# MNEM.UNIT VALUE/NAME DESCRIPTION
#-------- -------------- ---------------------
STRT.Metres 11 : Start
STOP.Metres 0.48 : Stop
STEP.Metres -0.01 : Step
NULL.  -999.25 :NULL VALUE
DATE. 2025-04-11 : DATE
~CURVE INFORMATION SECTION
DEPTH.Metres : 0 Depth
Depth. : 1 Depth
Incline.Deg : 2 Incline
Azimuth.Deg : 3 Azimuth
GR.CPS : 4 GR
~PARAMETER INFORMATION SECTION
~OTHER
#-------------------------------------------------
#Produced By: GeoVista Logger - Version 7.1.107.0
Natural Gamma Sonde - 6447
Verticality Sonde - 6292
#-------------------------------------------------
~ASCII LOG DATA
11.00 -999.25 -999.25 -999.25 -999.25
10.99 5.497520 -999.25 -999.25 -999.25
10.98 10.995030 -999.25 -999.25 -999.25
10.97 10.978780 -999.25 -999.25 -999.25
10.96 10.97020 -999.25 -999.25 -999.25
10.95 10.961630 -999.25 -999.25 -999.25
10.94 10.95350 -999.25 -999.25 -999.25
10.93 10.945370 -999.25 -999.25 -999.25
10.92 10.928220 -999.25 -999.25 -999.25
10.91 10.920090 4.80 85.558330 -999.25
10.90 10.911960 4.80 85.60 -999.25
10.89 10.903390 4.80 85.550 -999.25
10.88 10.894810 4.80 85.50 -999.25
10.87 10.877650 4.80 85.666670 -999.25
10.86 10.869530 4.80 85.833330 -999.25
10.85 10.86140 4.80 86.0 -999.25
10.84 10.852820 4.80 86.0750 -999.25
10.83 10.844240 4.80 86.150 -999.25
10.82 10.827090 4.80 86.2250 -999.25
10.81 10.818960 4.80 86.30 -999.25
10.80 10.810840 4.788890 86.166670 -999.25
10.79 10.802260 4.777780 86.033330 -999.25
10.78 10.793680 4.766670 85.90 -999.25
10.77 10.776520 4.755560 85.766670 -999.25
10.76 10.76840 4.744440 85.633330 -999.25
10.75 10.760270 4.733330 85.50 -999.25
10.74 10.751690 4.722220 85.366670 -999.25
10.73 10.743120 4.711110 85.233330 -999.25
10.72 10.734540 4.70 85.10 -999.25
10.71 10.725960 4.720 85.120 -999.25
10.70 10.709710 4.740 85.140 -999.25
10.69 10.701130 4.760 85.160 -999.25
10.68 10.692550 4.780 85.180 -999.25
10.67 10.683970 4.80 85.20 -999.25
10.66 10.67540 4.780 85.360 -999.25
10.65 10.659140 4.760 85.520 -999.25
10.64 10.650560 4.740 85.680 -999.25
10.63 10.641990 4.720 85.840 -999.25
10.62 10.633860 4.70 86.0 -999.25
10.61 10.625730 4.70 86.120 -999.25
10.60 10.608580 4.70 86.240 -999.25
10.59 10.600450 4.70 86.360 -999.25
10.58 10.592330 4.70 86.480 -999.25
10.57 10.583750 4.70 86.60 -999.25
10.56 10.575170 4.70 86.580 -999.25
10.55 10.558920 4.70 86.560 -999.25
10.54 10.550340 4.70 86.540 -999.25
10.53 10.541760 4.70 86.520 -999.25
10.52 10.533180 4.70 86.50 -999.25
10.51 10.52460 4.680 86.140 -999.25
10.50 10.508350 4.660 85.780 -999.25
10.49 10.499770 4.640 85.420 -999.25
10.48 10.49120 4.620 85.060 -999.25
10.47 10.482620 4.60 84.70 -999.25
10.46 10.474040 4.583330 85.050 -999.25
10.45 10.457790 4.566670 85.40 -999.25
10.44 10.449210 4.550 85.750 -999.25
10.43 10.440630 4.533330 86.10 -999.25
10.42 10.432510 4.516670 86.450 -999.25
10.41 10.424380 4.50 86.80 -999.25
10.40 10.407220 4.50 86.40 -999.25
10.39 10.39910 4.50 86.0 -999.25
10.38 10.390970 4.50 85.60 -999.25
10.37 10.382390 4.50 85.20 -999.25
10.36 10.373810 4.50 84.80 -999.25
10.35 10.357560 4.50 85.060 -999.25
10.34 10.348980 4.50 85.320 -999.25
10.33 10.340410 4.50 85.580 166.166980
10.32 10.331830 4.50 85.840 159.750160
10.31 10.323250 4.50 86.10 153.333330
10.30 10.315120 4.480 85.920 154.444440
10.29 10.3070 4.460 85.740 155.555560
10.28 10.289840 4.440 85.560 156.666670
10.27 10.281260 4.420 85.380 156.666670
10.26 10.272690 4.40 85.20 156.666670
10.25 10.264110 4.420 85.280 156.666670
10.24 10.255530 4.440 85.360 156.666670
10.23 10.239280 4.460 85.440 150.564520
10.22 10.23070 4.480 85.520 144.462370
10.21 10.222120 4.50 85.60 138.360220
10.20 10.213540 4.520 85.580 132.258060
10.19 10.204970 4.540 85.560 141.806450
10.18 10.187810 4.560 85.540 151.354840
10.17 10.179230 4.580 85.520 160.903230
10.16 10.170650 4.60 85.50 170.451610
10.15 10.162080 4.60 85.060 180.0
10.14 10.15350 4.60 84.620 188.0
10.13 10.144920 4.60 84.180 196.0
10.12 10.136340 4.60 83.740 204.0
10.11 10.119190 4.60 83.30 212.0
10.10 10.110610 4.60 83.580 220.0
10.09 10.102030 4.60 83.860 217.0
10.08 10.093450 4.60 84.140 214.0
10.07 10.084880 4.60 84.420 211.0
10.06 10.067720 4.60 84.70 208.0
10.05 10.059140 4.60 84.380 205.0
10.04 10.050560 4.60 84.060 203.333330
10.03 10.041990 4.60 83.740 201.666670
10.02 10.033410 4.60 83.420 200.0
10.01 10.024830 4.60 83.10 198.333330
10.00 10.016250 4.580 83.420 196.666670
9.99 9.99910 4.560 83.740 191.333330
9.98 9.990070 4.540 84.060 186.0
9.97 9.981040 4.520 84.380 180.666670
9.96 9.972460 4.50 84.70 175.333330
9.95 9.963880 4.520 84.580 170.0
9.94 9.95530 4.540 84.460 157.333330
9.93 9.946730 4.560 84.340 144.666670
9.92 9.929570 4.580 84.220 132.0
9.91 9.920990 4.60 84.10 119.333330
9.90 9.912420 4.560 83.960 106.666670
9.89 9.903840 4.520 83.820 124.666670
9.88 9.895260 4.480 83.680 142.666670
9.87 9.87810 4.440 83.540 160.666670
9.86 9.869530 4.40 83.40 178.666670
9.85 9.860950 4.420 83.540 196.666670
9.84 9.852370 4.440 83.680 197.333330
9.83 9.843790 4.460 83.820 198.0
9.82 9.835210 4.480 83.960 198.666670
9.81 9.826640 4.50 84.10 199.333330
9.80 9.809480 4.520 83.660 200.0
9.79 9.80090 4.540 83.220 204.0
9.78 9.792330 4.560 82.780 208.0
9.77 9.783750 4.580 82.340 212.0
9.76 9.775170 4.60 81.90 216.0
9.75 9.758010 4.550 82.266670 220.0
9.74 9.749890 4.50 82.633330 211.333330
9.73 9.741760 4.450 83.0 202.666670
9.72 9.733180 4.40 83.366670 194.0
9.71 9.72460 4.350 83.733330 185.333330
9.70 9.707450 4.30 84.10 176.666670
9.69 9.698870 4.320 83.280 177.333330
9.68 9.690290 4.340 82.460 178.0
9.67 9.682170 4.360 81.640 178.666670
9.66 9.674040 4.380 80.820 179.333330
9.65 9.665460 4.40 80.0 180.0
9.64 9.656880 4.40 80.680 178.666670
9.63 9.639730 4.40 81.360 177.333330
9.62 9.631150 4.40 82.040 176.0
9.61 9.622570 4.40 82.720 174.666670
9.60 9.6140 4.40 83.40 173.333330
9.59 9.605420 4.40 83.820 176.0
9.58 9.589160 4.40 84.240 178.666670
9.57 9.580590 4.40 84.660 181.333330
9.56 9.572010 4.40 85.080 184.0
9.55 9.563430 4.40 85.50 186.666670
9.54 9.554850 4.380 84.940 180.0
9.53 9.53770 4.360 84.380 173.333330
9.52 9.529120 4.340 83.820 166.666670
9.51 9.520540 4.320 83.260 160.0
9.50 9.512420 4.30 82.70 153.333330
9.49 9.504290 4.320 83.420 162.666670
9.48 9.495710 4.340 84.140 172.0
9.47 9.487130 4.360 84.860 181.333330
9.46 9.469980 4.380 85.580 190.666670
9.45 9.46140 4.40 86.30 200.0
9.44 9.452820 4.380 85.780 206.666670
9.43 9.444240 4.360 85.260 213.333330
9.42 9.435670 4.340 84.740 220.0
9.41 9.419410 4.320 84.220 226.666670
9.40 9.410840 4.30 83.70 233.333330
9.39 9.402260 4.316670 84.316670 232.0
9.38 9.393680 4.333330 84.933330 230.666670
9.37 9.38510 4.350 85.550 229.333330
9.36 9.367950 4.366670 86.166670 228.0
9.35 9.359370 4.383330 86.783330 226.666670
9.34 9.350790 4.40 87.40 233.333330
9.33 9.342210 4.360 86.320 240.0
9.32 9.333630 4.320 85.240 246.666670
9.31 9.325060 4.280 84.160 253.333330
9.30 9.316480 4.240 83.080 260.0
9.29 9.299320 4.20 82.0 252.688170
9.28 9.290740 4.240 82.480 245.376340
9.27 9.282170 4.280 82.960 238.064520
9.26 9.273590 4.320 83.440 230.752690
9.25 9.265010 4.360 83.920 223.440860
9.24 9.247860 4.40 84.40 216.129030
9.23 9.239280 4.40 84.620 220.236560
9.22 9.23070 4.40 84.840 224.344090
9.21 9.222120 4.40 85.060 228.451610
9.20 9.213540 4.40 85.280 232.559140
9.19 9.204970 4.40 85.50 236.666670
9.18 9.196390 4.360 84.680 232.666670
9.17 9.178330 4.320 83.860 228.666670
9.16 9.169750 4.280 83.040 224.666670
9.15 9.161170 4.240 82.220 220.666670
9.14 9.15260 4.20 81.40 216.666670
9.13 9.144020 4.20 83.060 218.0
9.12 9.135440 4.20 84.720 219.333330
9.11 9.126860 4.20 86.380 220.666670
9.10 9.109710 4.20 88.040 222.0
9.09 9.101130 4.20 89.70 223.333330
9.08 9.092550 4.220 89.20 223.333330
9.07 9.083970 4.240 88.70 223.333330
9.06 9.07540 4.260 88.20 223.333330
9.05 9.058240 4.280 87.70 223.333330
9.04 9.049660 4.30 87.20 223.333330
9.03 9.041080 4.30 86.60 213.333330
9.02 9.032510 4.30 86.0 203.333330
9.01 9.023930 4.30 85.40 193.333330
9.00 9.015350 4.30 84.80 183.333330
8.99 9.006770 4.30 84.20 173.333330
8.98 8.989620 4.080 83.980 176.0
8.97 8.981040 3.860 83.760 178.666670
8.96 8.972460 3.640 83.540 181.333330
8.95 8.963880 3.420 83.320 184.0
8.94 8.95530 3.20 83.10 186.666670
8.93 8.938150 3.316670 82.783330 189.444440
8.92 8.929570 3.433330 82.466670 192.222220
8.91 8.920990 3.550 82.150 195.0
8.90 8.912420 3.666670 81.833330 197.777780
8.89 8.903840 3.783330 81.516670 200.555560
8.88 8.895260 3.90 81.20 203.333330
8.87 8.886680 3.940 81.640 204.0
8.86 8.869530 3.980 82.080 204.666670
8.85 8.860950 4.020 82.520 205.333330
8.84 8.852370 4.060 82.960 206.0
8.83 8.843790 4.10 83.40 206.666670
