~VERSION INFORMATION SECTION
VERS. 2.0 : CWLS LAS-VERSION 2.0
WRAP. NO : One line per depth step
~WELL INFORMATION SECTION
# MNEM.UNIT VALUE/NAME DESCRIPTION
#-------- -------------- ---------------------
STRT.Metres 11 : Start
STOP.Metres 0.38 : Stop
STEP.Metres -0.01 : Step
NULL.  -999.25 :NULL VALUE
DATE. 2025-01-11 : DATE
~CURVE INFORMATION SECTION
DEPTH.Metres : 0 Depth
Depth. : 1 Depth
Incline.Deg : 2 Incline
Azimuth.Deg : 3 Azimuth
GR.CPS : 4 GR
~PARAMETER INFORMATION SECTION
~OTHER
#-------------------------------------------------
#Produced By: GeoVista Logger - Version 7.1.107.0
Natural Gamma Sonde - 6447
Verticality Sonde - 6292
#-------------------------------------------------
~ASCII LOG DATA
# ...
4.58 4.580590 3.9250 70.450 176.666670
4.57 4.575620 3.90 69.60 186.666670
4.56 4.570650 3.90 68.233330 196.666670
4.55 4.559820 3.90 66.866670 184.444440
4.54 4.549890 3.90 65.50 172.222220
4.53 4.539050 3.90 68.10 160.0
4.52 4.529120 3.90 70.70 160.0
4.51 4.518280 3.90 73.30 160.0
4.50 4.508350 3.90 72.733330 160.0
4.49 4.498420 3.90 72.166670 153.333330
4.48 4.488490 3.90 71.60 146.666670
4.47 4.477650 3.90 70.833330 140.0
4.46 4.467720 3.90 70.066670 133.333330
4.45 4.457790 3.90 69.30 145.555560
4.44 4.447860 3.90 70.60 157.777780
4.43 4.437020 3.90 71.90 170.0
4.42 4.427090 3.90 73.20 167.777780
4.41 4.417160 3.90 73.233330 165.555560
4.40 4.407220 3.90 73.266670 163.333330
4.39 4.396390 3.90 73.30 163.333330
4.38 4.386460 3.90 71.866670 163.333330
4.37 4.376520 3.90 70.433330 163.333330
4.36 4.366590 3.90 69.0 156.507940
4.35 4.355760 3.90 69.40 149.682540
4.34 4.345820 3.90 69.80 142.857140
4.33 4.335890 3.90 70.20 139.682540
4.32 4.325060 3.866670 71.20 136.507940
4.31 4.315120 3.833330 72.20 133.333330
4.30 4.305190 3.80 73.20 138.888890
4.29 4.294360 3.80 71.333330 144.444440
4.28 4.284420 3.80 69.466670 150.0
4.27 4.273590 3.80 67.60 178.888890
4.26 4.263660 3.8250 68.1750 207.777780
4.25 4.253720 3.850 68.750 236.666670
4.24 4.242890 3.8750 69.3250 193.333330
4.23 4.232960 3.90 69.90 150.0
4.22 4.222120 3.866670 70.20 106.666670
4.21 4.212190 3.833330 70.50 111.971330
4.20 4.202260 3.80 70.80 117.275990
4.19 4.191420 3.80 70.633330 122.580650
4.18 4.180590 3.80 70.466670 138.38710
4.17 4.175620 3.80 70.30 154.193550
4.16 4.170650 3.80 70.20 170.0
4.15 4.159820 3.80 70.10 162.222220
4.14 4.149890 3.80 70.0 154.444440
4.13 4.139050 3.80 70.333330 146.666670
4.12 4.129120 3.80 70.666670 141.111110
4.11 4.118280 3.80 71.0 135.555560
4.10 4.108350 3.80 71.333330 130.0
4.09 4.097520 3.80 71.666670 150.0
4.08 4.087580 3.80 72.0 170.0
4.07 4.076750 3.80 71.60 190.0
4.06 4.066820 3.80 71.20 178.888890
4.05 4.055980 3.80 70.80 167.777780
4.04 4.046050 3.766670 68.70 156.666670
4.03 4.035210 3.733330 66.60 151.666670
4.02 4.025280 3.70 64.50 146.666670
4.01 4.015350 3.733330 66.633330 141.666670
4.00 4.004510 3.766670 68.766670 136.666670
3.99 3.993680 3.80 70.90 135.555560
3.98 3.983750 3.80 69.166670 134.444440
3.97 3.972910 3.80 67.433330 133.333330
3.96 3.962980 3.80 65.70 151.111110
3.95 3.952140 3.666670 63.40 168.888890
3.94 3.942210 3.533330 61.10 186.666670
3.93 3.931380 3.40 58.80 163.333330
3.92 3.921440 3.50 63.533330 140.0
3.91 3.916030 3.60 68.266670 116.666670
3.90 3.910610 3.70 73.0 128.888890
3.89 3.899770 3.733330 69.90 141.111110
3.88 3.889840 3.766670 66.80 153.333330
3.87 3.879010 3.80 63.70 144.444440
3.86 3.869070 3.7750 64.650 135.555560
3.85 3.858240 3.750 65.60 126.666670
3.84 3.848310 3.7250 66.550 147.777780
3.83 3.837470 3.70 67.50 168.888890
3.82 3.827540 3.70 67.066670 190.0
3.81 3.81670 3.70 66.633330 174.444440
3.80 3.805870 3.70 66.20 158.888890
3.79 3.795940 3.733330 66.266670 143.333330
3.78 3.78510 3.766670 66.333330 127.777780
3.77 3.774270 3.80 66.40 112.222220
3.76 3.764330 3.70 66.933330 96.666670
3.75 3.75350 3.60 67.466670 103.333330
3.74 3.742660 3.50 68.0 110.0
3.73 3.732730 3.566670 67.066670 116.666670
3.72 3.72190 3.633330 66.133330 134.444440
3.71 3.711060 3.70 65.20 152.222220
3.70 3.701130 3.666670 67.433330 170.0
3.69 3.695710 3.633330 69.666670 158.333330
3.68 3.690290 3.60 71.90 146.666670
3.67 3.679460 3.633330 70.633330 135.0
3.66 3.668620 3.666670 69.366670 123.333330
3.65 3.658690 3.70 68.10 134.444440
3.64 3.647860 3.666670 68.20 145.555560
3.63 3.637020 3.633330 68.30 156.666670
3.62 3.627090 3.60 68.40 171.111110
3.61 3.616250 3.6250 67.8750 185.555560
3.60 3.605420 3.650 67.350 200.0
3.59 3.595490 3.6750 66.8250 196.666670
3.58 3.584650 3.70 66.30 193.333330
3.57 3.573810 3.70 67.166670 190.0
3.56 3.562980 3.70 68.033330 172.222220
3.55 3.552140 3.70 68.90 154.444440
3.54 3.542210 3.70 67.766670 136.666670
3.53 3.531380 3.70 66.633330 133.333330
3.52 3.520540 3.70 65.50 130.0
3.51 3.515580 3.666670 65.90 126.666670
3.50 3.510610 3.633330 66.30 134.444440
3.49 3.499770 3.60 66.70 142.222220
3.48 3.488940 3.566670 67.933330 150.0
3.47 3.47810 3.533330 69.166670 171.666670
3.46 3.468170 3.50 70.40 193.333330
3.45 3.457340 3.533330 68.533330 215.0
3.44 3.44650 3.566670 66.666670 210.0
3.43 3.435670 3.60 64.80 205.0
3.42 3.425730 3.566670 65.566670 200.0
3.41 3.41490 3.533330 66.333330 183.333330
3.40 3.404970 3.50 67.10 166.666670
3.39 3.394130 3.50 67.0750 150.0
3.38 3.38330 3.50 67.050 168.888890
3.37 3.373360 3.50 67.0250 187.777780
3.36 3.362530 3.50 67.0 206.666670
3.35 3.35260 3.50 67.966670 186.666670
3.34 3.341760 3.50 68.933330 166.666670
3.33 3.331830 3.50 69.90 146.666670
3.32 3.32190 3.466670 69.666670 151.111110
3.31 3.311060 3.433330 69.433330 155.555560
3.30 3.301130 3.40 69.20 160.0
3.29 3.29120 3.40 67.166670 157.50
3.28 3.281260 3.40 65.133330 155.0
3.27 3.270430 3.40 63.10 152.50
3.26 3.26050 3.40 65.266670 150.0
3.25 3.255530 3.40 67.433330 175.555560
3.24 3.250560 3.40 69.60 201.111110
3.23 3.239730 3.3750 69.2750 226.666670
3.22 3.22980 3.350 68.950 225.555560
3.21 3.219860 3.3250 68.6250 224.444440
3.20 3.209030 3.30 68.30 223.333330
3.19 3.19910 3.333330 67.466670 195.555560
3.18 3.188260 3.366670 66.633330 167.777780
3.17 3.178330 3.40 65.80 140.0
3.16 3.167490 3.366670 65.466670 143.333330
3.15 3.157560 3.333330 65.133330 146.666670
3.14 3.146730 3.30 64.80 150.0
3.13 3.136790 3.30 65.133330 158.730160
3.12 3.126860 3.30 65.466670 167.460320
3.11 3.116030 3.30 65.80 176.190480
3.10 3.105190 3.30 64.80 180.423280
3.09 3.095260 3.30 63.80 184.656080
3.08 3.084420 3.30 62.80 188.888890
3.07 3.073590 3.266670 63.40 174.814810
3.06 3.062750 3.233330 64.0 160.740740
3.05 3.051920 3.20 64.60 146.666670
3.04 3.041990 3.133330 65.133330 160.143370
3.03 3.032050 3.066670 65.666670 173.620070
3.02 3.021220 3.0 66.20 187.096770
3.01 3.011290 3.066670 67.133330 186.155910
3.00 3.005870 3.133330 68.066670 185.215050
2.99 3.000450 3.20 69.0 184.274190
2.98 2.989620 3.20 66.10 183.333330
2.97 2.979680 3.20 63.20 191.111110
2.96 2.969750 3.20 60.30 198.888890
2.95 2.958920 3.233330 60.30 206.666670
2.94 2.948080 3.266670 60.30 191.111110
2.93 2.938150 3.30 60.30 175.555560
2.92 2.927310 3.20 62.90 160.0
2.91 2.917380 3.10 65.50 163.333330
2.90 2.906550 3.0 68.10 166.666670
2.89 2.896610 2.90 70.70 170.0
2.88 2.885780 3.0 67.366670 170.0
2.87 2.875850 3.10 64.033330 170.0
2.86 2.865010 3.20 60.70 170.0
2.85 2.854180 3.20 61.466670 157.777780
2.84 2.844240 3.20 62.233330 145.555560
2.83 2.833410 3.20 63.0 133.333330
2.82 2.822570 3.166670 62.966670 154.166670
2.81 2.812640 3.133330 62.933330 175.0
2.80 2.801810 3.10 62.90 195.833330
2.79 2.790970 3.10 61.866670 216.666670
2.78 2.781040 3.10 60.833330 198.888890
2.77 2.775620 3.10 59.80 181.111110
2.76 2.77020 3.133330 59.866670 163.333330
2.75 2.759370 3.166670 59.933330 174.444440
2.74 2.749440 3.20 60.0 185.555560
2.73 2.73860 3.133330 61.766670 196.666670
2.72 2.727770 3.066670 63.533330 183.333330
2.71 2.717830 3.0 65.30 170.0
2.70 2.7070 3.050 62.6750 156.666670
2.69 2.696160 3.10 60.050 158.888890
2.68 2.686230 3.150 57.4250 161.111110
2.67 2.67540 3.20 54.80 163.333330
2.66 2.665460 3.133330 56.866670 171.111110
2.65 2.654630 3.066670 58.933330 178.888890
2.64 2.643790 3.0 61.0 186.666670
2.63 2.632960 3.0 58.966670 181.666670
2.62 2.623020 3.0 56.933330 176.666670
2.61 2.612190 3.0 54.90 171.666670
2.60 2.601350 2.966670 56.833330 166.666670
2.59 2.591420 2.933330 58.766670 155.555560
2.58 2.5860 2.90 60.70 144.444440
2.57 2.580590 2.933330 59.133330 133.333330
2.56 2.569750 2.966670 57.566670 161.111110
2.55 2.558920 3.0 56.0 188.888890
2.54 2.548980 2.966670 58.60 216.666670
2.53 2.538150 2.933330 61.20 193.333330
2.52 2.527310 2.90 63.80 170.0
2.51 2.517380 2.90 61.766670 146.666670
2.50 2.506550 2.90 59.733330 167.777780
2.49 2.495710 2.90 57.70 188.888890
2.48 2.484880 2.9250 57.5250 210.0
2.47 2.474940 2.950 57.350 203.333330
