~VERSION INFORMATION SECTION
VERS. 2.0 : CWLS LAS-VERSION 2.0
WRAP. NO : One line per depth step
~WELL INFORMATION SECTION
# MNEM.UNIT VALUE/NAME DESCRIPTION
#-------- -------------- ---------------------
STRT.Metres 11 : Start
STOP.Metres 0.48 : Stop
STEP.Metres -0.01 : Step
NULL.  -999.25 :NULL VALUE
DATE. 2025-04-11 : DATE
~CURVE INFORMATION SECTION
DEPTH.Metres : 0 Depth
Depth. : 1 Depth
Incline.Deg : 2 Incline
Azimuth.Deg : 3 Azimuth
GR.CPS : 4 GR
~PARAMETER INFORMATION SECTION
~OTHER
#-------------------------------------------------
#Produced By: GeoVista Logger - Version 7.1.107.0
Natural Gamma Sonde - 6447
Verticality Sonde - 6292
#-------------------------------------------------
~ASCII LOG DATA
# ...
2.13 2.139950 2.80 50.450 180.0
2.12 2.131380 2.78750 50.506250 183.333330
2.11 2.12280 2.7750 50.56250 177.777780
2.10 2.114220 2.76250 50.618750 172.222220
2.09 2.105640 2.750 50.6750 166.666670
2.08 2.088490 2.73750 50.731250 161.111110
2.07 2.079910 2.7250 50.78750 155.555560
2.06 2.071330 2.71250 50.843750 150.0
2.05 2.062750 2.70 50.90 149.333330
2.04 2.054180 2.680 52.040 148.666670
2.03 2.045150 2.660 53.180 148.0
2.02 2.036120 2.640 54.320 147.333330
2.01 2.018960 2.620 55.460 146.666670
2.00 2.009930 2.60 56.60 149.333330
1.99 2.00090 2.540 56.20 152.0
1.98 1.992330 2.480 55.80 154.666670
1.97 1.983750 2.420 55.40 157.333330
1.96 1.974720 2.360 55.0 160.0
1.95 1.965690 2.30 54.60 163.333330
1.94 1.948530 2.310 54.550 166.666670
1.93 1.939950 2.320 54.50 170.0
1.92 1.931380 2.330 54.450 173.333330
1.91 1.92280 2.340 54.40 176.666670
1.90 1.914220 2.350 54.350 175.555560
1.89 1.905190 2.360 54.30 174.444440
1.88 1.896160 2.370 54.250 173.333330
1.87 1.879010 2.380 54.20 172.222220
1.86 1.870430 2.390 54.150 171.111110
1.85 1.861850 2.40 54.10 170.0
1.84 1.853270 2.383330 54.80 166.909090
1.83 1.84470 2.366670 55.50 163.818180
1.82 1.835670 2.350 56.20 160.727270
1.81 1.826640 2.333330 56.90 157.636360
1.80 1.809480 2.316670 57.60 154.545450
1.79 1.80090 2.30 58.30 156.267940
1.78 1.792330 2.30 59.060 157.990430
1.77 1.78330 2.30 59.820 159.712920
1.76 1.774270 2.30 60.580 161.435410
1.75 1.765690 2.30 61.340 163.157890
1.74 1.757110 2.30 62.10 160.526320
1.73 1.739950 2.30 62.50 157.894740
1.72 1.730930 2.30 62.90 155.263160
1.71 1.72190 2.30 63.30 152.631580
1.70 1.713320 2.30 63.70 150.0
1.69 1.704740 2.30 64.10 147.777780
1.68 1.696160 2.30 62.80 145.555560
1.67 1.687580 2.30 61.50 143.333330
1.66 1.669530 2.30 60.20 141.111110
1.65 1.660950 2.30 58.90 138.888890
1.64 1.652370 2.30 57.60 136.666670
1.63 1.643790 2.30 58.316670 143.0
1.62 1.635210 2.30 59.033330 149.333330
1.61 1.618060 2.30 59.750 155.666670
1.60 1.609480 2.30 60.466670 162.0
1.59 1.60090 2.30 61.183330 168.333330
1.58 1.592330 2.30 61.90 174.666670
1.57 1.583750 2.260 61.440 181.0
1.56 1.575170 2.220 60.980 187.333330
1.55 1.566590 2.180 60.520 193.666670
1.54 1.549440 2.140 60.060 200.0
1.53 1.540860 2.10 59.60 202.0
1.52 1.532280 2.140 59.940 204.0
1.51 1.52370 2.180 60.280 206.0
1.50 1.515120 2.220 60.620 208.0
1.49 1.497970 2.260 60.960 210.0
1.48 1.489840 2.30 61.30 200.0
1.47 1.481720 2.280 61.940 190.0
1.46 1.466370 2.260 62.580 180.0
1.45 1.451920 2.240 63.220 170.0
1.44 1.446050 2.220 63.860 160.0
1.43 1.440180 2.20 64.50 157.50
1.42 1.429350 2.150 63.833330 155.0
1.41 1.41490 2.10 63.166670 152.50
1.40 1.401350 2.050 62.50 150.0
1.39 1.393230 2.0 61.833330 147.50
1.38 1.3860 1.950 61.166670 145.0
1.37 1.375620 1.90 60.50 146.666670
1.36 1.365240 1.920 60.460 148.333330
1.35 -999.25 1.940 60.420 150.0
1.34 -999.25 1.960 60.380 151.666670
1.33 -999.25 1.980 60.340 153.333330
1.32 -999.25 2.0 60.30 149.333330
1.31 -999.25 1.980 58.320 145.333330
1.30 -999.25 1.960 56.340 141.333330
1.29 -999.25 1.940 54.360 137.333330
1.28 -999.25 1.920 52.380 133.333330
1.27 -999.25 1.90 50.40 128.666670
1.26 -999.25 1.860 51.740 124.0
1.25 -999.25 1.820 53.080 119.333330
1.24 -999.25 1.780 54.420 114.666670
1.23 -999.25 1.740 55.760 110.0
1.22 -999.25 1.70 57.10 116.0
1.21 -999.25 1.680 54.660 122.0
1.20 -999.25 1.660 52.220 128.0
1.19 -999.25 1.640 49.780 134.0
1.18 -999.25 1.620 47.340 140.0
1.17 -999.25 1.60 44.90 130.0
1.16 -999.25 1.6750 46.5250 120.0
1.15 -999.25 1.750 48.150 110.0
1.14 -999.25 1.8250 49.7750 100.0
1.13 -999.25 1.90 51.40 90.0
1.12 -999.25 1.750 48.950 98.333330
1.11 -999.25 1.60 46.50 106.666670
1.10 -999.25 1.766670 44.933330 115.0
1.09 -999.25 1.933330 43.366670 123.333330
1.08 -999.25 2.10 41.80 131.666670
1.07 -999.25 1.50 43.50 140.0
1.06 -999.25 1.50 52.40 150.666670
1.05 -999.25 -999.25 -999.25 161.333330
1.04 -999.25 -999.25 -999.25 172.0
1.03 -999.25 -999.25 -999.25 182.666670
1.02 -999.25 -999.25 -999.25 193.333330
1.01 -999.25 -999.25 -999.25 188.0
1.00 -999.25 -999.25 -999.25 182.666670
0.99 -999.25 -999.25 -999.25 177.333330
0.98 -999.25 -999.25 -999.25 172.0
0.97 -999.25 -999.25 -999.25 166.666670
0.96 -999.25 -999.25 -999.25 166.0
0.95 -999.25 -999.25 -999.25 165.333330
0.94 -999.25 -999.25 -999.25 164.666670
0.93 -999.25 -999.25 -999.25 164.0
0.92 -999.25 -999.25 -999.25 163.333330
0.91 -999.25 -999.25 -999.25 162.666670
0.90 -999.25 -999.25 -999.25 162.0
0.89 -999.25 -999.25 -999.25 161.333330
0.88 -999.25 -999.25 -999.25 160.666670
0.87 -999.25 -999.25 -999.25 160.0
0.86 -999.25 -999.25 -999.25 158.333330
0.85 -999.25 -999.25 -999.25 156.666670
0.84 -999.25 -999.25 -999.25 155.0
0.83 -999.25 -999.25 -999.25 153.333330
0.82 -999.25 -999.25 -999.25 151.666670
0.81 -999.25 -999.25 -999.25 150.0
0.80 -999.25 -999.25 -999.25 150.666670
0.79 -999.25 -999.25 -999.25 151.333330
0.78 -999.25 -999.25 -999.25 152.0
0.77 -999.25 -999.25 -999.25 152.666670
0.76 -999.25 -999.25 -999.25 153.333330
0.75 -999.25 -999.25 -999.25 160.0
0.74 -999.25 -999.25 -999.25 166.666670
0.73 -999.25 -999.25 -999.25 173.333330
0.72 -999.25 -999.25 -999.25 180.0
0.71 -999.25 -999.25 -999.25 186.666670
0.70 -999.25 -999.25 -999.25 172.666670
0.69 -999.25 -999.25 -999.25 158.666670
0.68 -999.25 -999.25 -999.25 144.666670
0.67 -999.25 -999.25 -999.25 130.666670
0.66 -999.25 -999.25 -999.25 116.666670
0.65 -999.25 -999.25 -999.25 128.666670
0.64 -999.25 -999.25 -999.25 140.666670
0.63 -999.25 -999.25 -999.25 152.666670
0.62 -999.25 -999.25 -999.25 164.666670
0.61 -999.25 -999.25 -999.25 176.666670
0.60 -999.25 -999.25 -999.25 178.333330
0.59 -999.25 -999.25 -999.25 180.0
0.58 -999.25 -999.25 -999.25 181.666670
0.57 -999.25 -999.25 -999.25 183.333330
0.56 -999.25 -999.25 -999.25 180.555560
0.55 -999.25 -999.25 -999.25 177.777780
0.54 -999.25 -999.25 -999.25 175.0
0.53 -999.25 -999.25 -999.25 160.0
0.52 -999.25 -999.25 -999.25 145.0
0.51 -999.25 -999.25 -999.25 130.0
0.50 -999.25 -999.25 -999.25 150.0
0.49 -999.25 -999.25 -999.25 170.0
0.48 -999.25 -999.25 -999.25 170.0
