~VERSION INFORMATION SECTION
VERS. 2.0 : CWLS LAS-VERSION 2.0
WRAP. NO : One line per depth step
~WELL INFORMATION SECTION
# MNEM.UNIT VALUE/NAME DESCRIPTION
#-------- -------------- ---------------------
STRT.Metres 11 : Start
STOP.Metres 0.48 : Stop
STEP.Metres -0.01 : Step
NULL.  -999.25 :NULL VALUE
DATE. 2025-09-11 : DATE
~CURVE INFORMATION SECTION
DEPTH.Metres : 0 Depth
Depth. : 1 Depth
Incline.Deg : 2 Incline
Azimuth.Deg : 3 Azimuth
GR.CPS : 4 GR
~PARAMETER INFORMATION SECTION
~OTHER
#-------------------------------------------------
#Produced By: GeoVista Logger - Version 7.1.107.0
Natural Gamma Sonde - 6447
Verticality Sonde - 6292
#-------------------------------------------------
~ASCII LOG DATA
# ...
7.11 7.149890 2.084620 71.984620 143.589740
7.10 7.13950 2.0 70.80 141.025640
7.09 7.128220 2.069230 71.176920 138.461540
7.08 7.116930 2.138460 71.553850 135.897440
7.07 7.105640 2.207690 71.930770 133.333330
7.06 7.094360 2.276920 72.307690 138.974360
7.05 7.083970 2.346150 72.684620 144.615380
7.04 7.073590 2.415380 73.061540 150.256410
7.03 7.063210 2.484620 73.438460 155.897440
7.02 7.052820 2.553850 73.815380 161.538460
7.01 7.04470 2.623080 74.192310 167.179490
7.00 7.036570 2.692310 74.569230 172.820510
6.99 7.028440 2.761540 74.946150 178.461540
6.98 7.020320 2.830770 75.323080 184.102560
6.97 7.012190 2.90 75.70 189.743590
6.96 7.001130 2.953850 76.576920 195.384620
6.95 6.990070 3.007690 77.453850 201.025640
6.94 6.979010 3.061540 78.330770 206.666670
6.93 6.967950 3.115380 79.207690 203.888890
6.92 6.957340 3.169230 80.084620 201.111110
6.91 6.946730 3.223080 80.961540 198.333330
6.90 6.936120 3.276920 81.838460 195.555560
6.89 6.925510 3.330770 82.715380 192.777780
6.88 6.915350 3.384620 83.592310 190.0
6.87 6.905190 3.438460 84.469230 187.222220
6.86 6.895030 3.492310 85.346150 184.444440
6.85 6.884880 3.546150 86.223080 181.666670
6.84 6.876030 3.60 87.10 178.888890
6.83 6.867180 3.566670 86.350 176.111110
6.82 6.858330 3.533330 85.60 173.333330
6.81 6.849480 3.50 84.850 171.794870
6.80 6.840630 3.466670 84.10 170.256410
6.79 6.827090 3.433330 83.350 168.717950
6.78 6.813540 3.40 82.60 167.179490
6.77 6.80 3.366670 81.850 165.641030
6.76 6.792050 3.333330 81.10 164.102560
6.75 6.784110 3.30 80.350 162.56410
6.74 6.776160 3.266670 79.60 161.025640
6.73 6.768220 3.233330 78.850 159.487180
6.72 6.760270 3.20 78.10 157.948720
6.71 6.749440 3.230770 78.776920 156.410260
6.70 6.73860 3.261540 79.453850 154.871790
6.69 6.727770 3.292310 80.130770 153.333330
6.68 6.716930 3.323080 80.807690 155.128210
6.67 6.706550 3.353850 81.484620 156.923080
6.66 6.696160 3.384620 82.161540 158.717950
6.65 6.685780 3.415380 82.838460 160.512820
6.64 6.67540 3.446150 83.515380 162.307690
6.63 6.665240 3.476920 84.192310 164.102560
6.62 6.655080 3.507690 84.869230 165.897440
6.61 6.644920 3.538460 85.546150 167.692310
6.60 6.634760 3.569230 86.223080 169.487180
6.59 6.62370 3.60 86.90 171.282050
6.58 6.612640 3.566670 85.90 173.076920
6.57 6.601580 3.533330 84.90 174.871790
6.56 6.590520 3.50 83.90 176.666670
6.55 6.582750 3.466670 82.90 173.846150
6.54 6.574990 3.433330 81.90 171.025640
6.53 6.567220 3.40 80.90 168.205130
6.52 6.559460 3.366670 79.90 165.384620
6.51 6.551690 3.333330 78.90 162.56410
6.50 6.540860 3.30 77.90 159.743590
6.49 6.530020 3.266670 76.90 156.923080
6.48 6.519190 3.233330 75.90 154.102560
6.47 6.508350 3.20 74.90 151.282050
6.46 6.497740 3.176920 74.50 148.461540
6.45 6.487130 3.153850 74.10 145.641030
6.44 6.476520 3.130770 73.70 142.820510
6.43 6.465910 3.107690 73.30 140.0
6.42 6.45530 3.084620 72.90 140.555560
6.41 6.44470 3.061540 72.50 141.111110
6.40 6.434090 3.038460 72.10 141.666670
6.39 6.423480 3.015380 71.70 142.222220
6.38 6.415170 2.992310 71.30 142.777780
6.37 6.406860 2.969230 70.90 143.333330
6.36 6.398560 2.946150 70.50 143.888890
6.35 6.390250 2.923080 70.10 144.444440
6.34 6.381940 2.90 69.70 145.0
6.33 6.371110 2.947060 70.623530 145.555560
6.32 6.360270 2.994120 71.547060 146.111110
6.31 6.349440 3.041180 72.470590 146.666670
6.30 6.33860 3.088240 73.394120 150.512820
6.29 6.327990 3.135290 74.317650 154.358970
6.28 6.317380 3.182350 75.241180 158.205130
6.27 6.306770 3.229410 76.164710 162.051280
6.26 6.296160 3.276470 77.088240 165.897440
6.25 6.285550 3.323530 78.011760 169.743590
6.24 6.274940 3.370590 78.935290 173.589740
6.23 6.264330 3.417650 79.858820 177.43590
6.22 6.253720 3.464710 80.782350 181.282050
6.21 6.245240 3.511760 81.705880 185.128210
6.20 6.236750 3.558820 82.629410 188.974360
6.19 6.228260 3.605880 83.552940 192.820510
6.18 6.219770 3.652940 84.476470 196.666670
6.17 6.211290 3.70 85.40 195.384620
6.16 6.200680 3.684620 84.653850 194.102560
6.15 6.190070 3.669230 83.907690 192.820510
6.14 6.179460 3.653850 83.161540 191.538460
6.13 6.168850 3.638460 82.415380 190.256410
6.12 6.158240 3.623080 81.669230 188.974360
6.11 6.147630 3.607690 80.923080 187.692310
6.10 6.137020 3.592310 80.176920 186.410260
6.09 6.126410 3.576920 79.430770 185.128210
6.08 6.116030 3.561540 78.684620 183.846150
6.07 6.105640 3.546150 77.938460 182.56410
6.06 6.095260 3.530770 77.192310 181.282050
6.05 6.084880 3.515380 76.446150 180.0
6.04 6.076390 3.50 75.70 182.741940
6.03 6.06790 3.550 76.1750 185.483870
6.02 6.059410 3.60 76.650 188.225810
6.01 6.050930 3.650 77.1250 190.967740
6.00 6.042440 3.70 77.60 193.709680
5.99 6.031830 3.750 78.0750 196.451610
5.98 6.021220 3.80 78.550 199.193550
5.97 6.010610 3.850 79.0250 201.935480
5.96 6.0 3.90 79.50 204.677420
5.95 5.989390 3.950 79.9750 207.419350
5.94 5.978780 4.0 80.450 210.161290
5.93 5.968170 4.050 80.9250 212.903230
5.92 5.957560 4.10 81.40 208.833750
5.91 5.946950 4.061540 81.446150 204.764270
5.90 5.936340 4.023080 81.492310 200.694790
5.89 5.925730 3.984620 81.538460 196.625310
5.88 5.915120 3.946150 81.584620 192.555830
5.87 5.904740 3.907690 81.630770 188.486350
5.86 5.894360 3.869230 81.676920 184.416870
5.85 5.883970 3.830770 81.723080 180.347390
5.84 5.873590 3.792310 81.769230 176.277920
5.83 5.86510 3.753850 81.815380 172.208440
5.82 5.856610 3.715380 81.861540 168.138960
5.81 5.848130 3.676920 81.907690 164.069480
5.80 5.839640 3.638460 81.953850 160.0
5.79 5.831150 3.60 82.0 159.607840
5.78 5.820320 3.6160 81.5160 159.215690
5.77 5.809480 3.6320 81.0320 158.823530
5.76 5.798650 3.6480 80.5480 158.431370
5.75 5.787810 3.6640 80.0640 158.039220
5.74 5.777430 3.680 79.580 157.647060
5.73 5.767040 3.6960 79.0960 157.25490
5.72 5.756660 3.7120 78.6120 156.862750
5.71 5.746280 3.7280 78.1280 156.470590
5.70 5.735670 3.7440 77.6440 156.078430
5.69 5.725060 3.760 77.160 155.686270
5.68 5.714450 3.7760 76.6760 155.294120
5.67 5.703840 3.7920 76.1920 154.901960
5.66 5.693450 3.8080 75.7080 154.50980
5.65 5.683070 3.8240 75.2240 154.117650
5.64 5.672690 3.840 74.740 153.725490
5.63 5.66230 3.8560 74.2560 153.333330
5.62 5.6540 3.8720 73.7720 152.777780
5.61 5.645690 3.8880 73.2880 152.222220
5.60 5.637380 3.9040 72.8040 151.666670
5.59 5.629070 3.920 72.320 151.111110
5.58 5.620770 3.9360 71.8360 150.555560
5.57 5.610380 3.9520 71.3520 150.0
5.56 5.60 3.9680 70.8680 149.444440
5.55 5.589620 3.9840 70.3840 148.888890
5.54 5.579230 4.0 69.90 148.333330
5.53 5.568620 3.992310 70.592310 147.777780
5.52 5.558010 3.984620 71.284620 147.222220
5.51 5.54740 3.976920 71.976920 146.666670
5.50 5.536790 3.969230 72.669230 147.179490
5.49 5.526190 3.961540 73.361540 147.692310
5.48 5.515580 3.953850 74.053850 148.205130
5.47 5.504970 3.946150 74.746150 148.717950
5.46 5.494360 3.938460 75.438460 149.230770
5.45 5.485870 3.930770 76.130770 149.743590
5.44 5.477380 3.923080 76.823080 150.256410
5.43 5.468890 3.915380 77.515380 150.769230
5.42 5.460410 3.907690 78.207690 151.282050
5.41 5.451920 3.90 78.90 151.794870
5.40 5.441080 3.892310 78.561540 152.307690
5.39 5.430250 3.884620 78.223080 152.820510
5.38 5.419410 3.876920 77.884620 153.333330
5.37 5.408580 3.869230 77.546150 148.486350
5.36 5.397970 3.861540 77.207690 143.639370
5.35 5.387360 3.853850 76.869230 138.792390
5.34 5.376750 3.846150 76.530770 133.945410
5.33 5.366140 3.838460 76.192310 129.098430
5.32 5.355530 3.830770 75.853850 124.251450
5.31 5.344920 3.823080 75.515380 119.404470
5.30 5.334310 3.815380 75.176920 114.557490
5.29 5.32370 3.807690 74.838460 109.71050
5.28 5.315210 3.80 74.50 104.863520
5.27 5.306730 3.80 74.40 100.016540
5.26 5.298240 3.80 74.30 95.169560
5.25 5.289750 3.80 74.20 90.322580
5.24 5.281260 3.80 74.10 97.240140
5.23 5.270650 3.80 74.0 104.157710
5.22 5.260050 3.80 73.90 111.075270
5.21 5.249440 3.80 73.80 117.992830
5.20 5.238830 3.80 73.70 124.910390
5.19 5.228440 3.80 73.60 131.827960
5.18 5.218060 3.80 73.50 138.745520
5.17 5.207670 3.80 73.40 145.663080
5.16 5.197290 3.80 73.30 152.580650
