~VERSION INFORMATION SECTION
VERS. 2.0 : CWLS LAS-VERSION 2.0
WRAP. NO : One line per depth step
~WELL INFORMATION SECTION
# MNEM.UNIT VALUE/NAME DESCRIPTION
#-------- -------------- ---------------------
STRT.Metres 11 : Start
STOP.Metres -0.95 : Stop
STEP.Metres -0.01 : Step
NULL.  -999.25 :NULL VALUE
DATE. 2025-07-11 : DATE
~CURVE INFORMATION SECTION
DEPTH.Metres : 0 Depth
Depth. : 1 Depth
Incline.Deg : 2 Incline
Azimuth.Deg : 3 Azimuth
GR.CPS : 4 GR
~PARAMETER INFORMATION SECTION
~OTHER
#-------------------------------------------------
#Produced By: GeoVista Logger - Version 7.1.107.0
Natural Gamma Sonde - 6447
Verticality Sonde - 6292
#-------------------------------------------------
~ASCII LOG DATA
# ...
4.54 -999.25 3.9250 72.7250 91.975960
4.53 -999.25 3.91250 73.96250 92.133720
4.52 -999.25 3.90 75.20 92.291480
4.51 -999.25 3.885710 74.814290 92.449250
4.50 -999.25 3.871430 74.428570 92.607010
4.49 -999.25 3.857140 74.042860 92.764770
4.48 -999.25 3.842860 73.657140 92.922540
4.47 -999.25 3.828570 73.271430 93.08030
4.46 -999.25 3.814290 72.885710 93.238060
4.45 -999.25 3.80 72.50 93.395830
4.44 -999.25 3.80 71.4250 93.553590
4.43 -999.25 3.80 70.350 93.711350
4.42 -999.25 3.80 69.2750 93.869110
4.41 -999.25 3.80 68.20 94.026880
4.40 -999.25 3.80 67.1250 94.184640
4.39 -999.25 3.80 66.050 94.34240
4.38 -999.25 3.80 64.9750 94.500170
4.37 -999.25 3.80 63.90 94.657930
4.36 -999.25 3.78750 64.881250 94.815690
4.35 -999.25 3.7750 65.86250 94.973460
4.34 -999.25 3.76250 66.843750 95.131220
4.33 -999.25 3.750 67.8250 95.288980
4.32 -999.25 3.73750 68.806250 95.446750
4.31 -999.25 3.7250 69.78750 95.604510
4.30 -999.25 3.71250 70.768750 95.762270
4.29 -999.25 3.70 71.750 95.920040
4.28 -999.25 3.68750 72.731250 96.07780
4.27 -999.25 3.6750 73.71250 96.235560
4.26 -999.25 3.66250 74.693750 96.393330
4.25 -999.25 3.650 75.6750 96.551090
4.24 -999.25 3.63750 76.656250 96.708850
4.23 -999.25 3.6250 77.63750 96.866620
4.22 -999.25 3.61250 78.618750 97.024380
4.21 -999.25 3.60 79.60 97.182140
4.20 -999.25 3.628570 78.828570 97.339910
4.19 -999.25 3.657140 78.057140 97.497670
4.18 -999.25 3.685710 77.285710 97.655430
4.17 -999.25 3.714290 76.514290 97.81320
4.16 -999.25 3.742860 75.742860 97.970960
4.15 -999.25 3.771430 74.971430 98.128720
4.14 -999.25 3.80 74.20 98.286480
4.13 -999.25 3.80 74.58750 98.444250
4.12 -999.25 3.80 74.9750 98.602010
4.11 -999.25 3.80 75.36250 98.759770
4.10 -999.25 3.80 75.750 98.917540
4.09 -999.25 3.80 76.13750 99.07530
4.08 -999.25 3.80 76.5250 99.233060
4.07 -999.25 3.80 76.91250 99.390830
4.06 -999.25 3.80 77.30 99.548590
4.05 -999.25 3.750 76.350 99.706350
4.04 -999.25 3.70 75.40 99.864120
4.03 -999.25 3.650 74.450 100.021880
4.02 -999.25 3.60 73.50 100.179640
4.01 -999.25 3.550 72.550 100.337410
4.00 -999.25 3.50 71.60 100.495170
3.99 -999.25 3.450 70.650 100.652930
3.98 -999.25 3.40 69.70 100.81070
3.97 -999.25 3.414290 69.614290 100.968460
3.96 -999.25 3.428570 69.528570 101.126220
3.95 -999.25 3.442860 69.442860 101.283990
3.94 -999.25 3.457140 69.357140 101.441750
3.93 -999.25 3.471430 69.271430 101.599510
3.92 -999.25 3.485710 69.185710 101.757280
3.91 -999.25 3.50 69.10 101.915040
3.90 -999.25 3.50 69.0 102.07280
3.89 -999.25 3.50 68.90 102.230570
3.88 -999.25 3.50 68.80 102.388330
3.87 -999.25 3.50 68.70 102.546090
3.86 -999.25 3.50 68.60 102.703860
3.85 -999.25 3.50 68.50 102.861620
3.84 -999.25 3.50 68.40 103.019380
3.83 -999.25 3.50 68.30 103.177140
3.82 -999.25 3.51250 68.73750 103.334910
3.81 -999.25 3.5250 69.1750 103.492670
3.80 -999.25 3.53750 69.61250 103.650430
3.79 -999.25 3.550 70.050 103.80820
3.78 -999.25 3.56250 70.48750 103.965960
3.77 -999.25 3.5750 70.9250 104.123720
3.76 -999.25 3.58750 71.36250 104.281490
3.75 -999.25 3.60 71.80 104.439250
3.74 -999.25 3.6250 71.71250 104.597010
3.73 -999.25 3.650 71.6250 104.754780
3.72 -999.25 3.6750 71.53750 104.912540
3.71 -999.25 3.70 71.450 105.07030
3.70 -999.25 3.7250 71.36250 105.228070
3.69 -999.25 3.750 71.2750 105.385830
3.68 -999.25 3.7750 71.18750 105.543590
3.67 -999.25 3.80 71.10 105.701360
3.66 -999.25 3.78750 70.3750 105.859120
3.65 -999.25 3.7750 69.650 106.016880
3.64 -999.25 3.76250 68.9250 106.174650
3.63 -999.25 3.750 68.20 106.332410
3.62 -999.25 3.73750 67.4750 106.490170
3.61 -999.25 3.7250 66.750 106.647940
3.60 -999.25 3.71250 66.0250 106.80570
3.59 -999.25 3.70 65.30 106.963460
3.58 -999.25 3.68750 65.6250 107.121230
3.57 -999.25 3.6750 65.950 107.278990
3.56 -999.25 3.66250 66.2750 107.436750
3.55 -999.25 3.650 66.60 107.594510
3.54 -999.25 3.63750 66.9250 107.752280
3.53 -999.25 3.6250 67.250 107.910040
3.52 -999.25 3.61250 67.5750 108.06780
3.51 -999.25 3.60 67.90 108.225570
3.50 -999.25 3.58750 68.28750 108.383330
3.49 -999.25 3.5750 68.6750 108.541090
3.48 -999.25 3.56250 69.06250 108.698860
3.47 -999.25 3.550 69.450 108.856620
3.46 -999.25 3.53750 69.83750 109.014380
3.45 -999.25 3.5250 70.2250 109.172150
3.44 -999.25 3.51250 70.61250 109.329910
3.43 -999.25 3.50 71.0 109.487670
3.42 -999.25 3.4750 70.23750 109.645440
3.41 -999.25 3.450 69.4750 109.80320
3.40 -999.25 3.4250 68.71250 109.960960
3.39 -999.25 3.40 67.950 110.118730
3.38 -999.25 3.3750 67.18750 110.276490
3.37 -999.25 3.350 66.4250 110.434250
3.36 -999.25 3.3250 65.66250 110.592020
3.35 -999.25 3.30 64.90 110.749780
3.34 -999.25 3.342860 65.228570 110.907540
3.33 -999.25 3.385710 65.557140 111.065310
3.32 -999.25 3.428570 65.885710 111.223070
3.31 -999.25 3.471430 66.214290 111.380830
3.30 -999.25 3.514290 66.542860 111.53860
3.29 -999.25 3.557140 66.871430 111.696360
3.28 -999.25 3.60 67.20 111.854120
3.27 -999.25 3.56250 67.38750 112.011880
3.26 -999.25 3.5250 67.5750 112.169650
3.25 -999.25 3.48750 67.76250 112.327410
3.24 -999.25 3.450 67.950 112.485170
3.23 -999.25 3.41250 68.13750 112.642940
3.22 -999.25 3.3750 68.3250 112.80070
3.21 -999.25 3.33750 68.51250 112.958460
3.20 -999.25 3.30 68.70 113.116230
3.19 -999.25 3.30 68.8250 113.273990
3.18 -999.25 3.30 68.950 113.431750
3.17 -999.25 3.30 69.0750 113.589520
3.16 -999.25 3.30 69.20 113.747280
3.15 -999.25 3.30 69.3250 113.905040
3.14 -999.25 3.30 69.450 114.062810
3.13 -999.25 3.30 69.5750 114.220570
3.12 -999.25 3.30 69.70 114.378330
3.11 -999.25 3.28750 68.3750 114.53610
3.10 -999.25 3.2750 67.050 114.693860
3.09 -999.25 3.26250 65.7250 114.851620
3.08 -999.25 3.250 64.40 115.009390
3.07 -999.25 3.23750 63.0750 115.167150
3.06 -999.25 3.2250 61.750 115.324910
3.05 -999.25 3.21250 60.4250 115.482680
3.04 -999.25 3.20 59.10 115.640440
3.03 -999.25 3.1750 60.70 115.79820
3.02 -999.25 3.150 62.30 115.955970
3.01 -999.25 3.1250 63.90 116.113730
3.00 -999.25 3.10 65.50 116.271490
2.99 -999.25 3.0750 67.10 116.429260
2.98 -999.25 3.050 68.70 116.587020
2.97 -999.25 3.0250 70.30 116.744780
2.96 -999.25 3.0 71.90 116.902540
2.95 -999.25 3.028570 69.328570 117.060310
2.94 -999.25 3.057140 66.757140 117.218070
2.93 -999.25 3.085710 64.185710 117.375830
2.92 -999.25 3.114290 61.614290 117.53360
2.91 -999.25 3.142860 59.042860 117.691360
2.90 -999.25 3.171430 56.471430 117.849120
2.89 -999.25 3.20 53.90 118.006890
2.88 -999.25 3.18750 56.18750 118.164650
2.87 -999.25 3.1750 58.4750 118.322410
2.86 -999.25 3.16250 60.76250 118.480180
2.85 -999.25 3.150 63.050 118.637940
2.84 -999.25 3.13750 65.33750 118.79570
2.83 -999.25 3.1250 67.6250 118.953470
2.82 -999.25 3.11250 69.91250 119.111230
2.81 -999.25 3.10 72.20 119.268990
2.80 -999.25 3.08750 70.550 119.426760
2.79 -999.25 3.0750 68.90 119.584520
2.78 -999.25 3.06250 67.250 119.742280
2.77 -999.25 3.050 65.60 119.900050
2.76 -999.25 3.03750 63.950 120.057810
2.75 -999.25 3.0250 62.30 120.215570
2.74 -999.25 3.01250 60.650 120.373340
2.73 -999.25 3.0 59.0 120.53110
2.72 -999.25 2.9750 60.93750 120.688860
2.71 -999.25 2.950 62.8750 120.846630
2.70 -999.25 2.9250 64.81250 121.004390
2.69 -999.25 2.90 66.750 121.162150
2.68 -999.25 2.8750 68.68750 121.319910
2.67 -999.25 2.850 70.6250 121.477680
2.66 -999.25 2.8250 72.56250 121.635440
2.65 -999.25 2.80 74.50 121.79320
2.64 -999.25 2.80 73.4250 121.950970
2.63 -999.25 2.80 72.350 122.108730
2.62 -999.25 2.80 71.2750 122.266490
2.61 -999.25 2.80 70.20 122.424260
2.60 -999.25 2.80 69.1250 122.582020
2.59 -999.25 2.80 68.050 122.739780
2.58 -999.25 2.80 66.9750 122.897550
2.57 -999.25 2.80 65.90 123.055310
2.56 -999.25 2.81250 65.66250 123.213070
2.55 -999.25 2.8250 65.4250 123.370840
2.54 -999.25 2.83750 65.18750 123.52860
2.53 -999.25 2.850 64.950 123.686360
2.52 -999.25 2.86250 64.71250 123.844130
2.51 -999.25 2.8750 64.4750 124.001890
2.50 -999.25 2.88750 64.23750 124.159650
2.49 -999.25 2.90 64.0 124.317420
2.48 -999.25 2.8250 62.4250 124.475180
2.47 -999.25 2.750 60.850 124.632940
2.46 -999.25 2.6750 59.2750 124.790710
2.45 -999.25 2.60 57.70 124.948470
