~VERSION INFORMATION SECTION
VERS. 2.0 : CWLS LAS-VERSION 2.0
WRAP. NO : One line per depth step
~WELL INFORMATION SECTION
# MNEM.UNIT VALUE/NAME DESCRIPTION
#-------- -------------- ---------------------
STRT.Metres 11 : Start
STOP.Metres -0.95 : Stop
STEP.Metres -0.01 : Step
NULL.  -999.25 :NULL VALUE
DATE. 2025-07-11 : DATE
~CURVE INFORMATION SECTION
DEPTH.Metres : 0 Depth
Depth. : 1 Depth
Incline.Deg : 2 Incline
Azimuth.Deg : 3 Azimuth
GR.CPS : 4 GR
~PARAMETER INFORMATION SECTION
~OTHER
#-------------------------------------------------
#Produced By: GeoVista Logger - Version 7.1.107.0
Natural Gamma Sonde - 6447
Verticality Sonde - 6292
#-------------------------------------------------
~ASCII LOG DATA
11.00 -999.25 -999.25 -999.25 -999.25
10.99 -999.25 -999.25 -999.25 -999.25
10.98 -999.25 -999.25 -999.25 -999.25
10.97 -999.25 -999.25 -999.25 -999.25
10.96 -999.25 -999.25 -999.25 -999.25
10.95 -999.25 -999.25 -999.25 -999.25
10.94 -999.25 4.80 85.590480 -999.25
10.93 -999.25 4.80 85.593650 -999.25
10.92 -999.25 4.80 85.596830 -999.25
10.91 -999.25 4.80 85.60 -999.25
10.90 -999.25 4.80 85.366670 -999.25
10.89 -999.25 4.80 85.133330 -999.25
10.88 -999.25 4.80 84.90 -999.25
10.87 -999.25 4.80 84.90 -999.25
10.86 -999.25 4.80 84.90 -999.25
10.85 -999.25 4.80 84.90 -999.25
10.84 -999.25 4.80 84.90 -999.25
10.83 -999.25 4.80 85.040 -999.25
10.82 -999.25 4.80 85.180 -999.25
10.81 -999.25 4.80 85.320 -999.25
10.80 -999.25 4.80 85.460 -999.25
10.79 -999.25 4.80 85.60 -999.25
10.78 -999.25 4.80 85.560 -999.25
10.77 -999.25 4.80 85.520 -999.25
10.76 -999.25 4.80 85.480 -999.25
10.75 -999.25 4.80 85.440 -999.25
10.74 -999.25 4.80 85.40 -999.25
10.73 -999.25 4.80 85.566670 -999.25
10.72 -999.25 4.80 85.733330 -999.25
10.71 -999.25 4.80 85.90 -999.25
10.70 -999.25 4.80 86.066670 -999.25
10.69 -999.25 4.80 86.233330 -999.25
10.68 -999.25 4.80 86.40 -999.25
10.67 -999.25 4.750 86.50 -999.25
10.66 -999.25 4.70 86.60 -999.25
10.65 -999.25 4.650 86.70 -999.25
10.64 -999.25 4.60 86.80 -999.25
10.63 -999.25 4.550 86.90 -999.25
10.62 -999.25 4.50 87.0 -999.25
10.61 -999.25 4.514290 86.928570 -999.25
10.60 -999.25 4.528570 86.857140 -999.25
10.59 -999.25 4.542860 86.785710 -999.25
10.58 -999.25 4.557140 86.714290 -999.25
10.57 -999.25 4.571430 86.642860 -999.25
10.56 -999.25 4.585710 86.571430 -999.25
10.55 -999.25 4.60 86.50 -999.25
10.54 -999.25 4.614290 86.428570 -999.25
10.53 -999.25 4.628570 86.357140 -999.25
10.52 -999.25 4.642860 86.285710 -999.25
10.51 -999.25 4.657140 86.214290 -999.25
10.50 -999.25 4.671430 86.142860 -999.25
10.49 -999.25 4.685710 86.071430 -999.25
10.48 -999.25 4.70 86.0 -999.25
10.47 -999.25 4.657140 85.842860 -999.25
10.46 -999.25 4.614290 85.685710 -999.25
10.45 -999.25 4.571430 85.528570 -999.25
10.44 -999.25 4.528570 85.371430 -999.25
10.43 -999.25 4.485710 85.214290 -999.25
10.42 -999.25 4.442860 85.057140 -999.25
10.41 -999.25 4.40 84.90 -999.25
10.40 -999.25 4.41250 85.66250 -999.25
10.39 -999.25 4.4250 86.4250 -999.25
10.38 -999.25 4.43750 87.18750 -999.25
10.37 -999.25 4.450 87.950 -999.25
10.36 -999.25 4.46250 88.71250 0.157760
10.35 -999.25 4.4750 89.4750 0.315530
10.34 -999.25 4.48750 90.23750 0.473290
10.33 -999.25 4.50 91.0 0.631050
10.32 -999.25 4.50 89.485710 0.788820
10.31 -999.25 4.50 87.971430 0.946580
10.30 -999.25 4.50 86.457140 1.104340
10.29 -999.25 4.50 84.942860 1.262110
10.28 -999.25 4.50 83.428570 1.419870
10.27 -999.25 4.50 81.914290 1.577630
10.26 -999.25 4.50 80.40 1.73540
10.25 -999.25 4.4750 81.80 1.893160
10.24 -999.25 4.450 83.20 2.050920
10.23 -999.25 4.4250 84.60 2.208690
10.22 -999.25 4.40 86.0 2.366450
10.21 -999.25 4.3750 87.40 2.524210
10.20 -999.25 4.350 88.80 2.681970
10.19 -999.25 4.3250 90.20 2.839740
10.18 -999.25 4.30 91.60 2.99750
10.17 -999.25 4.30 90.36250 3.155260
10.16 -999.25 4.30 89.1250 3.313030
10.15 -999.25 4.30 87.88750 3.470790
10.14 -999.25 4.30 86.650 3.628550
10.13 -999.25 4.30 85.41250 3.786320
10.12 -999.25 4.30 84.1750 3.944080
10.11 -999.25 4.30 82.93750 4.101840
10.10 -999.25 4.30 81.70 4.259610
10.09 -999.25 4.33750 81.9750 4.417370
10.08 -999.25 4.3750 82.250 4.575130
10.07 -999.25 4.41250 82.5250 4.73290
10.06 -999.25 4.450 82.80 4.890660
10.05 -999.25 4.48750 83.0750 5.048420
10.04 -999.25 4.5250 83.350 5.206190
10.03 -999.25 4.56250 83.6250 5.363950
10.02 -999.25 4.60 83.90 5.521710
10.01 -999.25 4.60 84.350 5.679480
10.00 -999.25 4.60 84.80 5.837240
9.99 -999.25 4.60 85.250 5.9950
9.98 -999.25 4.60 85.70 6.152770
9.97 -999.25 4.60 86.150 6.310530
9.96 -999.25 4.60 86.60 6.468290
9.95 -999.25 4.60 87.050 6.626060
9.94 -999.25 4.60 87.50 6.783820
9.93 -999.25 4.585710 86.60 6.941580
9.92 -999.25 4.571430 85.70 7.099340
9.91 -999.25 4.557140 84.80 7.257110
9.90 -999.25 4.542860 83.90 7.414870
9.89 -999.25 4.528570 83.0 7.572630
9.88 -999.25 4.514290 82.10 7.73040
9.87 -999.25 4.50 81.20 7.888160
9.86 -999.25 4.50 81.750 8.045920
9.85 -999.25 4.50 82.30 8.203690
9.84 -999.25 4.50 82.850 8.361450
9.83 -999.25 4.50 83.40 8.519210
9.82 -999.25 4.50 83.950 8.676980
9.81 -999.25 4.50 84.50 8.834740
9.80 -999.25 4.50 85.050 8.99250
9.79 -999.25 4.50 85.60 9.150270
9.78 -999.25 4.50 85.33750 9.308030
9.77 -999.25 4.50 85.0750 9.465790
9.76 -999.25 4.50 84.81250 9.623560
9.75 -999.25 4.50 84.550 9.781320
9.74 -999.25 4.50 84.28750 9.939080
9.73 -999.25 4.50 84.0250 10.096850
9.72 -999.25 4.50 83.76250 10.254610
9.71 -999.25 4.50 83.50 10.412370
9.70 -999.25 4.4750 83.63750 10.570140
9.69 -999.25 4.450 83.7750 10.72790
9.68 -999.25 4.4250 83.91250 10.885660
9.67 -999.25 4.40 84.050 11.043430
9.66 -999.25 4.3750 84.18750 11.201190
9.65 -999.25 4.350 84.3250 11.358950
9.64 -999.25 4.3250 84.46250 11.516710
9.63 -999.25 4.30 84.60 11.674480
9.62 -999.25 4.31250 84.4750 11.832240
9.61 -999.25 4.3250 84.350 11.990
9.60 -999.25 4.33750 84.2250 12.147770
9.59 -999.25 4.350 84.10 12.305530
9.58 -999.25 4.36250 83.9750 12.463290
9.57 -999.25 4.3750 83.850 12.621060
9.56 -999.25 4.38750 83.7250 12.778820
9.55 -999.25 4.40 83.60 12.936580
9.54 -999.25 4.40 83.5250 13.094350
9.53 -999.25 4.40 83.450 13.252110
9.52 -999.25 4.40 83.3750 13.409870
9.51 -999.25 4.40 83.30 13.567640
9.50 -999.25 4.40 83.2250 13.72540
9.49 -999.25 4.40 83.150 13.883160
9.48 -999.25 4.40 83.0750 14.040930
9.47 -999.25 4.40 83.0 14.198690
9.46 -999.25 4.385710 83.171430 14.356450
9.45 -999.25 4.371430 83.342860 14.514220
9.44 -999.25 4.357140 83.514290 14.671980
9.43 -999.25 4.342860 83.685710 14.829740
9.42 -999.25 4.328570 83.857140 14.987510
9.41 -999.25 4.314290 84.028570 15.145270
9.40 -999.25 4.30 84.20 15.303030
9.39 -999.25 4.31250 84.3250 15.46080
9.38 -999.25 4.3250 84.450 15.618560
9.37 -999.25 4.33750 84.5750 15.776320
9.36 -999.25 4.350 84.70 15.934090
9.35 -999.25 4.36250 84.8250 16.091850
9.34 -999.25 4.3750 84.950 16.249610
9.33 -999.25 4.38750 85.0750 16.407370
9.32 -999.25 4.40 85.20 16.565140
9.31 -999.25 4.40 85.23750 16.72290
9.30 -999.25 4.40 85.2750 16.880660
9.29 -999.25 4.40 85.31250 17.038430
9.28 -999.25 4.40 85.350 17.196190
9.27 -999.25 4.40 85.38750 17.353950
9.26 -999.25 4.40 85.4250 17.511720
9.25 -999.25 4.40 85.46250 17.669480
9.24 -999.25 4.40 85.50 17.827240
9.23 -999.25 4.357140 86.114290 17.985010
9.22 -999.25 4.314290 86.728570 18.142770
9.21 -999.25 4.271430 87.342860 18.300530
9.20 -999.25 4.228570 87.957140 18.45830
9.19 -999.25 4.185710 88.571430 18.616060
9.18 -999.25 4.142860 89.185710 18.773820
9.17 -999.25 4.10 89.80 18.931590
9.16 -999.25 4.1250 89.58750 19.089350
9.15 -999.25 4.150 89.3750 19.247110
9.14 -999.25 4.1750 89.16250 19.404880
9.13 -999.25 4.20 88.950 19.562640
9.12 -999.25 4.2250 88.73750 19.72040
9.11 -999.25 4.250 88.5250 19.878170
9.10 -999.25 4.2750 88.31250 20.035930
9.09 -999.25 4.30 88.10 20.193690
9.08 -999.25 4.28750 87.7750 20.351460
9.07 -999.25 4.2750 87.450 20.509220
9.06 -999.25 4.26250 87.1250 20.666980
9.05 -999.25 4.250 86.80 20.824740
9.04 -999.25 4.23750 86.4750 20.982510
9.03 -999.25 4.2250 86.150 21.140270
9.02 -999.25 4.21250 85.8250 21.298030
9.01 -999.25 4.20 85.50 21.45580
9.00 -999.25 4.18750 85.1750 21.613560
8.99 -999.25 4.1750 84.850 21.771320
8.98 -999.25 4.16250 84.5250 21.929090
8.97 -999.25 4.150 84.20 22.086850
8.96 -999.25 4.13750 83.8750 22.244610
8.95 -999.25 4.1250 83.550 22.402380
8.94 -999.25 4.11250 83.2250 22.560140
8.93 -999.25 4.10 82.90 22.71790
8.92 -999.25 4.0750 82.38750 22.875670
8.91 -999.25 4.050 81.8750 23.033430
8.90 -999.25 4.0250 81.36250 23.191190
8.89 -999.25 4.0 80.850 23.348960
8.88 -999.25 3.9750 80.33750 23.506720
8.87 -999.25 3.950 79.8250 23.664480
8.86 -999.25 3.9250 79.31250 23.822250
8.85 -999.25 3.90 78.80 23.980010
8.84 -999.25 3.90 79.385710 24.137770
8.83 -999.25 3.90 79.971430 24.295540
8.82 -999.25 3.90 80.557140 24.45330
