~VERSION INFORMATION SECTION
VERS. 2.0 : CWLS LAS-VERSION 2.0
WRAP. NO : One line per depth step
~WELL INFORMATION SECTION
# MNEM.UNIT VALUE/NAME DESCRIPTION
#-------- -------------- ---------------------
STRT.Metres 11 : Start
STOP.Metres 0.48 : Stop
STEP.Metres -0.01 : Step
NULL.  -999.25 :NULL VALUE
DATE. 2025-09-11 : DATE
~CURVE INFORMATION SECTION
DEPTH.Metres : 0 Depth
Depth. : 1 Depth
Incline.Deg : 2 Incline
Azimuth.Deg : 3 Azimuth
GR.CPS : 4 GR
~PARAMETER INFORMATION SECTION
~OTHER
#-------------------------------------------------
#Produced By: GeoVista Logger - Version 7.1.107.0
Natural Gamma Sonde - 6447
Verticality Sonde - 6292
#-------------------------------------------------
~ASCII LOG DATA
# ...
5.15 5.186910 3.80 73.969230 159.498210
5.14 5.176520 3.80 74.638460 166.415770
5.13 5.166140 3.80 75.307690 173.333330
5.12 5.155760 3.80 75.976920 171.153850
5.11 5.145150 3.80 76.646150 168.974360
5.10 5.134540 3.80 77.315380 166.794870
5.09 5.123930 3.80 77.984620 164.615380
5.08 5.113320 3.80 78.653850 162.43590
5.07 5.105010 3.80 79.323080 160.256410
5.06 5.09670 3.80 79.992310 158.076920
5.05 5.08840 3.80 80.661540 155.897440
5.04 5.080090 3.80 81.330770 153.717950
5.03 5.071780 3.80 82.0 151.538460
5.02 5.061170 3.807690 81.284620 149.358970
5.01 5.050560 3.815380 80.569230 147.179490
5.00 5.039950 3.823080 79.853850 145.0
4.99 5.029350 3.830770 79.138460 150.629370
4.98 5.018960 3.838460 78.423080 156.258740
4.97 5.008580 3.846150 77.707690 161.888110
4.96 4.998190 3.853850 76.992310 167.517480
4.95 4.987810 3.861540 76.276920 173.146850
4.94 4.97720 3.869230 75.561540 178.776220
4.93 4.966590 3.876920 74.846150 184.405590
4.92 4.955980 3.884620 74.130770 190.034970
4.91 4.945370 3.892310 73.415380 195.664340
4.90 4.934990 3.90 72.70 201.293710
4.89 4.92460 3.891670 72.466670 206.923080
4.88 4.914220 3.883330 72.233330 212.552450
4.87 4.903840 3.8750 72.0 218.181820
4.86 4.895170 3.866670 71.766670 213.596490
4.85 4.88650 3.858330 71.533330 209.011160
4.84 4.877830 3.850 71.30 204.425840
4.83 4.869160 3.841670 71.066670 199.840510
4.82 4.86050 3.833330 70.833330 195.255180
4.81 4.849890 3.8250 70.60 190.669860
4.80 4.839280 3.816670 70.366670 186.084530
4.79 4.828670 3.808330 70.133330 181.49920
4.78 4.818060 3.80 69.90 176.913880
4.77 4.807450 3.792310 70.492310 172.328550
4.76 4.796840 3.784620 71.084620 167.743220
4.75 4.786230 3.776920 71.676920 163.157890
4.74 4.775620 3.769230 72.269230 161.120110
4.73 4.767130 3.761540 72.861540 159.082320
4.72 4.758650 3.753850 73.453850 157.044530
4.71 4.750160 3.746150 74.046150 155.006750
4.70 4.741670 3.738460 74.638460 152.968960
4.69 4.733180 3.730770 75.230770 150.931170
4.68 4.722350 3.723080 75.823080 148.893390
4.67 4.711510 3.715380 76.415380 146.85560
4.66 4.700680 3.707690 77.007690 144.817810
4.65 4.689840 3.70 77.60 142.780030
4.64 4.679010 3.707690 77.361540 140.742240
4.63 4.668170 3.715380 77.123080 138.704450
4.62 4.657340 3.723080 76.884620 136.666670
4.61 4.64650 3.730770 76.646150 140.512820
4.60 4.635890 3.738460 76.407690 144.358970
4.59 4.625280 3.746150 76.169230 148.205130
4.58 4.614670 3.753850 75.930770 152.051280
4.57 4.604060 3.761540 75.692310 155.897440
4.56 4.593450 3.769230 75.453850 159.743590
4.55 4.582840 3.776920 75.215380 163.589740
4.54 4.572230 3.784620 74.976920 167.43590
4.53 4.561630 3.792310 74.738460 171.282050
4.52 4.553320 3.80 74.50 175.128210
4.51 4.545010 3.808330 73.816670 178.974360
4.50 4.53670 3.816670 73.133330 182.820510
4.49 4.52840 3.8250 72.450 186.666670
4.48 4.520090 3.833330 71.766670 183.589740
4.47 4.509480 3.841670 71.083330 180.512820
4.46 4.498870 3.850 70.40 177.43590
4.45 4.488260 3.858330 69.716670 174.358970
4.44 4.477650 3.866670 69.033330 171.282050
4.43 4.467040 3.8750 68.350 168.205130
4.42 4.456430 3.883330 67.666670 165.128210
4.41 4.445820 3.891670 66.983330 162.051280
4.40 4.435210 3.90 66.30 158.974360
4.39 4.42460 3.90 67.053850 155.897440
4.38 4.4140 3.90 67.807690 152.820510
4.37 4.403390 3.90 68.561540 149.743590
4.36 4.392780 3.90 69.315380 146.666670
4.35 4.384470 3.90 70.069230 146.944440
4.34 4.376160 3.90 70.823080 147.222220
4.33 4.367860 3.90 71.576920 147.50
4.32 4.359550 3.90 72.330770 147.777780
4.31 4.351240 3.90 73.084620 148.055560
4.30 4.340630 3.90 73.838460 148.333330
4.29 4.330020 3.90 74.592310 148.611110
4.28 4.319410 3.90 75.346150 148.888890
4.27 4.30880 3.90 76.10 149.166670
4.26 4.297970 3.884620 75.353850 149.444440
4.25 4.287130 3.869230 74.607690 149.722220
4.24 4.27630 3.853850 73.861540 150.0
4.23 4.265460 3.838460 73.115380 149.875930
4.22 4.256980 3.823080 72.369230 149.751860
4.21 4.248490 3.807690 71.623080 149.627790
4.20 4.240 3.792310 70.876920 149.503720
4.19 4.231510 3.776920 70.130770 149.379650
4.18 4.223020 3.761540 69.384620 149.255580
4.17 4.212190 3.746150 68.638460 149.131510
4.16 4.201350 3.730770 67.892310 149.007440
4.15 4.190520 3.715380 67.146150 148.883370
4.14 4.179680 3.70 66.40 148.759310
4.13 4.169070 3.707690 66.592310 148.635240
4.12 4.158470 3.715380 66.784620 148.511170
4.11 4.147860 3.723080 66.976920 148.38710
4.10 4.137250 3.730770 67.169230 152.410390
4.09 4.126410 3.738460 67.361540 156.433690
4.08 4.115580 3.746150 67.553850 160.456990
4.07 4.104740 3.753850 67.746150 164.480290
4.06 4.093910 3.761540 67.938460 168.503580
4.05 4.085240 3.769230 68.130770 172.526880
4.04 4.076570 3.776920 68.323080 176.550180
4.03 4.06790 3.784620 68.515380 180.573480
4.02 4.059230 3.792310 68.707690 184.596770
4.01 4.050560 3.80 68.90 188.620070
4.00 4.039730 3.769230 68.946150 192.643370
3.99 4.028890 3.738460 68.992310 196.666670
3.98 4.018060 3.707690 69.038460 196.153850
3.97 4.007220 3.676920 69.084620 195.641030
3.96 3.996610 3.646150 69.130770 195.128210
3.95 3.9860 3.615380 69.176920 194.615380
3.94 3.97540 3.584620 69.223080 194.102560
3.93 3.964790 3.553850 69.269230 193.589740
3.92 3.956120 3.523080 69.315380 193.076920
3.91 3.947450 3.492310 69.361540 192.56410
3.90 3.938780 3.461540 69.407690 192.051280
3.89 3.930110 3.430770 69.453850 191.538460
3.88 3.921440 3.40 69.50 191.025640
3.87 3.910610 3.416670 69.10 190.512820
3.86 3.899770 3.433330 68.70 190.0
3.85 3.888940 3.450 68.30 186.153850
3.84 3.87810 3.466670 67.90 182.307690
3.83 3.867270 3.483330 67.50 178.461540
3.82 3.856430 3.50 67.10 174.615380
3.81 3.84560 3.516670 66.70 170.769230
3.80 3.834760 3.533330 66.30 166.923080
3.79 3.825910 3.550 65.90 163.076920
3.78 3.817070 3.566670 65.50 159.230770
3.77 3.808220 3.583330 65.10 155.384620
3.76 3.799370 3.60 64.70 151.538460
3.75 3.790520 3.584620 65.646150 147.692310
3.74 3.779680 3.569230 66.592310 143.846150
3.73 3.768850 3.553850 67.538460 140.0
3.72 3.758010 3.538460 68.484620 136.923080
3.71 3.747180 3.523080 69.430770 133.846150
3.70 3.738330 3.507690 70.376920 130.769230
3.69 3.729480 3.492310 71.323080 127.692310
3.68 3.720630 3.476920 72.269230 124.615380
3.67 3.711780 3.461540 73.215380 121.538460
3.66 3.702930 3.446150 74.161540 118.461540
3.65 3.69210 3.430770 75.107690 115.384620
3.64 3.681260 3.415380 76.053850 112.307690
3.63 3.670430 3.40 77.0 109.230770
3.62 3.659590 3.423080 75.80 106.153850
3.61 3.648530 3.446150 74.60 103.076920
3.60 3.637470 3.469230 73.40 100.0
3.59 3.626410 3.492310 72.20 105.277780
3.58 3.615350 3.515380 71.0 110.555560
3.57 3.606680 3.538460 69.80 115.833330
3.56 3.598010 3.561540 68.60 121.111110
3.55 3.589350 3.584620 67.40 126.388890
3.54 3.580680 3.607690 66.20 131.666670
3.53 3.572010 3.630770 65.0 136.944440
3.52 3.560950 3.653850 63.80 142.222220
3.51 3.549890 3.676920 62.60 147.50
3.50 3.538830 3.70 61.40 152.777780
3.49 3.527770 3.671430 62.264290 158.055560
3.48 3.516930 3.642860 63.128570 163.333330
3.47 3.506090 3.614290 63.992860 164.871790
3.46 3.495260 3.585710 64.857140 166.410260
3.45 3.484420 3.557140 65.721430 167.948720
3.44 3.475940 3.528570 66.585710 169.487180
3.43 3.467450 3.50 67.450 171.025640
3.42 3.458960 3.471430 68.314290 172.56410
3.41 3.450470 3.442860 69.178570 174.102560
3.40 3.441990 3.414290 70.042860 175.641030
3.39 3.431380 3.385710 70.907140 177.179490
3.38 3.420770 3.357140 71.771430 178.717950
3.37 3.410160 3.328570 72.635710 180.256410
3.36 3.399550 3.30 73.50 181.794870
3.35 3.388940 3.315380 73.215380 183.333330
3.34 3.378330 3.330770 72.930770 183.461540
3.33 3.367720 3.346150 72.646150 183.589740
3.32 3.357110 3.361540 72.361540 183.717950
3.31 3.34650 3.376920 72.076920 183.846150
3.30 3.335890 3.392310 71.792310 183.974360
3.29 3.325280 3.407690 71.507690 184.102560
3.28 3.314670 3.423080 71.223080 184.230770
3.27 3.306190 3.438460 70.938460 184.358970
3.26 3.29770 3.453850 70.653850 184.487180
3.25 3.289210 3.469230 70.369230 184.615380
3.24 3.280720 3.484620 70.084620 184.743590
