~VERSION INFORMATION SECTION
VERS. 2.0 : CWLS LAS-VERSION 2.0
WRAP. NO : One line per depth step
~WELL INFORMATION SECTION
# MNEM.UNIT VALUE/NAME DESCRIPTION
#-------- -------------- ---------------------
STRT.Metres 11 : Start
STOP.Metres -0.95 : Stop
STEP.Metres -0.01 : Step
NULL.  -999.25 :NULL VALUE
DATE. 2025-07-11 : DATE
~CURVE INFORMATION SECTION
DEPTH.Metres : 0 Depth
Depth. : 1 Depth
Incline.Deg : 2 Incline
Azimuth.Deg : 3 Azimuth
GR.CPS : 4 GR
~PARAMETER INFORMATION SECTION
~OTHER
#-------------------------------------------------
#Produced By: GeoVista Logger - Version 7.1.107.0
Natural Gamma Sonde - 6447
Verticality Sonde - 6292
#-------------------------------------------------
~ASCII LOG DATA
# ...
8.81 -999.25 3.90 81.142860 24.611060
8.80 -999.25 3.90 81.728570 24.768830
8.79 -999.25 3.90 82.314290 24.926590
8.78 -999.25 3.90 82.90 25.084350
8.77 -999.25 3.91250 83.38750 25.242110
8.76 -999.25 3.9250 83.8750 25.399880
8.75 -999.25 3.93750 84.36250 25.557640
8.74 -999.25 3.950 84.850 25.71540
8.73 -999.25 3.96250 85.33750 25.873170
8.72 -999.25 3.9750 85.8250 26.030930
8.71 -999.25 3.98750 86.31250 26.188690
8.70 -999.25 4.0 86.80 26.346460
8.69 -999.25 3.98750 86.13750 26.504220
8.68 -999.25 3.9750 85.4750 26.661980
8.67 -999.25 3.96250 84.81250 26.819750
8.66 -999.25 3.950 84.150 26.977510
8.65 -999.25 3.93750 83.48750 27.135270
8.64 -999.25 3.9250 82.8250 27.293040
8.63 -999.25 3.91250 82.16250 27.45080
8.62 -999.25 3.90 81.50 27.608560
8.61 -999.25 3.850 82.96250 27.766330
8.60 -999.25 3.80 84.4250 27.924090
8.59 -999.25 3.750 85.88750 28.081850
8.58 -999.25 3.70 87.350 28.239620
8.57 -999.25 3.650 88.81250 28.397380
8.56 -999.25 3.60 90.2750 28.555140
8.55 -999.25 3.550 91.73750 28.712910
8.54 -999.25 3.50 93.20 28.870670
8.53 -999.25 3.53750 93.01250 29.028430
8.52 -999.25 3.5750 92.8250 29.18620
8.51 -999.25 3.61250 92.63750 29.343960
8.50 -999.25 3.650 92.450 29.501720
8.49 -999.25 3.68750 92.26250 29.659490
8.48 -999.25 3.7250 92.0750 29.817250
8.47 -999.25 3.76250 91.88750 29.975010
8.46 -999.25 3.80 91.70 30.132770
8.45 -999.25 3.857140 89.271430 30.290540
8.44 -999.25 3.914290 86.842860 30.44830
8.43 -999.25 3.971430 84.414290 30.606060
8.42 -999.25 4.028570 81.985710 30.763830
8.41 -999.25 4.085710 79.557140 30.921590
8.40 -999.25 4.142860 77.128570 31.079350
8.39 -999.25 4.20 74.70 31.237120
8.38 -999.25 4.21250 76.01250 31.394880
8.37 -999.25 4.2250 77.3250 31.552640
8.36 -999.25 4.23750 78.63750 31.710410
8.35 -999.25 4.250 79.950 31.868170
8.34 -999.25 4.26250 81.26250 32.025930
8.33 -999.25 4.2750 82.5750 32.18370
8.32 -999.25 4.28750 83.88750 32.341460
8.31 -999.25 4.30 85.20 32.499220
8.30 -999.25 4.28750 85.11250 32.656990
8.29 -999.25 4.2750 85.0250 32.814750
8.28 -999.25 4.26250 84.93750 32.972510
8.27 -999.25 4.250 84.850 33.130280
8.26 -999.25 4.23750 84.76250 33.288040
8.25 -999.25 4.2250 84.6750 33.44580
8.24 -999.25 4.21250 84.58750 33.603570
8.23 -999.25 4.20 84.50 33.761330
8.22 -999.25 4.20 84.160 33.919090
8.21 -999.25 4.20 83.820 34.076860
8.20 -999.25 4.20 83.480 34.234620
8.19 -999.25 4.20 83.140 34.392380
8.18 -999.25 4.20 82.80 34.550140
8.17 -999.25 4.20 82.460 34.707910
8.16 -999.25 4.20 82.120 34.865670
8.15 -999.25 4.20 81.780 35.023430
8.14 -999.25 4.20 81.440 35.18120
8.13 -999.25 4.20 81.10 35.338960
8.12 -999.25 4.20 80.760 35.496720
8.11 -999.25 4.20 80.420 35.654490
8.10 -999.25 4.20 80.080 35.812250
8.09 -999.25 4.20 79.740 35.970010
8.08 -999.25 4.20 79.40 36.127780
8.07 -999.25 4.21250 80.10 36.285540
8.06 -999.25 4.2250 80.80 36.44330
8.05 -999.25 4.23750 81.50 36.601070
8.04 -999.25 4.250 82.20 36.758830
8.03 -999.25 4.26250 82.90 36.916590
8.02 -999.25 4.2750 83.60 37.074360
8.01 -999.25 4.28750 84.30 37.232120
8.00 -999.25 4.30 85.0 37.389880
7.99 -999.25 4.31250 84.30 37.547650
7.98 -999.25 4.3250 83.60 37.705410
7.97 -999.25 4.33750 82.90 37.863170
7.96 -999.25 4.350 82.20 38.020940
7.95 -999.25 4.36250 81.50 38.17870
7.94 -999.25 4.3750 80.80 38.336460
7.93 -999.25 4.38750 80.10 38.494230
7.92 -999.25 4.40 79.40 38.651990
7.91 -999.25 4.38750 79.36250 38.809750
7.90 -999.25 4.3750 79.3250 38.967510
7.89 -999.25 4.36250 79.28750 39.125280
7.88 -999.25 4.350 79.250 39.283040
7.87 -999.25 4.33750 79.21250 39.44080
7.86 -999.25 4.3250 79.1750 39.598570
7.85 -999.25 4.31250 79.13750 39.756330
7.84 -999.25 4.30 79.10 39.914090
7.83 -999.25 4.2750 79.31250 40.071860
7.82 -999.25 4.250 79.5250 40.229620
7.81 -999.25 4.2250 79.73750 40.387380
7.80 -999.25 4.20 79.950 40.545150
7.79 -999.25 4.1750 80.16250 40.702910
7.78 -999.25 4.150 80.3750 40.860670
7.77 -999.25 4.1250 80.58750 41.018440
7.76 -999.25 4.10 80.80 41.17620
7.75 -999.25 4.114290 81.185710 41.333960
7.74 -999.25 4.128570 81.571430 41.491730
7.73 -999.25 4.142860 81.957140 41.649490
7.72 -999.25 4.157140 82.342860 41.807250
7.71 -999.25 4.171430 82.728570 41.965020
7.70 -999.25 4.185710 83.114290 42.122780
7.69 -999.25 4.20 83.50 42.280540
7.68 -999.25 4.21250 83.01250 42.438310
7.67 -999.25 4.2250 82.5250 42.596070
7.66 -999.25 4.23750 82.03750 42.753830
7.65 -999.25 4.250 81.550 42.91160
7.64 -999.25 4.26250 81.06250 43.069360
7.63 -999.25 4.2750 80.5750 43.227120
7.62 -999.25 4.28750 80.08750 43.384880
7.61 -999.25 4.30 79.60 43.542650
7.60 -999.25 4.28750 79.70 43.700410
7.59 -999.25 4.2750 79.80 43.858170
7.58 -999.25 4.26250 79.90 44.015940
7.57 -999.25 4.250 80.0 44.17370
7.56 -999.25 4.23750 80.10 44.331460
7.55 -999.25 4.2250 80.20 44.489230
7.54 -999.25 4.21250 80.30 44.646990
7.53 -999.25 4.20 80.40 44.804750
7.52 -999.25 4.20 81.0250 44.962520
7.51 -999.25 4.20 81.650 45.120280
7.50 -999.25 4.20 82.2750 45.278040
7.49 -999.25 4.20 82.90 45.435810
7.48 -999.25 4.20 83.5250 45.593570
7.47 -999.25 4.20 84.150 45.751330
7.46 -999.25 4.20 84.7750 45.90910
7.45 -999.25 4.20 85.40 46.066860
7.44 -999.25 4.214290 84.971430 46.224620
7.43 -999.25 4.228570 84.542860 46.382390
7.42 -999.25 4.242860 84.114290 46.540150
7.41 -999.25 4.257140 83.685710 46.697910
7.40 -999.25 4.271430 83.257140 46.855680
7.39 -999.25 4.285710 82.828570 47.013440
7.38 -999.25 4.30 82.40 47.17120
7.37 -999.25 4.2750 82.51250 47.328970
7.36 -999.25 4.250 82.6250 47.486730
7.35 -999.25 4.2250 82.73750 47.644490
7.34 -999.25 4.20 82.850 47.802260
7.33 -999.25 4.1750 82.96250 47.960020
7.32 -999.25 4.150 83.0750 48.117780
7.31 -999.25 4.1250 83.18750 48.275540
7.30 -999.25 4.10 83.30 48.433310
7.29 -999.25 4.1250 83.7750 48.591070
7.28 -999.25 4.150 84.250 48.748830
7.27 -999.25 4.1750 84.7250 48.90660
7.26 -999.25 4.20 85.20 49.064360
7.25 -999.25 4.2250 85.6750 49.222120
7.24 -999.25 4.250 86.150 49.379890
7.23 -999.25 4.2750 86.6250 49.537650
7.22 -999.25 4.30 87.10 49.695410
7.21 -999.25 4.214290 86.185710 49.853180
7.20 -999.25 4.128570 85.271430 50.010940
7.19 -999.25 4.042860 84.357140 50.16870
7.18 -999.25 3.957140 83.442860 50.326470
7.17 -999.25 3.871430 82.528570 50.484230
7.16 -999.25 3.785710 81.614290 50.641990
7.15 -999.25 3.70 80.70 50.799760
7.14 -999.25 3.71250 81.23750 50.957520
7.13 -999.25 3.7250 81.7750 51.115280
7.12 -999.25 3.73750 82.31250 51.273050
7.11 -999.25 3.750 82.850 51.430810
7.10 -999.25 3.76250 83.38750 51.588570
7.09 -999.25 3.7750 83.9250 51.746340
7.08 -999.25 3.78750 84.46250 51.90410
7.07 -999.25 3.80 85.0 52.061860
7.06 -999.25 3.83750 84.96250 52.219630
7.05 -999.25 3.8750 84.9250 52.377390
7.04 -999.25 3.91250 84.88750 52.535150
7.03 -999.25 3.950 84.850 52.692910
7.02 -999.25 3.98750 84.81250 52.850680
7.01 -999.25 4.0250 84.7750 53.008440
7.00 -999.25 4.06250 84.73750 53.16620
6.99 -999.25 4.10 84.70 53.323970
6.98 -999.25 4.10 84.18750 53.481730
6.97 -999.25 4.10 83.6750 53.639490
6.96 -999.25 4.10 83.16250 53.797260
6.95 -999.25 4.10 82.650 53.955020
6.94 -999.25 4.10 82.13750 54.112780
6.93 -999.25 4.10 81.6250 54.270550
6.92 -999.25 4.10 81.11250 54.428310
6.91 -999.25 4.10 80.60 54.586070
6.90 -999.25 4.0250 81.10 54.743840
6.89 -999.25 3.950 81.60 54.90160
6.88 -999.25 3.8750 82.10 55.059360
6.87 -999.25 3.80 82.60 55.217130
6.86 -999.25 3.7250 83.10 55.374890
6.85 -999.25 3.650 83.60 55.532650
6.84 -999.25 3.5750 84.10 55.690420
6.83 -999.25 3.50 84.60 55.848180
6.82 -999.25 3.557140 85.114290 56.005940
6.81 -999.25 3.614290 85.628570 56.163710
6.80 -999.25 3.671430 86.142860 56.321470
6.79 -999.25 3.728570 86.657140 56.479230
6.78 -999.25 3.785710 87.171430 56.6370
6.77 -999.25 3.842860 87.685710 56.794760
6.76 -999.25 3.90 88.20 56.952520
6.75 -999.25 3.86250 86.60 57.110280
6.74 -999.25 3.8250 85.0 57.268050
6.73 -999.25 3.78750 83.40 57.425810
6.72 -999.25 3.750 81.80 57.583570
6.71 -999.25 3.71250 80.20 57.741340
6.70 -999.25 3.6750 78.60 57.89910
6.69 -999.25 3.63750 77.0 58.056860
6.68 -999.25 3.60 75.40 58.214630
