~VERSION INFORMATION SECTION
VERS. 2.0 : CWLS LAS-VERSION 2.0
WRAP. NO : One line per depth step
~WELL INFORMATION SECTION
# MNEM.UNIT VALUE/NAME DESCRIPTION
#-------- -------------- ---------------------
STRT.Metres 11 : Start
STOP.Metres 0.48 : Stop
STEP.Metres -0.01 : Step
NULL.  -999.25 :NULL VALUE
DATE. 2025-04-11 : DATE
~CURVE INFORMATION SECTION
DEPTH.Metres : 0 Depth
Depth. : 1 Depth
Incline.Deg : 2 Incline
Azimuth.Deg : 3 Azimuth
GR.CPS : 4 GR
~PARAMETER INFORMATION SECTION
~OTHER
#-------------------------------------------------
#Produced By: GeoVista Logger - Version 7.1.107.0
Natural Gamma Sonde - 6447
Verticality Sonde - 6292
#-------------------------------------------------
~ASCII LOG DATA
# ...
4.31 4.323250 3.90 69.420 144.666670
4.30 4.314670 3.90 69.580 155.333330
4.29 4.306090 3.90 69.740 166.0
4.28 4.288940 3.90 69.90 176.666670
4.27 4.280360 3.880 70.440 178.0
4.26 4.271780 3.860 70.980 179.333330
4.25 4.263210 3.840 71.520 180.666670
4.24 4.254630 3.820 72.060 182.0
4.23 4.237470 3.80 72.60 183.333330
4.22 4.228890 3.80 71.660 171.333330
4.21 4.220320 3.80 70.720 159.333330
4.20 4.211740 3.80 69.780 147.333330
4.19 4.203160 3.80 68.840 135.333330
4.18 4.194580 3.80 67.90 123.333330
4.17 4.1860 3.780 68.640 136.0
4.16 4.168850 3.760 69.380 148.666670
4.15 4.160270 3.740 70.120 161.333330
4.14 4.151690 3.720 70.860 174.0
4.13 4.143120 3.70 71.60 186.666670
4.12 4.134540 3.70 71.540 178.666670
4.11 4.125510 3.70 71.480 170.666670
4.10 4.116480 3.70 71.420 162.666670
4.09 4.099320 3.70 71.360 154.666670
4.08 4.090740 3.70 71.30 146.666670
4.07 4.082170 3.70 71.120 157.333330
4.06 4.073590 3.70 70.940 168.0
4.05 4.065010 3.70 70.760 178.666670
4.04 4.047860 3.70 70.580 189.333330
4.03 4.039280 3.70 70.40 200.0
4.02 4.03070 3.680 69.520 189.473680
4.01 4.022120 3.660 68.640 178.947370
4.00 4.013540 3.640 67.760 168.421050
3.99 4.004970 3.620 66.880 157.894740
3.98 3.996390 3.60 66.0 147.368420
3.97 3.978330 3.640 67.360 149.228070
3.96 3.969750 3.680 68.720 151.087720
3.95 3.961170 3.720 70.080 152.947370
3.94 3.95260 3.760 71.440 154.807020
3.93 3.944020 3.80 72.80 156.666670
3.92 3.935440 3.766670 72.883330 158.333330
3.91 3.926860 3.733330 72.966670 160.0
3.90 3.90880 3.70 73.050 161.666670
3.89 3.900230 3.666670 73.133330 163.333330
3.88 3.891650 3.633330 73.216670 165.0
3.87 3.883070 3.60 73.30 166.666670
3.86 3.874490 3.640 71.70 160.0
3.85 3.857340 3.680 70.10 153.333330
3.84 3.848760 3.720 68.50 146.666670
3.83 3.840180 3.760 66.90 140.0
3.82 3.831150 3.80 65.30 133.333330
3.81 3.822120 3.780 66.780 143.333330
3.80 3.813540 3.760 68.260 153.333330
3.79 3.804970 3.740 69.740 163.333330
3.78 3.795940 3.720 71.220 173.333330
3.77 3.786910 3.70 72.70 183.333330
3.76 3.769750 3.70 71.320 178.0
3.75 3.760720 3.70 69.940 172.666670
3.74 3.751690 3.70 68.560 167.333330
3.73 3.743120 3.70 67.180 162.0
3.72 3.734540 3.70 65.80 156.666670
3.71 3.725510 3.70 65.980 160.0
3.70 3.716480 3.70 66.160 163.333330
3.69 3.699320 3.70 66.340 166.666670
3.68 3.690290 3.70 66.520 170.0
3.67 3.681260 3.70 66.70 173.333330
3.66 3.672690 3.633330 66.333330 174.666670
3.65 3.664110 3.566670 65.966670 176.0
3.64 3.655530 3.50 65.60 177.333330
3.63 3.646950 3.433330 65.233330 178.666670
3.62 3.628890 3.366670 64.866670 180.0
3.61 3.620320 3.30 64.50 177.333330
3.60 3.611740 3.330 64.460 174.666670
3.59 3.602710 3.360 64.420 172.0
3.58 3.593680 3.390 64.380 169.333330
3.57 3.58510 3.420 64.340 166.666670
3.56 3.576520 3.450 64.30 164.0
3.55 3.558470 3.480 64.260 161.333330
3.54 3.549890 3.510 64.220 158.666670
3.53 3.541310 3.540 64.180 156.0
3.52 3.532730 3.570 64.140 153.333330
3.51 3.524150 3.60 64.10 152.666670
3.50 3.515120 3.620 64.30 152.0
3.49 3.506090 3.640 64.50 151.333330
3.48 3.488940 3.660 64.70 150.666670
3.47 3.479910 3.680 64.90 150.0
3.46 3.470880 3.70 65.10 156.720430
3.45 3.46230 3.683330 64.883330 163.440860
3.44 3.453720 3.666670 64.666670 170.161290
3.43 3.445150 3.650 64.450 176.881720
3.42 3.436570 3.633330 64.233330 183.602150
3.41 3.419410 3.616670 64.016670 190.322580
3.40 3.410840 3.60 63.80 184.258060
3.39 3.402260 3.60 63.940 178.193550
3.38 3.394130 3.60 64.080 172.129030
3.37 3.3860 3.60 64.220 166.064520
3.36 3.368850 3.60 64.360 160.0
3.35 3.360270 3.60 64.50 156.0
3.34 3.351690 3.60 64.640 152.0
3.33 3.343120 3.60 64.780 148.0
3.32 3.334540 3.60 64.920 144.0
3.31 3.318280 3.60 65.060 140.0
3.30 3.309710 3.60 65.20 149.333330
3.29 3.301130 3.560 66.080 158.666670
3.28 3.292550 3.520 66.960 168.0
3.27 3.283970 3.480 67.840 177.333330
3.26 3.27540 3.440 68.720 186.666670
3.25 3.266820 3.40 69.60 182.666670
3.24 3.249660 3.40 68.066670 178.666670
3.23 3.241080 3.40 66.533330 174.666670
3.22 3.232510 3.40 65.0 170.666670
3.21 3.223480 3.40 63.466670 166.666670
3.20 3.214450 3.40 61.933330 177.333330
3.19 3.197290 3.40 60.40 188.0
3.18 3.188710 3.380 62.240 198.666670
3.17 3.180140 3.360 64.080 209.333330
3.16 3.171560 3.340 65.920 220.0
3.15 3.162980 3.320 67.760 211.666670
3.14 3.153950 3.30 69.60 203.333330
3.13 3.144920 3.30 68.760 195.0
3.12 3.127770 3.30 67.920 186.666670
3.11 3.119190 3.30 67.080 178.333330
3.10 3.110610 3.30 66.240 170.0
3.09 3.101580 3.30 65.40 174.0
3.08 3.092550 3.30 65.70 178.0
3.07 3.084420 3.30 66.0 182.0
3.06 3.07630 3.30 66.30 186.0
3.05 3.059140 3.30 66.60 190.0
3.04 3.050110 3.30 66.90 188.666670
3.03 3.041080 3.30 65.860 187.333330
3.02 3.032510 3.30 64.820 186.0
3.01 3.023930 3.30 63.780 184.666670
3.00 3.015350 3.30 62.740 183.333330
2.99 3.006770 3.30 61.70 179.333330
2.98 2.989620 3.280 62.540 175.333330
2.97 2.981040 3.260 63.380 171.333330
2.96 2.972460 3.240 64.220 167.333330
2.95 2.963430 3.220 65.060 163.333330
2.94 2.95440 3.20 65.90 170.666670
2.93 2.937250 3.180 64.90 178.0
2.92 2.928670 3.160 63.90 185.333330
2.91 2.920090 3.140 62.90 192.666670
2.90 2.911510 3.120 61.90 200.0
2.89 2.902930 3.10 60.90 197.368420
2.88 2.893910 3.133330 60.90 194.736840
2.87 2.884880 3.166670 60.90 192.105260
2.86 2.87630 3.20 60.90 189.473680
2.85 2.867720 3.233330 60.90 186.842110
2.84 2.849660 3.266670 60.90 184.210530
2.83 2.841080 3.30 60.90 181.368420
2.82 2.832510 3.260 61.70 178.526320
2.81 2.823930 3.220 62.50 175.684210
2.80 2.815350 3.180 63.30 172.842110
2.79 2.798190 3.140 64.10 170.0
2.78 2.789160 3.10 64.90 177.333330
2.77 2.780140 3.10 63.340 184.666670
2.76 2.771560 3.10 61.780 192.0
2.75 2.762980 3.10 60.220 199.333330
2.74 2.75440 3.10 58.660 206.666670
2.73 2.745820 3.10 57.10 204.04040
2.72 2.727770 3.040 58.960 201.414140
2.71 2.719190 2.980 60.820 198.787880
2.70 2.710610 2.920 62.680 196.161620
2.69 2.702030 2.860 64.540 193.535350
2.68 2.693450 2.80 66.40 190.909090
2.67 2.684420 2.840 63.380 195.885170
2.66 2.67540 2.880 60.360 200.861240
2.65 2.658240 2.920 57.340 205.837320
2.64 2.649210 2.960 54.320 210.81340
2.63 2.640180 3.0 51.30 215.789470
2.62 2.63160 2.983330 53.583330 213.298250
2.61 2.623020 2.966670 55.866670 210.807020
2.60 2.614450 2.950 58.150 208.315790
2.59 2.605870 2.933330 60.433330 205.824560
2.58 2.587810 2.916670 62.716670 203.333330
2.57 2.579230 2.90 65.0 204.0
2.56 2.570650 2.880 63.160 204.666670
2.55 2.561630 2.860 61.320 205.333330
2.54 2.55260 2.840 59.480 206.0
2.53 2.544020 2.820 57.640 206.666670
2.52 2.535440 2.80 55.80 205.333330
2.51 2.518280 2.790 56.980 204.0
2.50 2.509710 2.780 58.160 202.666670
2.49 2.501130 2.770 59.340 201.333330
2.48 2.492550 2.760 60.520 200.0
2.47 2.483970 2.750 61.70 197.419350
2.46 2.474940 2.740 62.880 194.838710
2.45 2.465910 2.730 64.060 192.258060
2.44 2.448760 2.720 65.240 189.677420
2.43 2.440180 2.710 66.420 187.096770
2.42 2.43160 2.70 67.60 182.344090
2.41 2.423020 2.716670 66.466670 177.59140
2.40 2.414450 2.733330 65.333330 172.838710
2.39 2.405870 2.750 64.20 168.086020
2.38 2.397290 2.766670 63.066670 163.333330
2.37 2.379230 2.783330 61.933330 167.777780
2.36 2.370650 2.80 60.80 172.222220
2.35 2.362080 2.760 62.220 176.666670
2.34 2.35350 2.720 63.640 181.111110
2.33 2.344920 2.680 65.060 185.555560
2.32 2.336340 2.640 66.480 190.0
2.31 2.327770 2.60 67.90 189.333330
2.30 2.309710 2.630 66.110 188.666670
2.29 2.301130 2.660 64.320 188.0
2.28 2.292550 2.690 62.530 187.333330
2.27 2.283970 2.720 60.740 186.666670
2.26 2.27540 2.750 58.950 183.333330
2.25 2.258240 2.780 57.160 180.0
2.24 2.250110 2.810 55.370 176.666670
2.23 2.241990 2.840 53.580 173.333330
2.22 2.233410 2.870 51.790 170.0
2.21 2.224830 2.90 50.0 169.333330
2.20 2.207670 2.88750 50.056250 168.666670
2.19 2.199550 2.8750 50.11250 168.0
2.18 2.191420 2.86250 50.168750 167.333330
2.17 2.182840 2.850 50.2250 166.666670
2.16 2.174270 2.83750 50.281250 170.0
2.15 2.165690 2.8250 50.33750 173.333330
2.14 2.157110 2.81250 50.393750 176.666670
