~VERSION INFORMATION SECTION
VERS. 2.0 : CWLS LAS-VERSION 2.0
WRAP. NO : One line per depth step
~WELL INFORMATION SECTION
# MNEM.UNIT VALUE/NAME DESCRIPTION
#-------- -------------- ---------------------
STRT.Metres 11 : Start
STOP.Metres 0.48 : Stop
STEP.Metres -0.01 : Step
NULL.  -999.25 :NULL VALUE
DATE. 2025-09-11 : DATE
~CURVE INFORMATION SECTION
DEPTH.Metres : 0 Depth
Depth. : 1 Depth
Incline.Deg : 2 Incline
Azimuth.Deg : 3 Azimuth
GR.CPS : 4 GR
~PARAMETER INFORMATION SECTION
~OTHER
#-------------------------------------------------
#Produced By: GeoVista Logger - Version 7.1.107.0
Natural Gamma Sonde - 6447
Verticality Sonde - 6292
#-------------------------------------------------
~ASCII LOG DATA
11.00 -999.25 -999.25 -999.25 -999.25
10.99 -999.25 -999.25 -999.25 -999.25
10.98 3.66230 -999.25 -999.25 -999.25
10.97 7.32460 -999.25 -999.25 -999.25
10.96 10.986910 -999.25 -999.25 -999.25
10.95 10.976980 -999.25 -999.25 -999.25
10.94 10.967040 4.80 86.213510 -999.25
10.93 10.957110 4.80 85.956760 -999.25
10.92 10.946880 4.80 85.70 -999.25
10.91 10.936640 4.80 85.70 -999.25
10.90 10.926410 4.80 85.70 -999.25
10.89 10.917610 4.80 85.750 -999.25
10.88 10.90880 4.80 85.80 -999.25
10.87 10.90 4.80 85.850 -999.25
10.86 10.89120 4.80 85.90 -999.25
10.85 10.882170 4.80 86.050 -999.25
10.84 10.873140 4.80 86.20 -999.25
10.83 10.864110 4.80 86.350 -999.25
10.82 10.855080 4.80 86.50 -999.25
10.81 10.846050 4.80 86.650 -999.25
10.80 10.837020 4.80 86.80 -999.25
10.79 10.827990 4.80 86.6250 -999.25
10.78 10.818960 4.80 86.450 -999.25
10.77 10.80880 4.80 86.2750 -999.25
10.76 10.798650 4.80 86.10 -999.25
10.75 10.788490 4.80 85.9250 -999.25
10.74 10.778330 4.80 85.750 -999.25
10.73 10.765090 4.80 85.5750 -999.25
10.72 10.751840 4.80 85.40 -999.25
10.71 10.73860 4.777780 85.422220 -999.25
10.70 10.731020 4.755560 85.444440 -999.25
10.69 10.723430 4.733330 85.466670 -999.25
10.68 10.715850 4.711110 85.488890 -999.25
10.67 10.708260 4.688890 85.511110 -999.25
10.66 10.700680 4.666670 85.533330 -999.25
10.65 10.689840 4.644440 85.555560 -999.25
10.64 10.679010 4.622220 85.577780 -999.25
10.63 10.668170 4.60 85.60 -999.25
10.62 10.657340 4.581820 86.054550 -999.25
10.61 10.647180 4.563640 86.509090 -999.25
10.60 10.637020 4.545450 86.963640 -999.25
10.59 10.626860 4.527270 87.418180 -999.25
10.58 10.61670 4.509090 87.872730 -999.25
10.57 10.606770 4.490910 88.327270 -999.25
10.56 10.596840 4.472730 88.781820 -999.25
10.55 10.586910 4.454550 89.236360 -999.25
10.54 10.576980 4.436360 89.690910 -999.25
10.53 10.565910 4.418180 90.145450 -999.25
10.52 10.554850 4.40 90.60 -999.25
10.51 10.543790 4.390910 89.972730 -999.25
10.50 10.532730 4.381820 89.345450 -999.25
10.49 10.522350 4.372730 88.718180 -999.25
10.48 10.511960 4.363640 88.090910 -999.25
10.47 10.501580 4.354550 87.463640 -999.25
10.46 10.49120 4.345450 86.836360 -999.25
10.45 10.483070 4.336360 86.209090 -999.25
10.44 10.474940 4.327270 85.581820 -999.25
10.43 10.466820 4.318180 84.954550 -999.25
10.42 10.458690 4.309090 84.327270 -999.25
10.41 10.450560 4.30 83.70 -999.25
10.40 10.43950 4.253850 84.115380 -999.25
10.39 10.428440 4.207690 84.530770 -999.25
10.38 10.417380 4.161540 84.946150 -999.25
10.37 10.406320 4.115380 85.361540 -999.25
10.36 10.395940 4.069230 85.776920 170.888540
10.35 10.385550 4.023080 86.192310 164.516130
10.34 10.375170 3.976920 86.607690 174.758060
10.33 10.364790 3.930770 87.023080 185.0
10.32 10.356660 3.884620 87.438460 178.750
10.31 10.348530 3.838460 87.853850 172.50
10.30 10.340410 3.792310 88.269230 166.250
10.29 10.332280 3.746150 88.684620 160.0
10.28 10.324150 3.70 89.10 163.333330
10.27 10.313090 3.7250 88.8750 166.666670
10.26 10.302030 3.750 88.650 170.0
10.25 10.290970 3.7750 88.4250 173.333330
10.24 10.279910 3.80 88.20 176.666670
10.23 10.26930 3.8250 87.9750 180.476190
10.22 10.258690 3.850 87.750 184.285710
10.21 10.248080 3.8750 87.5250 188.095240
10.20 10.237470 3.90 87.30 191.904760
10.19 10.227310 3.9250 87.0750 195.714290
10.18 10.217160 3.950 86.850 199.523810
10.17 10.2070 3.9750 86.6250 203.333330
10.16 10.196840 4.0 86.40 198.888890
10.15 10.185780 4.023080 86.338460 194.444440
10.14 10.174720 4.046150 86.276920 190.0
10.13 10.163660 4.069230 86.215380 185.555560
10.12 10.15260 4.092310 86.153850 181.111110
10.11 10.144110 4.115380 86.092310 176.666670
10.10 10.135620 4.138460 86.030770 172.222220
10.09 10.127130 4.161540 85.969230 167.777780
10.08 10.118650 4.184620 85.907690 163.333330
10.07 10.110160 4.207690 85.846150 164.333330
10.06 10.10 4.230770 85.784620 165.333330
10.05 10.089840 4.253850 85.723080 166.333330
10.04 10.079680 4.276920 85.661540 167.333330
10.03 10.069530 4.30 85.60 168.333330
10.02 10.058470 4.315380 85.307690 169.333330
10.01 10.04740 4.330770 85.015380 170.333330
10.00 10.036340 4.346150 84.723080 171.333330
9.99 10.025280 4.361540 84.430770 172.333330
9.98 10.014670 4.376920 84.138460 173.333330
9.97 10.004060 4.392310 83.846150 173.888890
9.96 9.993450 4.407690 83.553850 174.444440
9.95 9.982840 4.423080 83.261540 175.0
9.94 9.974540 4.438460 82.969230 175.555560
9.93 9.966230 4.453850 82.676920 176.111110
9.92 9.957920 4.469230 82.384620 176.666670
9.91 9.949620 4.484620 82.092310 177.222220
9.90 9.941310 4.50 81.80 177.777780
9.89 9.930020 4.50 82.107690 178.333330
9.88 9.918740 4.50 82.415380 178.888890
9.87 9.907450 4.50 82.723080 179.444440
9.86 9.896160 4.50 83.030770 180.0
9.85 9.885550 4.50 83.338460 178.333330
9.84 9.874940 4.50 83.646150 176.666670
9.83 9.864330 4.50 83.953850 175.0
9.82 9.853720 4.50 84.261540 173.333330
9.81 9.84560 4.50 84.569230 171.666670
9.80 9.837470 4.50 84.876920 170.0
9.79 9.829350 4.50 85.184620 168.333330
9.78 9.821220 4.50 85.492310 166.666670
9.77 9.813090 4.50 85.80 165.0
9.76 9.802030 4.50 85.691670 163.333330
9.75 9.790970 4.50 85.583330 161.666670
9.74 9.779910 4.50 85.4750 160.0
9.73 9.768850 4.50 85.366670 159.722220
9.72 9.758470 4.50 85.258330 159.444440
9.71 9.748080 4.50 85.150 159.166670
9.70 9.73770 4.50 85.041670 158.888890
9.69 9.727310 4.50 84.933330 158.611110
9.68 9.717160 4.50 84.8250 158.333330
9.67 9.7070 4.50 84.716670 158.055560
9.66 9.696840 4.50 84.608330 157.777780
9.65 9.686680 4.50 84.50 157.50
9.64 9.675620 4.438460 84.369230 157.222220
9.63 9.664560 4.376920 84.238460 156.944440
9.62 9.65350 4.315380 84.107690 156.666670
9.61 9.642440 4.253850 83.976920 160.384620
9.60 9.632050 4.192310 83.846150 164.102560
9.59 9.621670 4.130770 83.715380 167.820510
9.58 9.611290 4.069230 83.584620 171.538460
9.57 9.60090 4.007690 83.453850 175.256410
9.56 9.592780 3.946150 83.323080 178.974360
9.55 9.584650 3.884620 83.192310 182.692310
9.54 9.576520 3.823080 83.061540 186.410260
9.53 9.56840 3.761540 82.930770 190.128210
9.52 9.560270 3.70 82.80 193.846150
9.51 9.549210 3.738460 82.353850 197.56410
9.50 9.538150 3.776920 81.907690 201.282050
9.49 9.527090 3.815380 81.461540 205.0
9.48 9.516030 3.853850 81.015380 206.153850
9.47 9.505640 3.892310 80.569230 207.307690
9.46 9.495260 3.930770 80.123080 208.461540
9.45 9.484880 3.969230 79.676920 209.615380
9.44 9.474490 4.007690 79.230770 210.769230
9.43 9.466370 4.046150 78.784620 211.923080
9.42 9.458240 4.084620 78.338460 213.076920
9.41 9.450110 4.123080 77.892310 214.230770
9.40 9.441990 4.161540 77.446150 215.384620
9.39 9.433860 4.20 77.0 216.538460
9.38 9.422570 4.2250 78.050 217.692310
9.37 9.411290 4.250 79.10 218.846150
9.36 9.40 4.2750 80.150 220.0
9.35 9.388710 4.30 81.20 218.888890
9.34 9.37810 4.3250 82.250 217.777780
9.33 9.367490 4.350 83.30 216.666670
9.32 9.356880 4.3750 84.350 215.555560
9.31 9.346280 4.40 85.40 214.444440
9.30 9.336120 4.4250 86.450 213.333330
9.29 9.325960 4.450 87.50 212.222220
9.28 9.31580 4.4750 88.550 211.111110
9.27 9.305640 4.50 89.60 210.0
9.26 9.296790 4.492310 89.496150 208.888890
9.25 9.287950 4.484620 89.392310 207.777780
9.24 9.27910 4.476920 89.288460 206.666670
9.23 9.270250 4.469230 89.184620 206.410260
9.22 9.26140 4.461540 89.080770 206.153850
9.21 9.250560 4.453850 88.976920 205.897440
9.20 9.239730 4.446150 88.873080 205.641030
9.19 9.228890 4.438460 88.769230 205.384620
9.18 9.218060 4.430770 88.665380 205.128210
9.17 9.20790 4.423080 88.561540 204.871790
9.16 9.197740 4.415380 88.457690 204.615380
9.15 9.187580 4.407690 88.353850 204.358970
9.14 9.177430 4.40 88.250 204.102560
9.13 9.16840 4.392310 88.146150 203.846150
9.12 9.159370 4.384620 88.042310 203.589740
9.11 9.150340 4.376920 87.938460 203.333330
9.10 9.141310 4.369230 87.834620 202.051280
9.09 9.132280 4.361540 87.730770 200.769230
9.08 9.121670 4.353850 87.626920 199.487180
9.07 9.111060 4.346150 87.523080 198.205130
9.06 9.100450 4.338460 87.419230 196.923080
9.05 9.089840 4.330770 87.315380 195.641030
