~VERSION INFORMATION SECTION
VERS. 2.0 : CWLS LAS-VERSION 2.0
WRAP. NO : One line per depth step
~WELL INFORMATION SECTION
# MNEM.UNIT VALUE/NAME DESCRIPTION
#-------- -------------- ---------------------
STRT.Metres 11 : Start
STOP.Metres 0.48 : Stop
STEP.Metres -0.01 : Step
NULL.  -999.25 :NULL VALUE
DATE. 2025-04-11 : DATE
~CURVE INFORMATION SECTION
DEPTH.Metres : 0 Depth
Depth. : 1 Depth
Incline.Deg : 2 Incline
Azimuth.Deg : 3 Azimuth
GR.CPS : 4 GR
~PARAMETER INFORMATION SECTION
~OTHER
#-------------------------------------------------
#Produced By: GeoVista Logger - Version 7.1.107.0
Natural Gamma Sonde - 6447
Verticality Sonde - 6292
#-------------------------------------------------
~ASCII LOG DATA
# ...
8.82 8.835210 4.120 84.080 198.0
8.81 8.818060 4.140 84.760 189.333330
8.80 8.809930 4.160 85.440 180.666670
8.79 8.801810 4.180 86.120 172.0
8.78 8.793230 4.20 86.80 163.333330
8.77 8.784650 4.20 86.360 163.333330
8.76 8.767490 4.20 85.920 163.333330
8.75 8.758920 4.20 85.480 163.333330
8.74 8.750340 4.20 85.040 163.333330
8.73 8.742210 4.20 84.60 163.333330
8.72 8.734090 4.180 84.480 167.333330
8.71 8.725510 4.160 84.360 171.333330
8.70 8.716930 4.140 84.240 175.333330
8.69 8.699770 4.120 84.120 179.333330
8.68 8.691650 4.10 84.0 183.333330
8.67 8.683520 4.120 83.720 184.0
8.66 8.674940 4.140 83.440 184.666670
8.65 8.666370 4.160 83.160 185.333330
8.64 8.649210 4.180 82.880 186.0
8.63 8.640630 4.20 82.60 186.666670
8.62 8.632050 4.20 83.0 181.333330
8.61 8.623930 4.20 83.40 176.0
8.60 8.61580 4.20 83.80 170.666670
8.59 8.598650 4.20 84.20 165.333330
8.58 8.590070 4.20 84.60 160.0
8.57 8.581490 4.20 85.0 164.0
8.56 8.572910 4.20 84.30 168.0
8.55 8.564330 4.20 83.60 172.0
8.54 8.548080 4.20 82.90 176.0
8.53 8.53950 4.20 82.20 180.0
8.52 8.530930 4.20 81.50 178.666670
8.51 8.522350 4.20 82.0 177.333330
8.50 8.513770 4.20 82.50 176.0
8.49 8.505190 4.20 83.0 174.666670
8.48 8.496610 4.20 83.50 173.333330
8.47 8.479460 4.20 84.0 175.0
8.46 8.471330 4.20 84.180 176.666670
8.45 8.463210 4.20 84.360 178.333330
8.44 8.454630 4.20 84.540 180.0
8.43 8.446050 4.20 84.720 181.666670
8.42 8.428890 4.20 84.90 183.333330
8.41 8.420320 4.20 84.120 174.666670
8.40 8.411740 4.20 83.340 166.0
8.39 8.403160 4.20 82.560 157.333330
8.38 8.394580 4.20 81.780 148.666670
8.37 8.377430 4.20 81.0 140.0
8.36 8.368850 4.20 81.10 155.333330
8.35 8.360270 4.20 81.20 170.666670
8.34 8.351690 4.20 81.30 186.0
8.33 8.343120 4.20 81.40 201.333330
8.32 8.334540 4.20 81.50 216.666670
8.31 8.325960 4.20 81.50 207.526880
8.30 8.30880 4.20 81.50 198.38710
8.29 8.300230 4.20 81.50 189.247310
8.28 8.291650 4.20 81.50 180.107530
8.27 8.283070 4.20 81.50 170.967740
8.26 8.274490 4.20 80.920 167.440860
8.25 8.257340 4.20 80.340 163.913980
8.24 8.248760 4.20 79.760 160.38710
8.23 8.240180 4.20 79.180 156.860220
8.22 8.23160 4.20 78.60 153.333330
8.21 8.223020 4.220 79.30 160.0
8.20 8.214450 4.240 80.0 166.666670
8.19 8.205870 4.260 80.70 173.333330
8.18 8.187810 4.280 81.40 180.0
8.17 8.179680 4.30 82.10 186.666670
8.16 8.171560 4.30 81.760 202.666670
8.15 8.162530 4.30 81.420 218.666670
8.14 8.15350 4.30 81.080 234.666670
8.13 8.144920 4.30 80.740 250.666670
8.12 8.136340 4.30 80.40 266.666670
8.11 8.119190 4.30 80.120 247.222220
8.10 8.110610 4.30 79.840 227.777780
8.09 8.102030 4.30 79.560 208.333330
8.08 8.093450 4.30 79.280 188.888890
8.07 8.084880 4.30 79.0 169.444440
8.06 8.067720 4.316670 78.933330 150.0
8.05 8.059140 4.333330 78.866670 148.0
8.04 8.050560 4.350 78.80 146.0
8.03 8.041530 4.366670 78.733330 144.0
8.02 8.032510 4.383330 78.666670 142.0
8.01 8.023930 4.40 78.60 140.0
8.00 8.015350 4.40 79.080 145.333330
7.99 7.998190 4.40 79.560 150.666670
7.98 7.989620 4.40 80.040 156.0
7.97 7.981040 4.40 80.520 161.333330
7.96 7.972460 4.40 81.0 166.666670
7.95 7.963880 4.360 80.580 164.0
7.94 7.946730 4.320 80.160 161.333330
7.93 7.93860 4.280 79.740 158.666670
7.92 7.930470 4.240 79.320 156.0
7.91 7.92190 4.20 78.90 153.333330
7.90 7.913320 4.220 79.740 150.0
7.89 7.904740 4.240 80.580 146.666670
7.88 7.896160 4.260 81.420 143.333330
7.87 7.879910 4.280 82.260 140.0
7.86 7.871330 4.30 83.10 136.666670
7.85 7.862750 4.30 83.260 145.333330
7.84 7.854180 4.30 83.420 154.0
7.83 7.84560 4.30 83.580 162.666670
7.82 7.828440 4.30 83.740 171.333330
7.81 7.819860 4.30 83.90 180.0
7.80 7.811290 4.30 82.880 172.0
7.79 7.803160 4.30 81.860 164.0
7.78 7.795030 4.30 80.840 156.0
7.77 7.777880 4.30 79.820 148.0
7.76 7.76930 4.30 78.80 140.0
7.75 7.760720 4.30 79.033330 148.666670
7.74 7.752140 4.30 79.266670 157.333330
7.73 7.743570 4.30 79.50 166.0
7.72 7.726410 4.30 79.733330 174.666670
7.71 7.718280 4.30 79.966670 183.333330
7.70 7.710160 4.30 80.20 184.666670
7.69 7.701580 4.30 80.640 186.0
7.68 7.6930 4.30 81.080 187.333330
7.67 7.684420 4.30 81.520 188.666670
7.66 7.675850 4.30 81.960 190.0
7.65 7.658690 4.30 82.40 196.111110
7.64 7.650110 4.30 82.440 202.222220
7.63 7.641530 4.30 82.480 208.333330
7.62 7.633410 4.30 82.520 214.444440
7.61 7.625280 4.30 82.560 220.555560
7.60 7.608130 4.30 82.60 226.666670
7.59 7.599550 4.30 82.140 222.0
7.58 7.590970 4.30 81.680 217.333330
7.57 7.582840 4.30 81.220 212.666670
7.56 7.574720 4.30 80.760 208.0
7.55 7.557560 4.30 80.30 203.333330
7.54 7.548980 4.30 80.60 204.666670
7.53 7.540410 4.30 80.90 206.0
7.52 7.531830 4.30 81.20 207.333330
7.51 7.523250 4.30 81.50 208.666670
7.50 7.514670 4.30 81.80 210.0
7.49 7.506090 4.280 81.820 204.666670
7.48 7.489840 4.260 81.840 199.333330
7.47 7.481260 4.240 81.860 194.0
7.46 7.472690 4.220 81.880 188.666670
7.45 7.464110 4.20 81.90 183.333330
7.44 7.455530 4.220 81.640 180.0
7.43 7.438370 4.240 81.380 176.666670
7.42 7.42980 4.260 81.120 173.333330
7.41 7.421220 4.280 80.860 170.0
7.40 7.412640 4.30 80.60 166.666670
7.39 7.404060 4.30 80.980 178.0
7.38 7.395490 4.30 81.360 189.333330
7.37 7.386910 4.30 81.740 200.666670
7.36 7.369750 4.30 82.120 212.0
7.35 7.361170 4.30 82.50 223.333330
7.34 7.35260 4.280 82.10 207.698920
7.33 7.344020 4.260 81.70 192.064520
7.32 7.335440 4.240 81.30 176.430110
7.31 7.318280 4.220 80.90 160.79570
7.30 7.309710 4.20 80.50 145.161290
7.29 7.301130 4.20 81.040 170.412190
7.28 7.292550 4.20 81.580 195.663080
7.27 7.283970 4.20 82.120 220.913980
7.26 7.27540 4.20 82.660 246.164870
7.25 7.266820 4.20 83.20 271.415770
7.24 7.249660 4.20 83.120 296.666670
7.23 7.241080 4.20 83.040 280.0
7.22 7.232510 4.20 82.960 263.333330
7.21 7.223930 4.20 82.880 246.666670
7.20 7.215350 4.20 82.80 230.0
7.19 7.198190 4.20 82.683330 213.333330
7.18 7.189620 4.20 82.566670 208.0
7.17 7.181040 4.20 82.450 202.666670
7.16 7.172460 4.20 82.333330 197.333330
7.15 7.163880 4.20 82.216670 192.0
7.14 7.15530 4.20 82.10 186.666670
7.13 7.146730 4.180 81.820 199.333330
7.12 7.129570 4.160 81.540 212.0
7.11 7.120990 4.140 81.260 224.666670
7.10 7.112420 4.120 80.980 237.333330
7.09 7.103840 4.10 80.70 250.0
7.08 7.095260 4.10 80.960 240.666670
7.07 7.07810 4.10 81.220 231.333330
7.06 7.069530 4.10 81.480 222.0
7.05 7.060950 4.10 81.740 212.666670
7.04 7.052370 4.10 82.0 203.333330
7.03 7.043790 4.10 82.260 199.333330
7.02 7.035210 4.10 82.520 195.333330
7.01 7.026640 4.10 82.780 191.333330
7.00 7.009480 4.10 83.040 187.333330
6.99 7.001350 4.10 83.30 183.333330
6.98 6.993230 4.020 83.240 186.666670
6.97 6.984650 3.940 83.180 190.0
6.96 6.976070 3.860 83.120 193.333330
6.95 6.958920 3.780 83.060 196.666670
6.94 6.950340 3.70 83.0 200.0
6.93 6.941760 3.727270 83.0 194.666670
6.92 6.933180 3.754550 83.0 189.333330
6.91 6.92460 3.781820 83.0 184.0
6.90 6.907450 3.809090 83.0 178.666670
6.89 6.898870 3.836360 83.0 173.333330
6.88 6.890290 3.863640 83.0 173.333330
6.87 6.881720 3.890910 83.0 173.333330
6.86 6.873140 3.918180 83.0 173.333330
6.85 6.865010 3.945450 83.0 173.333330
6.84 6.856880 3.972730 83.0 173.333330
6.83 6.839730 4.0 83.0 167.222220
6.82 6.831150 4.0 82.320 161.111110
6.81 6.822570 4.0 81.640 155.0
6.80 6.806320 4.0 80.960 148.888890
6.79 6.798190 4.0 80.280 142.777780
6.78 6.790070 4.0 79.60 136.666670
6.77 6.781490 3.980 80.540 137.333330
6.76 6.772910 3.960 81.480 138.0
6.75 6.756660 3.940 82.420 138.666670
6.74 6.748530 3.920 83.360 139.333330
6.73 6.740410 3.90 84.30 140.0
6.72 6.731830 3.90 83.960 155.333330
6.71 6.723250 3.90 83.620 170.666670
6.70 6.715120 3.90 83.280 186.0
6.69 6.7070 3.90 82.940 201.333330
6.68 6.689840 3.90 82.60 216.666670
6.67 6.681260 3.90 81.90 212.666670
6.66 6.672690 3.90 81.20 208.666670
6.65 6.664560 3.90 80.50 204.666670
6.64 6.656430 3.90 79.80 200.666670
6.63 6.639280 3.90 79.10 196.666670
6.62 6.63070 3.90 79.760 188.0
6.61 6.622120 3.90 80.420 179.333330
6.60 6.613540 3.90 81.080 170.666670
6.59 6.604970 3.90 81.740 162.0
6.58 6.587810 3.90 82.40 153.333330
6.57 6.579230 3.880 82.060 150.666670
