~VERSION INFORMATION SECTION
VERS. 2.0 : CWLS LAS-VERSION 2.0
WRAP. NO : One line per depth step
~WELL INFORMATION SECTION
# MNEM.UNIT VALUE/NAME DESCRIPTION
#-------- -------------- ---------------------
STRT.Metres 11 : Start
STOP.Metres 0.38 : Stop
STEP.Metres -0.01 : Step
NULL.  -999.25 :NULL VALUE
DATE. 2025-01-11 : DATE
~CURVE INFORMATION SECTION
DEPTH.Metres : 0 Depth
Depth. : 1 Depth
Incline.Deg : 2 Incline
Azimuth.Deg : 3 Azimuth
GR.CPS : 4 GR
~PARAMETER INFORMATION SECTION
~OTHER
#-------------------------------------------------
#Produced By: GeoVista Logger - Version 7.1.107.0
Natural Gamma Sonde - 6447
Verticality Sonde - 6292
#-------------------------------------------------
~ASCII LOG DATA
# ...
2.46 2.464110 2.9750 57.1750 196.666670
2.45 2.453270 3.0 57.0 190.0
2.44 2.443340 2.966670 57.966670 170.752690
2.43 2.433410 2.933330 58.933330 151.505380
2.42 2.422570 2.90 59.90 132.258060
2.41 2.411740 2.866670 59.70 143.72760
2.40 2.401810 2.833330 59.50 155.197130
2.39 2.390970 2.80 59.30 166.666670
2.38 2.380140 2.833330 59.10 167.777780
2.37 2.375170 2.866670 58.90 168.888890
2.36 2.37020 2.90 58.70 170.0
2.35 2.359370 2.866670 59.133330 165.833330
2.34 2.349440 2.833330 59.566670 161.666670
2.33 2.33950 2.80 60.0 157.50
2.32 2.328670 2.80 59.20 153.333330
2.31 2.317830 2.80 58.40 151.111110
2.30 2.30790 2.80 57.60 148.888890
2.29 2.297070 2.8250 57.750 146.666670
2.28 2.286230 2.850 57.90 155.555560
2.27 2.27630 2.8750 58.050 164.444440
2.26 2.265460 2.90 58.20 173.333330
2.25 2.254630 2.883330 58.50 181.111110
2.24 2.24470 2.866670 58.80 188.888890
2.23 2.233860 2.850 59.10 196.666670
2.22 2.223930 2.833330 59.40 190.0
2.21 2.2140 2.816670 59.70 183.333330
2.20 2.203160 2.80 60.0 176.666670
2.19 2.192330 2.80 57.30 166.666670
2.18 2.182390 2.80 54.60 156.666670
2.17 2.172460 2.80 51.90 146.666670
2.16 2.161630 2.733330 54.333330 158.888890
2.15 2.151690 2.666670 56.766670 171.111110
2.14 2.141760 2.60 59.20 183.333330
2.13 2.130930 2.633330 58.233330 176.666670
2.12 2.120990 2.666670 57.266670 170.0
2.11 2.111060 2.70 56.30 163.333330
2.10 2.100230 2.633330 58.333330 172.50
2.09 2.090290 2.566670 60.366670 181.666670
2.08 2.080360 2.50 62.40 190.833330
2.07 2.07540 2.5250 59.950 200.0
2.06 2.070430 2.550 57.50 190.0
2.05 2.059590 2.5750 55.050 180.0
2.04 2.048760 2.60 52.60 170.0
2.03 2.038830 2.60 53.50 160.0
2.02 2.028890 2.60 54.40 150.0
2.01 2.018060 2.60 55.30 140.0
2.00 2.007220 2.60 56.20 137.777780
1.99 1.997290 2.60 57.10 135.555560
1.98 1.986460 2.60 58.0 133.333330
1.97 1.976520 2.60 56.70 141.111110
1.96 1.965690 2.60 55.40 148.888890
1.95 1.954850 2.60 54.10 156.666670
1.94 1.944920 2.60 53.033330 156.666670
1.93 1.934090 2.60 51.966670 156.666670
1.92 1.923250 2.60 50.90 156.666670
1.91 1.912420 2.566670 53.733330 155.0
1.90 1.902480 2.533330 56.566670 153.333330
1.89 1.891650 2.50 59.40 151.666670
1.88 1.880810 2.433330 58.0 150.0
1.87 1.870880 2.366670 56.60 150.0
1.86 1.865460 2.30 55.20 150.0
1.85 1.860050 2.40 55.966670 150.0
1.84 1.849210 2.50 56.733330 161.290320
1.83 1.839280 2.60 57.50 172.580650
1.82 1.828440 2.533330 57.333330 183.870970
1.81 1.818510 2.466670 57.166670 170.358420
1.80 1.807670 2.40 57.0 156.845880
1.79 1.796840 2.40 56.80 143.333330
1.78 1.786910 2.40 56.60 146.666670
1.77 1.776980 2.40 56.40 150.0
1.76 1.765240 2.40 56.20 153.333330
1.75 1.75530 2.433330 58.40 168.888890
1.74 1.745370 2.466670 60.60 184.444440
1.73 1.733630 2.50 62.80 200.0
1.72 1.72370 2.433330 61.666670 191.111110
1.71 1.712870 2.366670 60.533330 182.222220
1.70 1.702030 2.30 59.40 173.333330
1.69 1.69210 2.266670 60.30 178.333330
1.68 1.681260 2.233330 61.20 183.333330
1.67 1.670430 2.20 62.10 188.333330
1.66 1.665460 2.233330 60.333330 193.333330
1.65 1.66050 2.266670 58.566670 175.555560
1.64 1.649660 2.30 56.80 157.777780
1.63 1.638830 2.266670 57.583330 140.0
1.62 1.628890 2.233330 58.366670 146.666670
1.61 1.618060 2.20 59.150 153.333330
1.60 1.607220 2.166670 59.933330 160.0
1.59 1.597290 2.133330 60.716670 161.666670
1.58 1.587360 2.10 61.50 163.333330
1.57 1.576520 2.1250 61.750 165.0
1.56 1.565690 2.150 62.0 163.333330
1.55 1.555760 2.1750 62.250 161.666670
1.54 1.544920 2.20 62.50 160.0
1.53 1.534990 2.166670 62.333330 154.444440
1.52 1.525060 2.133330 62.166670 148.888890
1.51 1.514220 2.10 62.0 143.333330
1.50 1.503390 2.10 63.633330 157.50
1.49 1.493450 2.10 65.266670 171.666670
1.48 1.482620 2.10 66.90 185.833330
1.47 1.472690 2.133330 63.766670 200.0
1.46 1.462750 2.166670 60.633330 198.888890
1.45 1.451920 2.20 57.50 197.777780
1.44 1.441080 2.166670 57.533330 196.666670
1.43 1.431150 2.133330 57.566670 176.666670
1.42 1.420320 2.10 57.60 156.666670
1.41 1.410380 2.033330 57.20 136.666670
1.40 1.405420 1.966670 56.80 148.686870
1.39 1.400450 1.90 56.40 160.707070
1.38 1.389620 1.90 55.750 172.727270
1.37 1.378780 1.90 55.10 151.993620
1.36 1.368850 1.90 54.450 131.259970
1.35 1.358010 1.90 53.80 110.526320
1.34 1.347180 1.866670 53.70 123.684210
1.33 1.337250 1.833330 53.60 136.842110
1.32 1.326410 1.80 53.50 150.0
1.31 1.316480 1.833330 54.60 151.111110
1.30 1.306550 1.866670 55.70 152.222220
1.29 1.295710 1.90 56.80 153.333330
1.28 1.283520 1.866670 54.20 151.111110
1.27 1.273140 1.833330 51.60 148.888890
1.26 1.263460 1.80 49.0 146.666670
1.25 -999.25 1.80 50.766670 154.767030
1.24 -999.25 1.80 52.533330 162.867380
1.23 -999.25 1.80 54.30 170.967740
1.22 -999.25 1.850 52.450 179.534050
1.21 -999.25 1.90 50.60 188.100360
1.20 -999.25 1.950 48.750 196.666670
1.19 -999.25 2.0 46.90 193.750
1.18 -999.25 2.050 45.050 190.833330
1.17 -999.25 2.10 43.20 187.916670
1.16 -999.25 1.966670 44.50 185.0
1.15 -999.25 1.833330 45.80 170.0
1.14 -999.25 1.70 47.10 155.0
1.13 -999.25 1.666670 48.40 140.0
1.12 -999.25 1.633330 49.70 144.444440
1.11 -999.25 1.60 51.0 148.888890
1.10 -999.25 1.60 52.150 153.333330
1.09 -999.25 1.60 53.30 144.444440
1.08 -999.25 1.60 54.450 135.555560
1.07 -999.25 1.60 55.60 126.666670
1.06 -999.25 1.70 49.066670 135.555560
1.05 -999.25 1.80 42.533330 144.444440
1.04 -999.25 1.90 36.0 153.333330
1.03 -999.25 1.766670 39.333330 148.888890
1.02 -999.25 1.633330 42.666670 144.444440
1.01 -999.25 1.50 46.0 140.0
1.00 -999.25 1.650 43.350 145.909090
0.99 -999.25 1.80 40.70 151.818180
0.98 -999.25 1.650 39.350 157.727270
0.97 -999.25 1.50 38.0 163.636360
0.96 -999.25 1.366670 38.466670 152.950560
0.95 -999.25 -999.25 -999.25 142.264750
0.94 -999.25 -999.25 -999.25 131.578950
0.93 -999.25 -999.25 -999.25 127.71930
0.92 -999.25 -999.25 -999.25 123.859650
0.91 -999.25 -999.25 -999.25 120.0
0.90 -999.25 -999.25 -999.25 125.555560
0.89 -999.25 -999.25 -999.25 131.111110
0.88 -999.25 -999.25 -999.25 136.666670
0.87 -999.25 -999.25 -999.25 132.222220
0.86 -999.25 -999.25 -999.25 127.777780
0.85 -999.25 -999.25 -999.25 123.333330
0.84 -999.25 -999.25 -999.25 141.111110
0.83 -999.25 -999.25 -999.25 158.888890
0.82 -999.25 -999.25 -999.25 176.666670
0.81 -999.25 -999.25 -999.25 168.888890
0.80 -999.25 -999.25 -999.25 161.111110
0.79 -999.25 -999.25 -999.25 153.333330
0.78 -999.25 -999.25 -999.25 155.833330
0.77 -999.25 -999.25 -999.25 158.333330
0.76 -999.25 -999.25 -999.25 160.833330
0.75 -999.25 -999.25 -999.25 163.333330
0.74 -999.25 -999.25 -999.25 165.555560
0.73 -999.25 -999.25 -999.25 167.777780
0.72 -999.25 -999.25 -999.25 170.0
0.71 -999.25 -999.25 -999.25 151.111110
0.70 -999.25 -999.25 -999.25 132.222220
0.69 -999.25 -999.25 -999.25 113.333330
0.68 -999.25 -999.25 -999.25 113.189960
0.67 -999.25 -999.25 -999.25 113.046590
0.66 -999.25 -999.25 -999.25 112.903230
0.65 -999.25 -999.25 -999.25 123.046590
0.64 -999.25 -999.25 -999.25 133.189960
0.63 -999.25 -999.25 -999.25 143.333330
0.62 -999.25 -999.25 -999.25 152.222220
0.61 -999.25 -999.25 -999.25 161.111110
0.60 -999.25 -999.25 -999.25 170.0
0.59 -999.25 -999.25 -999.25 140.0
0.58 -999.25 -999.25 -999.25 110.0
0.57 -999.25 -999.25 -999.25 80.0
0.56 -999.25 -999.25 -999.25 95.0
0.55 -999.25 -999.25 -999.25 110.0
0.54 -999.25 -999.25 -999.25 125.0
0.53 -999.25 -999.25 -999.25 131.250
0.52 -999.25 -999.25 -999.25 137.50
0.51 -999.25 -999.25 -999.25 143.750
0.50 -999.25 -999.25 -999.25 150.0
0.49 -999.25 -999.25 -999.25 153.333330
0.48 -999.25 -999.25 -999.25 156.666670
0.47 -999.25 -999.25 -999.25 160.0
0.46 -999.25 -999.25 -999.25 157.777780
0.45 -999.25 -999.25 -999.25 155.555560
0.44 -999.25 -999.25 -999.25 153.333330
0.43 -999.25 -999.25 -999.25 148.888890
0.42 -999.25 -999.25 -999.25 144.444440
0.41 -999.25 -999.25 -999.25 140.0
0.40 -999.25 -999.25 -999.25 193.333330
0.39 -999.25 -999.25 -999.25 135.0
0.38 -999.25 -999.25 -999.25 184.444440
