~VERSION INFORMATION SECTION
VERS. 2.0 : CWLS LAS-VERSION 2.0
WRAP. NO : One line per depth step
~WELL INFORMATION SECTION
# MNEM.UNIT VALUE/NAME DESCRIPTION
#-------- -------------- ---------------------
STRT.Metres 11 : Start
STOP.Metres 0.48 : Stop
STEP.Metres -0.01 : Step
NULL.  -999.25 :NULL VALUE
DATE. 2025-09-11 : DATE
~CURVE INFORMATION SECTION
DEPTH.Metres : 0 Depth
Depth. : 1 Depth
Incline.Deg : 2 Incline
Azimuth.Deg : 3 Azimuth
GR.CPS : 4 GR
~PARAMETER INFORMATION SECTION
~OTHER
#-------------------------------------------------
#Produced By: GeoVista Logger - Version 7.1.107.0
Natural Gamma Sonde - 6447
Verticality Sonde - 6292
#-------------------------------------------------
~ASCII LOG DATA
# ...
3.23 3.272230 3.50 69.80 184.871790
3.22 3.26140 3.461540 69.50 185.0
3.21 3.250560 3.423080 69.20 190.0
3.20 3.239730 3.384620 68.90 195.0
3.19 3.228890 3.346150 68.60 200.0
3.18 3.218280 3.307690 68.30 205.0
3.17 3.207670 3.269230 68.0 210.0
3.16 3.197070 3.230770 67.70 215.0
3.15 3.186460 3.192310 67.40 220.0
3.14 3.177790 3.153850 67.10 225.0
3.13 3.169120 3.115380 66.80 230.0
3.12 3.160450 3.076920 66.50 235.0
3.11 3.151780 3.038460 66.20 240.0
3.10 3.143120 3.0 65.90 245.0
3.09 3.132050 2.9750 66.141670 250.0
3.08 3.120990 2.950 66.383330 244.102560
3.07 3.109930 2.9250 66.6250 238.205130
3.06 3.098870 2.90 66.866670 232.307690
3.05 3.087810 2.8750 67.108330 226.410260
3.04 3.076750 2.850 67.350 220.512820
3.03 3.065690 2.8250 67.591670 214.615380
3.02 3.054630 2.80 67.833330 208.717950
3.01 3.046320 2.7750 68.0750 202.820510
3.00 3.038010 2.750 68.316670 196.923080
2.99 3.029710 2.7250 68.558330 191.025640
2.98 3.02140 2.70 68.80 185.128210
2.97 3.013090 2.723080 69.684620 179.230770
2.96 3.002260 2.746150 70.569230 173.333330
2.95 2.991420 2.769230 71.453850 175.384620
2.94 2.980590 2.792310 72.338460 177.43590
2.93 2.969750 2.815380 73.223080 179.487180
2.92 2.958920 2.838460 74.107690 181.538460
2.91 2.948080 2.861540 74.992310 183.589740
2.90 2.937250 2.884620 75.876920 185.641030
2.89 2.926410 2.907690 76.761540 187.692310
2.88 2.917740 2.930770 77.646150 189.743590
2.87 2.909070 2.953850 78.530770 191.794870
2.86 2.900410 2.976920 79.415380 193.846150
2.85 2.891740 3.0 80.30 195.897440
2.84 2.883070 3.023080 79.707690 197.948720
2.83 2.872230 3.046150 79.115380 200.0
2.82 2.86140 3.069230 78.523080 201.282050
2.81 2.850560 3.092310 77.930770 202.56410
2.80 2.839730 3.115380 77.338460 203.846150
2.79 2.828890 3.138460 76.746150 205.128210
2.78 2.818060 3.161540 76.153850 206.410260
2.77 2.807220 3.184620 75.561540 207.692310
2.76 2.796390 3.207690 74.969230 208.974360
2.75 2.787720 3.230770 74.376920 210.256410
2.74 2.779050 3.253850 73.784620 211.538460
2.73 2.770380 3.276920 73.192310 212.820510
2.72 2.761720 3.30 72.60 214.102560
2.71 2.753050 3.276920 71.523080 215.384620
2.70 2.741990 3.253850 70.446150 216.666670
2.69 2.730930 3.230770 69.369230 213.076920
2.68 2.719860 3.207690 68.292310 209.487180
2.67 2.70880 3.184620 67.215380 205.897440
2.66 2.697970 3.161540 66.138460 202.307690
2.65 2.687130 3.138460 65.061540 198.717950
2.64 2.67630 3.115380 63.984620 195.128210
2.63 2.665460 3.092310 62.907690 191.538460
2.62 2.656790 3.069230 61.830770 187.948720
2.61 2.648130 3.046150 60.753850 184.358970
2.60 2.639460 3.023080 59.676920 180.769230
2.59 2.630790 3.0 58.60 177.179490
2.58 2.622120 2.961540 59.876920 173.589740
2.57 2.611290 2.923080 61.153850 170.0
2.56 2.600450 2.884620 62.430770 172.307690
2.55 2.589620 2.846150 63.707690 174.615380
2.54 2.578780 2.807690 64.984620 176.923080
2.53 2.567720 2.769230 66.261540 179.230770
2.52 2.556660 2.730770 67.538460 181.538460
2.51 2.54560 2.692310 68.815380 183.846150
2.50 2.534540 2.653850 70.092310 186.153850
2.49 2.526050 2.615380 71.369230 188.461540
2.48 2.517560 2.576920 72.646150 190.769230
2.47 2.509070 2.538460 73.923080 193.076920
2.46 2.500590 2.50 75.20 195.384620
2.45 2.49210 2.469230 74.707690 197.692310
2.44 2.481260 2.438460 74.215380 200.0
2.43 2.470430 2.407690 73.723080 195.128210
2.42 2.459590 2.376920 73.230770 190.256410
2.41 2.448760 2.346150 72.738460 185.384620
2.40 2.437920 2.315380 72.246150 180.512820
2.39 2.427090 2.284620 71.753850 175.641030
2.38 2.416250 2.253850 71.261540 170.769230
2.37 2.405420 2.223080 70.769230 165.897440
2.36 2.396750 2.192310 70.276920 161.025640
2.35 2.388080 2.161540 69.784620 156.153850
2.34 2.379410 2.130770 69.292310 151.282050
2.33 2.370740 2.10 68.80 146.410260
2.32 2.362080 2.119230 68.976920 141.538460
2.31 2.351470 2.138460 69.153850 136.666670
2.30 2.340860 2.157690 69.330770 140.0
2.29 2.330250 2.176920 69.507690 143.333330
2.28 2.319640 2.196150 69.684620 146.666670
2.27 2.309030 2.215380 69.861540 150.0
2.26 2.298420 2.234620 70.038460 153.333330
2.25 2.287810 2.253850 70.215380 156.666670
2.24 2.27720 2.273080 70.392310 160.0
2.23 2.266590 2.292310 70.569230 163.333330
2.22 2.255980 2.311540 70.746150 166.666670
2.21 2.245370 2.330770 70.923080 170.0
2.20 2.234760 2.350 71.10 173.333330
2.19 2.226280 2.369230 71.276920 176.666670
2.18 2.217790 2.388460 71.453850 180.0
2.17 2.20930 2.407690 71.630770 179.487180
2.16 2.200810 2.426920 71.807690 178.974360
2.15 2.192330 2.446150 71.984620 178.461540
2.14 2.181720 2.465380 72.161540 177.948720
2.13 2.171110 2.484620 72.338460 177.43590
2.12 2.16050 2.503850 72.515380 176.923080
2.11 2.149890 2.523080 72.692310 176.410260
2.10 2.139280 2.542310 72.869230 175.897440
2.09 2.128670 2.561540 73.046150 175.384620
2.08 2.118060 2.580770 73.223080 174.871790
2.07 2.107450 2.60 73.40 174.358970
2.06 2.096610 2.607690 72.807690 173.846150
2.05 2.085780 2.615380 72.215380 173.333330
2.04 2.074940 2.623080 71.623080 172.307690
2.03 2.064110 2.630770 71.030770 171.282050
2.02 2.055440 2.638460 70.438460 170.256410
2.01 2.046770 2.646150 69.846150 169.230770
2.00 2.03810 2.653850 69.253850 168.205130
1.99 2.029440 2.661540 68.661540 167.179490
1.98 2.020770 2.669230 68.069230 166.153850
1.97 2.009930 2.676920 67.476920 165.128210
1.96 1.99910 2.684620 66.884620 164.102560
1.95 1.988260 2.692310 66.292310 163.076920
1.94 1.977430 2.70 65.70 162.051280
1.93 1.968580 2.661540 64.430770 161.025640
1.92 1.959730 2.623080 63.161540 160.0
1.91 1.950880 2.584620 61.892310 159.230770
1.90 1.942030 2.546150 60.623080 158.461540
1.89 1.933180 2.507690 59.353850 157.692310
1.88 1.922350 2.469230 58.084620 156.923080
1.87 1.911510 2.430770 56.815380 156.153850
1.86 1.900680 2.392310 55.546150 155.384620
1.85 1.889840 2.353850 54.276920 154.615380
1.84 1.879010 2.315380 53.007690 153.846150
1.83 1.868170 2.276920 51.738460 153.076920
1.82 1.857340 2.238460 50.469230 152.307690
1.81 1.84650 2.20 49.20 151.538460
1.80 1.837830 2.207690 48.230770 150.769230
1.79 1.829160 2.215380 47.261540 150.0
1.78 1.82050 2.223080 46.292310 154.590570
1.77 1.811830 2.230770 45.323080 159.181140
1.76 1.803160 2.238460 44.353850 163.771710
1.75 1.79210 2.246150 43.384620 168.362280
1.74 1.781040 2.253850 42.415380 172.952850
1.73 1.769980 2.261540 41.446150 177.543420
1.72 1.758920 2.269230 40.476920 182.1340
1.71 1.748080 2.276920 39.507690 186.724570
1.70 1.737250 2.284620 38.538460 191.315140
1.69 1.726410 2.292310 37.569230 195.905710
1.68 1.715580 2.30 36.60 200.496280
1.67 1.706910 2.253850 38.476920 205.086850
1.66 1.698240 2.207690 40.353850 209.677420
1.65 1.689570 2.161540 42.230770 209.189410
1.64 1.68090 2.115380 44.107690 208.701410
1.63 1.672230 2.069230 45.984620 208.21340
1.62 1.66140 2.023080 47.861540 207.725390
1.61 1.650560 1.976920 49.738460 207.237390
1.60 1.639730 1.930770 51.615380 206.749380
1.59 1.628890 1.884620 53.492310 206.261370
1.58 1.618060 1.838460 55.369230 205.773370
1.57 1.607220 1.792310 57.246150 205.285360
1.56 1.596390 1.746150 59.123080 204.797350
1.55 1.585550 1.70 61.0 204.309350
1.54 1.574940 1.665380 60.711540 203.821340
1.53 1.564330 1.630770 60.423080 203.333330
1.52 1.553720 1.596150 60.134620 202.307690
1.51 1.543120 1.561540 59.846150 201.282050
1.50 1.530170 1.526920 59.557690 200.256410
1.49 1.517230 1.492310 59.269230 199.230770
1.48 1.504290 1.457690 58.980770 198.205130
1.47 1.493150 1.423080 58.692310 197.179490
1.46 1.482020 1.388460 58.403850 196.153850
1.45 1.470880 1.353850 58.115380 195.128210
1.44 1.457790 1.319230 57.826920 194.102560
1.43 1.44470 1.284620 57.538460 193.076920
1.42 1.434760 1.250 57.250 192.051280
1.41 1.424830 1.215380 56.961540 191.025640
1.40 1.408580 1.180770 56.673080 190.0
1.39 1.395030 1.146150 56.384620 187.083330
1.38 1.38510 1.111540 56.096150 184.166670
1.37 1.373810 1.076920 55.807690 181.250
1.36 1.364330 1.042310 55.519230 178.333330
1.35 1.35350 1.007690 55.230770 175.416670
1.34 -999.25 0.973080 54.942310 172.50
1.33 -999.25 0.938460 54.653850 169.583330
