~VERSION INFORMATION SECTION
VERS. 2.0 : CWLS LAS-VERSION 2.0
WRAP. NO : One line per depth step
~WELL INFORMATION SECTION
# MNEM.UNIT VALUE/NAME DESCRIPTION
#-------- -------------- ---------------------
STRT.Metres 11 : Start
STOP.Metres -0.95 : Stop
STEP.Metres -0.01 : Step
NULL.  -999.25 :NULL VALUE
DATE. 2025-07-11 : DATE
~CURVE INFORMATION SECTION
DEPTH.Metres : 0 Depth
Depth. : 1 Depth
Incline.Deg : 2 Incline
Azimuth.Deg : 3 Azimuth
GR.CPS : 4 GR
~PARAMETER INFORMATION SECTION
~OTHER
#-------------------------------------------------
#Produced By: GeoVista Logger - Version 7.1.107.0
Natural Gamma Sonde - 6447
Verticality Sonde - 6292
#-------------------------------------------------
~ASCII LOG DATA
# ...
6.67 -999.25 3.58750 75.86250 58.372390
6.66 -999.25 3.5750 76.3250 58.530150
6.65 -999.25 3.56250 76.78750 58.687920
6.64 -999.25 3.550 77.250 58.845680
6.63 -999.25 3.53750 77.71250 59.003440
6.62 -999.25 3.5250 78.1750 59.161210
6.61 -999.25 3.51250 78.63750 59.318970
6.60 -999.25 3.50 79.10 59.476730
6.59 -999.25 3.542860 79.957140 59.63450
6.58 -999.25 3.585710 80.814290 59.792260
6.57 -999.25 3.628570 81.671430 59.950020
6.56 -999.25 3.671430 82.528570 60.107790
6.55 -999.25 3.714290 83.385710 60.265550
6.54 -999.25 3.757140 84.242860 60.423310
6.53 -999.25 3.80 85.10 60.581080
6.52 -999.25 3.76250 84.46250 60.738840
6.51 -999.25 3.7250 83.8250 60.89660
6.50 -999.25 3.68750 83.18750 61.054370
6.49 -999.25 3.650 82.550 61.212130
6.48 -999.25 3.61250 81.91250 61.369890
6.47 -999.25 3.5750 81.2750 61.527660
6.46 -999.25 3.53750 80.63750 61.685420
6.45 -999.25 3.50 80.0 61.843180
6.44 -999.25 3.53750 80.43750 62.000940
6.43 -999.25 3.5750 80.8750 62.158710
6.42 -999.25 3.61250 81.31250 62.316470
6.41 -999.25 3.650 81.750 62.474230
6.40 -999.25 3.68750 82.18750 62.6320
6.39 -999.25 3.7250 82.6250 62.789760
6.38 -999.25 3.76250 83.06250 62.947520
6.37 -999.25 3.80 83.50 63.105290
6.36 -999.25 3.80 84.071430 63.263050
6.35 -999.25 3.80 84.642860 63.420810
6.34 -999.25 3.80 85.214290 63.578580
6.33 -999.25 3.80 85.785710 63.736340
6.32 -999.25 3.80 86.357140 63.89410
6.31 -999.25 3.80 86.928570 64.051870
6.30 -999.25 3.80 87.50 64.209630
6.29 -999.25 3.81250 85.96250 64.367390
6.28 -999.25 3.8250 84.4250 64.525160
6.27 -999.25 3.83750 82.88750 64.682920
6.26 -999.25 3.850 81.350 64.840680
6.25 -999.25 3.86250 79.81250 64.998450
6.24 -999.25 3.8750 78.2750 65.156210
6.23 -999.25 3.88750 76.73750 65.313970
6.22 -999.25 3.90 75.20 65.471740
6.21 -999.25 3.90 75.26250 65.62950
6.20 -999.25 3.90 75.3250 65.787260
6.19 -999.25 3.90 75.38750 65.945030
6.18 -999.25 3.90 75.450 66.102790
6.17 -999.25 3.90 75.51250 66.260550
6.16 -999.25 3.90 75.5750 66.418310
6.15 -999.25 3.90 75.63750 66.576080
6.14 -999.25 3.90 75.70 66.733840
6.13 -999.25 3.90 76.80 66.89160
6.12 -999.25 3.90 77.90 67.049370
6.11 -999.25 3.90 79.0 67.207130
6.10 -999.25 3.90 80.10 67.364890
6.09 -999.25 3.90 81.20 67.522660
6.08 -999.25 3.90 82.30 67.680420
6.07 -999.25 3.90 83.40 67.838180
6.06 -999.25 3.90 84.50 67.995950
6.05 -999.25 3.90 83.385710 68.153710
6.04 -999.25 3.90 82.271430 68.311470
6.03 -999.25 3.90 81.157140 68.469240
6.02 -999.25 3.90 80.042860 68.6270
6.01 -999.25 3.90 78.928570 68.784760
6.00 -999.25 3.90 77.814290 68.942530
5.99 -999.25 3.90 76.70 69.100290
5.98 -999.25 3.9250 76.73750 69.258050
5.97 -999.25 3.950 76.7750 69.415820
5.96 -999.25 3.9750 76.81250 69.573580
5.95 -999.25 4.0 76.850 69.731340
5.94 -999.25 4.0250 76.88750 69.889110
5.93 -999.25 4.050 76.9250 70.046870
5.92 -999.25 4.0750 76.96250 70.204630
5.91 -999.25 4.10 77.0 70.36240
5.90 -999.25 4.08750 77.28750 70.520160
5.89 -999.25 4.0750 77.5750 70.677920
5.88 -999.25 4.06250 77.86250 70.835680
5.87 -999.25 4.050 78.150 70.993450
5.86 -999.25 4.03750 78.43750 71.151210
5.85 -999.25 4.0250 78.7250 71.308970
5.84 -999.25 4.01250 79.01250 71.466740
5.83 -999.25 4.0 79.30 71.62450
5.82 -999.25 4.0 78.63750 71.782260
5.81 -999.25 4.0 77.9750 71.940030
5.80 -999.25 4.0 77.31250 72.097790
5.79 -999.25 4.0 76.650 72.255550
5.78 -999.25 4.0 75.98750 72.413320
5.77 -999.25 4.0 75.3250 72.571080
5.76 -999.25 4.0 74.66250 72.728840
5.75 -999.25 4.0 74.0 72.886610
5.74 -999.25 3.957140 73.642860 73.044370
5.73 -999.25 3.914290 73.285710 73.202130
5.72 -999.25 3.871430 72.928570 73.35990
5.71 -999.25 3.828570 72.571430 73.517660
5.70 -999.25 3.785710 72.214290 73.675420
5.69 -999.25 3.742860 71.857140 73.833190
5.68 -999.25 3.70 71.50 73.990950
5.67 -999.25 3.71250 71.6750 74.148710
5.66 -999.25 3.7250 71.850 74.306480
5.65 -999.25 3.73750 72.0250 74.464240
5.64 -999.25 3.750 72.20 74.6220
5.63 -999.25 3.76250 72.3750 74.779770
5.62 -999.25 3.7750 72.550 74.937530
5.61 -999.25 3.78750 72.7250 75.095290
5.60 -999.25 3.80 72.90 75.253060
5.59 -999.25 3.81250 72.88750 75.410820
5.58 -999.25 3.8250 72.8750 75.568580
5.57 -999.25 3.83750 72.86250 75.726340
5.56 -999.25 3.850 72.850 75.884110
5.55 -999.25 3.86250 72.83750 76.041870
5.54 -999.25 3.8750 72.8250 76.199630
5.53 -999.25 3.88750 72.81250 76.35740
5.52 -999.25 3.90 72.80 76.515160
5.51 -999.25 3.885710 73.80 76.672920
5.50 -999.25 3.871430 74.80 76.830690
5.49 -999.25 3.857140 75.80 76.988450
5.48 -999.25 3.842860 76.80 77.146210
5.47 -999.25 3.828570 77.80 77.303980
5.46 -999.25 3.814290 78.80 77.461740
5.45 -999.25 3.80 79.80 77.61950
5.44 -999.25 3.81250 79.53750 77.777270
5.43 -999.25 3.8250 79.2750 77.935030
5.42 -999.25 3.83750 79.01250 78.092790
5.41 -999.25 3.850 78.750 78.250560
5.40 -999.25 3.86250 78.48750 78.408320
5.39 -999.25 3.8750 78.2250 78.566080
5.38 -999.25 3.88750 77.96250 78.723850
5.37 -999.25 3.90 77.70 78.881610
5.36 -999.25 3.86250 77.51250 79.039370
5.35 -999.25 3.8250 77.3250 79.197140
5.34 -999.25 3.78750 77.13750 79.35490
5.33 -999.25 3.750 76.950 79.512660
5.32 -999.25 3.71250 76.76250 79.670430
5.31 -999.25 3.6750 76.5750 79.828190
5.30 -999.25 3.63750 76.38750 79.985950
5.29 -999.25 3.60 76.20 80.143710
5.28 -999.25 3.642860 75.514290 80.301480
5.27 -999.25 3.685710 74.828570 80.459240
5.26 -999.25 3.728570 74.142860 80.6170
5.25 -999.25 3.771430 73.457140 80.774770
5.24 -999.25 3.814290 72.771430 80.932530
5.23 -999.25 3.857140 72.085710 81.090290
5.22 -999.25 3.90 71.40 81.248060
5.21 -999.25 3.91250 72.88750 81.405820
5.20 -999.25 3.9250 74.3750 81.563580
5.19 -999.25 3.93750 75.86250 81.721350
5.18 -999.25 3.950 77.350 81.879110
5.17 -999.25 3.96250 78.83750 82.036870
5.16 -999.25 3.9750 80.3250 82.194640
5.15 -999.25 3.98750 81.81250 82.35240
5.14 -999.25 4.0 83.30 82.510160
5.13 -999.25 4.006250 82.68750 82.667930
5.12 -999.25 4.01250 82.0750 82.825690
5.11 -999.25 4.018750 81.46250 82.983450
5.10 -999.25 4.0250 80.850 83.141220
5.09 -999.25 4.031250 80.23750 83.298980
5.08 -999.25 4.03750 79.6250 83.456740
5.07 -999.25 4.043750 79.01250 83.614510
5.06 -999.25 4.050 78.40 83.772270
5.05 -999.25 4.056250 77.78750 83.930030
5.04 -999.25 4.06250 77.1750 84.08780
5.03 -999.25 4.068750 76.56250 84.245560
5.02 -999.25 4.0750 75.950 84.403320
5.01 -999.25 4.081250 75.33750 84.561080
5.00 -999.25 4.08750 74.7250 84.718850
4.99 -999.25 4.093750 74.11250 84.876610
4.98 -999.25 4.10 73.50 85.034370
4.97 -999.25 4.085710 74.242860 85.192140
4.96 -999.25 4.071430 74.985710 85.34990
4.95 -999.25 4.057140 75.728570 85.507660
4.94 -999.25 4.042860 76.471430 85.665430
4.93 -999.25 4.028570 77.214290 85.823190
4.92 -999.25 4.014290 77.957140 85.980950
4.91 -999.25 4.0 78.70 86.138720
4.90 -999.25 3.98750 77.86250 86.296480
4.89 -999.25 3.9750 77.0250 86.454240
4.88 -999.25 3.96250 76.18750 86.612010
4.87 -999.25 3.950 75.350 86.769770
4.86 -999.25 3.93750 74.51250 86.927530
4.85 -999.25 3.9250 73.6750 87.08530
4.84 -999.25 3.91250 72.83750 87.243060
4.83 -999.25 3.90 72.0 87.400820
4.82 -999.25 3.91250 72.5750 87.558590
4.81 -999.25 3.9250 73.150 87.716350
4.80 -999.25 3.93750 73.7250 87.874110
4.79 -999.25 3.950 74.30 88.031880
4.78 -999.25 3.96250 74.8750 88.189640
4.77 -999.25 3.9750 75.450 88.34740
4.76 -999.25 3.98750 76.0250 88.505170
4.75 -999.25 4.0 76.60 88.662930
4.74 -999.25 4.0 76.185710 88.820690
4.73 -999.25 4.0 75.771430 88.978460
4.72 -999.25 4.0 75.357140 89.136220
4.71 -999.25 4.0 74.942860 89.293980
4.70 -999.25 4.0 74.528570 89.451740
4.69 -999.25 4.0 74.114290 89.609510
4.68 -999.25 4.0 73.70 89.767270
4.67 -999.25 4.0 72.650 89.925030
4.66 -999.25 4.0 71.60 90.08280
4.65 -999.25 4.0 70.550 90.240560
4.64 -999.25 4.0 69.50 90.398320
4.63 -999.25 4.0 68.450 90.556090
4.62 -999.25 4.0 67.40 90.713850
4.61 -999.25 4.0 66.350 90.871610
4.60 -999.25 4.0 65.30 91.029380
4.59 -999.25 3.98750 66.53750 91.187140
4.58 -999.25 3.9750 67.7750 91.34490
4.57 -999.25 3.96250 69.01250 91.502670
4.56 -999.25 3.950 70.250 91.660430
4.55 -999.25 3.93750 71.48750 91.818190
