~VERSION INFORMATION SECTION
VERS. 2.0 : CWLS LAS-VERSION 2.0
WRAP. NO : One line per depth step
~WELL INFORMATION SECTION
# MNEM.UNIT VALUE/NAME DESCRIPTION
#-------- -------------- ---------------------
STRT.Metres 11 : Start
STOP.Metres 0.48 : Stop
STEP.Metres -0.01 : Step
NULL.  -999.25 :NULL VALUE
DATE. 2025-09-11 : DATE
~CURVE INFORMATION SECTION
DEPTH.Metres : 0 Depth
Depth. : 1 Depth
Incline.Deg : 2 Incline
Azimuth.Deg : 3 Azimuth
GR.CPS : 4 GR
~PARAMETER INFORMATION SECTION
~OTHER
#-------------------------------------------------
#Produced By: GeoVista Logger - Version 7.1.107.0
Natural Gamma Sonde - 6447
Verticality Sonde - 6292
#-------------------------------------------------
~ASCII LOG DATA
# ...
9.04 9.079680 4.323080 87.211540 194.358970
9.03 9.069530 4.315380 87.107690 193.076920
9.02 9.059370 4.307690 87.003850 191.794870
9.01 9.049210 4.30 86.90 190.512820
9.00 9.037920 4.246150 87.023080 189.230770
8.99 9.026640 4.192310 87.146150 187.948720
8.98 9.015350 4.138460 87.269230 186.666670
8.97 9.004060 4.084620 87.392310 188.717950
8.96 8.993680 4.030770 87.515380 190.769230
8.95 8.98330 3.976920 87.638460 192.820510
8.94 8.972910 3.923080 87.761540 194.871790
8.93 8.962530 3.869230 87.884620 196.923080
8.92 8.954220 3.815380 88.007690 198.974360
8.91 8.945910 3.761540 88.130770 201.025640
8.90 8.937610 3.707690 88.253850 203.076920
8.89 8.92930 3.653850 88.376920 205.128210
8.88 8.920990 3.60 88.50 207.179490
8.87 8.909930 3.538460 88.015380 209.230770
8.86 8.898870 3.476920 87.530770 211.282050
8.85 8.887810 3.415380 87.046150 213.333330
8.84 8.876750 3.353850 86.561540 214.166670
8.83 8.866370 3.292310 86.076920 215.0
8.82 8.855980 3.230770 85.592310 215.833330
8.81 8.84560 3.169230 85.107690 216.666670
8.80 8.835210 3.107690 84.623080 217.50
8.79 8.825060 3.046150 84.138460 218.333330
8.78 8.81490 2.984620 83.653850 219.166670
8.77 8.804740 2.923080 83.169230 220.0
8.76 8.794580 2.861540 82.684620 220.833330
8.75 8.785730 2.80 82.20 221.666670
8.74 8.776880 2.7250 82.150 222.50
8.73 8.768040 2.650 82.10 223.333330
8.72 8.759190 2.5750 82.050 221.282050
8.71 8.750340 2.50 82.0 219.230770
8.70 8.739950 2.4250 81.950 217.179490
8.69 8.729570 2.350 81.90 215.128210
8.68 8.719190 2.2750 81.850 213.076920
8.67 8.70880 2.20 81.80 211.025640
8.66 8.698650 2.1250 81.750 208.974360
8.65 8.688490 2.050 81.70 206.923080
8.64 8.678330 1.9750 81.650 204.871790
8.63 8.668170 1.90 81.60 202.820510
8.62 8.657110 2.023080 81.907690 200.769230
8.61 8.646050 2.146150 82.215380 198.717950
8.60 8.634990 2.269230 82.523080 196.666670
8.59 8.623930 2.392310 82.830770 195.897440
8.58 8.613540 2.515380 83.138460 195.128210
8.57 8.603160 2.638460 83.446150 194.358970
8.56 8.592780 2.761540 83.753850 193.589740
8.55 8.582390 2.884620 84.061540 192.820510
8.54 8.574450 3.007690 84.369230 192.051280
8.53 8.56650 3.130770 84.676920 191.282050
8.52 8.558560 3.253850 84.984620 190.512820
8.51 8.550610 3.376920 85.292310 189.743590
8.50 8.542660 3.50 85.60 188.974360
8.49 8.53160 3.538460 85.576920 188.205130
8.48 8.520540 3.576920 85.553850 187.43590
8.47 8.509480 3.615380 85.530770 186.666670
8.46 8.498420 3.653850 85.507690 183.846150
8.45 8.487810 3.692310 85.484620 181.025640
8.44 8.47720 3.730770 85.461540 178.205130
8.43 8.466590 3.769230 85.438460 175.384620
8.42 8.455980 3.807690 85.415380 172.56410
8.41 8.445820 3.846150 85.392310 169.743590
8.40 8.435670 3.884620 85.369230 166.923080
8.39 8.425510 3.923080 85.346150 164.102560
8.38 8.415350 3.961540 85.323080 161.282050
8.37 8.40650 4.0 85.30 158.461540
8.36 8.397650 4.016670 85.2250 155.641030
8.35 8.38880 4.033330 85.150 152.820510
8.34 8.379950 4.050 85.0750 150.0
8.33 8.371110 4.066670 85.0 152.083330
8.32 8.36050 4.083330 84.9250 154.166670
8.31 8.349890 4.10 84.850 156.250
8.30 8.339280 4.116670 84.7750 158.333330
8.29 8.328670 4.133330 84.70 160.416670
8.28 8.318510 4.150 84.6250 162.50
8.27 8.308350 4.166670 84.550 164.583330
8.26 8.298190 4.183330 84.4750 166.666670
8.25 8.288040 4.20 84.40 168.750
8.24 8.276750 4.207690 84.153850 170.833330
8.23 8.265460 4.215380 83.907690 172.916670
8.22 8.254180 4.223080 83.661540 175.0
8.21 8.242890 4.230770 83.415380 172.56410
8.20 8.234580 4.238460 83.169230 170.128210
8.19 8.226280 4.246150 82.923080 167.692310
8.18 8.217970 4.253850 82.676920 165.256410
8.17 8.209660 4.261540 82.430770 162.820510
8.16 8.201350 4.269230 82.184620 160.384620
8.15 8.190970 4.276920 81.938460 157.948720
8.14 8.180590 4.284620 81.692310 155.512820
8.13 8.17020 4.292310 81.446150 153.076920
8.12 8.159820 4.30 81.20 150.641030
8.11 8.148760 4.307690 81.261540 148.205130
8.10 8.13770 4.315380 81.323080 145.769230
8.09 8.126640 4.323080 81.384620 143.333330
8.08 8.115580 4.330770 81.446150 146.923080
8.07 8.104970 4.338460 81.507690 150.512820
8.06 8.094360 4.346150 81.569230 154.102560
8.05 8.083750 4.353850 81.630770 157.692310
8.04 8.073140 4.361540 81.692310 161.282050
8.03 8.064830 4.369230 81.753850 164.871790
8.02 8.056520 4.376920 81.815380 168.461540
8.01 8.048220 4.384620 81.876920 172.051280
8.00 8.039910 4.392310 81.938460 175.641030
7.99 8.03160 4.40 82.0 179.230770
7.98 8.020320 4.383330 82.183330 182.820510
7.97 8.009030 4.366670 82.366670 186.410260
7.96 7.997740 4.350 82.550 190.0
7.95 7.986460 4.333330 82.733330 189.487180
7.94 7.976070 4.316670 82.916670 188.974360
7.93 7.965690 4.30 83.10 188.461540
7.92 7.95530 4.283330 83.283330 187.948720
7.91 7.944920 4.266670 83.466670 187.43590
7.90 7.934760 4.250 83.650 186.923080
7.89 7.92460 4.233330 83.833330 186.410260
7.88 7.914450 4.216670 84.016670 185.897440
7.87 7.904290 4.20 84.20 185.384620
7.86 7.895440 4.192310 83.592310 184.871790
7.85 7.886590 4.184620 82.984620 184.358970
7.84 7.877740 4.176920 82.376920 183.846150
7.83 7.868890 4.169230 81.769230 183.333330
7.82 7.860050 4.161540 81.161540 182.50
7.81 7.849660 4.153850 80.553850 181.666670
7.80 7.839280 4.146150 79.946150 180.833330
7.79 7.828890 4.138460 79.338460 180.0
7.78 7.818510 4.130770 78.730770 179.166670
7.77 7.808350 4.123080 78.123080 178.333330
7.76 7.798190 4.115380 77.515380 177.50
7.75 7.788040 4.107690 76.907690 176.666670
7.74 7.777880 4.10 76.30 175.833330
7.73 7.766820 4.084620 76.692310 175.0
7.72 7.755760 4.069230 77.084620 174.166670
7.71 7.74470 4.053850 77.476920 173.333330
7.70 7.733630 4.038460 77.869230 173.461540
7.69 7.723020 4.023080 78.261540 173.589740
7.68 7.712420 4.007690 78.653850 173.717950
7.67 7.701810 3.992310 79.046150 173.846150
7.66 7.69120 3.976920 79.438460 173.974360
7.65 7.683070 3.961540 79.830770 174.102560
7.64 7.674940 3.946150 80.223080 174.230770
7.63 7.666820 3.930770 80.615380 174.358970
7.62 7.658690 3.915380 81.007690 174.487180
7.61 7.650560 3.90 81.40 174.615380
7.60 7.63950 3.90 81.576920 174.743590
7.59 7.628440 3.90 81.753850 174.871790
7.58 7.617380 3.90 81.930770 175.0
7.57 7.606320 3.90 82.107690 178.461540
7.56 7.595940 3.90 82.284620 181.923080
7.55 7.585550 3.90 82.461540 185.384620
7.54 7.575170 3.90 82.638460 188.846150
7.53 7.564790 3.90 82.815380 192.307690
7.52 7.556660 3.90 82.992310 195.769230
7.51 7.548530 3.90 83.169230 199.230770
7.50 7.540410 3.90 83.346150 202.692310
7.49 7.532280 3.90 83.523080 206.153850
7.48 7.524150 3.90 83.70 209.615380
7.47 7.512870 3.90 83.550 213.076920
7.46 7.501580 3.90 83.40 216.538460
7.45 7.490290 3.90 83.250 220.0
7.44 7.479010 3.90 83.10 217.936510
7.43 7.468620 3.90 82.950 215.873020
7.42 7.458240 3.90 82.80 213.809520
7.41 7.447860 3.90 82.650 211.746030
7.40 7.437470 3.90 82.50 209.682540
7.39 7.427090 3.90 82.350 207.619050
7.38 7.41670 3.90 82.20 205.555560
7.37 7.406320 3.90 82.050 203.492060
7.36 7.395940 3.90 81.90 201.428570
7.35 7.387090 3.838460 82.230770 199.365080
7.34 7.378240 3.776920 82.561540 197.301590
7.33 7.369390 3.715380 82.892310 195.23810
7.32 7.360540 3.653850 83.223080 193.040290
7.31 7.351690 3.592310 83.553850 190.842490
7.30 7.341080 3.530770 83.884620 188.644690
7.29 7.330470 3.469230 84.215380 186.446890
7.28 7.319860 3.407690 84.546150 184.249080
7.27 7.309260 3.346150 84.876920 182.051280
7.26 7.29910 3.284620 85.207690 179.853480
7.25 7.288940 3.223080 85.538460 177.655680
7.24 7.278780 3.161540 85.869230 175.457880
7.23 7.268620 3.10 86.20 173.260070
7.22 7.257340 3.015380 85.015380 171.062270
7.21 7.246050 2.930770 83.830770 168.864470
7.20 7.234760 2.846150 82.646150 166.666670
7.19 7.223480 2.761540 81.461540 164.102560
7.18 7.214990 2.676920 80.276920 161.538460
7.17 7.20650 2.592310 79.092310 158.974360
7.16 7.198010 2.507690 77.907690 156.410260
7.15 7.189530 2.423080 76.723080 153.846150
7.14 7.181040 2.338460 75.538460 151.282050
7.13 7.170650 2.253850 74.353850 148.717950
7.12 7.160270 2.169230 73.169230 146.153850
