~VERSION INFORMATION SECTION
VERS. 2.0 : CWLS LAS-VERSION 2.0
WRAP. NO : One line per depth step
~WELL INFORMATION SECTION
# MNEM.UNIT VALUE/NAME DESCRIPTION
#-------- -------------- ---------------------
STRT.Metres 16 : Start
STOP.Metres 0.47 : Stop
STEP.Metres -0.01 : Step
NULL.  -999.25 :NULL VALUE
DATE. 2025-18-11 : DATE
~CURVE INFORMATION SECTION
DEPTH.Metres : 0 Depth
Depth. : 1 Depth
Incline.Deg : 2 Incline
Azimuth.Deg : 3 Azimuth
GR.CPS : 4 GR
~PARAMETER INFORMATION SECTION
~OTHER
#-------------------------------------------------
#Produced By: GeoVista Logger - Version 7.1.107.0
Natural Gamma Sonde - 6447
Verticality Sonde - 6292
#-------------------------------------------------
~ASCII LOG DATA
# ...
9.58 9.593680 4.560 100.080 154.666670
9.57 9.577430 4.520 99.760 156.666670
9.56 9.56930 4.480 99.440 156.0
9.55 9.561170 4.440 99.120 155.333330
9.54 9.55260 4.40 98.80 154.666670
9.53 9.544020 4.4250 99.250 154.0
9.52 9.527770 4.450 99.70 153.333330
9.51 9.519640 4.4750 100.150 158.0
9.50 9.511510 4.50 100.60 162.666670
9.49 9.502930 4.50 100.660 167.333330
9.48 9.494360 4.50 100.720 172.0
9.47 9.47810 4.50 100.780 176.666670
9.46 9.469980 4.50 100.840 164.166670
9.45 9.461850 4.50 100.90 151.666670
9.44 9.453720 4.50 100.440 139.166670
9.43 9.44560 4.50 99.980 126.666670
9.42 9.429350 4.50 99.520 126.666670
9.41 9.421220 4.50 99.060 126.666670
9.40 9.413090 4.50 98.60 126.666670
9.39 9.404510 4.50 98.80 126.666670
9.38 9.395940 4.50 99.0 126.666670
9.37 9.379680 4.50 99.20 132.666670
9.36 9.371560 4.50 99.40 138.666670
9.35 9.363430 4.50 99.60 144.666670
9.34 9.354850 4.480 100.260 150.666670
9.33 9.346280 4.460 100.920 156.666670
9.32 9.329120 4.440 101.580 153.333330
9.31 9.320990 4.420 102.240 150.0
9.30 9.312870 4.40 102.90 146.666670
9.29 9.304290 4.40 102.040 143.333330
9.28 9.295710 4.40 101.180 140.0
9.27 9.279460 4.40 100.320 140.0
9.26 9.271330 4.40 99.460 140.0
9.25 9.263210 4.40 98.60 140.0
9.24 9.254630 4.40 99.40 140.0
9.23 9.246050 4.40 100.20 140.0
9.22 9.22980 4.40 101.0 134.0
9.21 9.221670 4.40 101.80 128.0
9.20 9.213540 4.40 102.60 122.0
9.19 9.197290 4.40 102.420 116.0
9.18 9.189160 4.40 102.240 110.0
9.17 9.181040 4.40 102.060 120.666670
9.16 9.172460 4.40 101.880 131.333330
9.15 9.163880 4.40 101.70 142.0
9.14 9.147630 4.40 101.50 152.666670
9.13 9.139050 4.40 101.30 163.333330
9.12 9.130470 4.40 101.10 161.333330
9.11 9.122350 4.40 100.90 159.333330
9.10 9.114220 4.40 100.70 157.333330
9.09 9.097970 4.40 100.820 155.333330
9.08 9.089840 4.40 100.940 153.333330
9.07 9.081720 4.40 101.060 154.0
9.06 9.073140 4.40 101.180 154.666670
9.05 9.064560 4.40 101.30 155.333330
9.04 9.048310 4.380 101.480 156.0
9.03 9.040180 4.360 101.660 156.666670
9.02 9.032050 4.340 101.840 151.333330
9.01 9.023930 4.320 102.020 146.0
9.00 9.01580 4.30 102.20 140.666670
8.99 8.999550 4.320 101.740 135.333330
8.98 8.990970 4.340 101.280 130.0
8.97 8.982390 4.360 100.820 128.516130
8.96 8.974270 4.380 100.360 127.032260
8.95 8.966140 4.40 99.90 125.548390
8.94 8.949890 4.380 100.260 124.064520
8.93 8.941760 4.360 100.620 122.580650
8.92 8.933630 4.340 100.980 142.064520
8.91 8.917380 4.320 101.340 161.548390
8.90 8.909260 4.30 101.70 181.032260
8.89 8.901130 4.30 101.440 200.516130
8.88 8.8930 4.30 101.180 220.0
8.87 8.884880 4.30 100.920 208.666670
8.86 8.868620 4.30 100.660 197.333330
8.85 8.86050 4.30 100.40 186.0
8.84 8.852370 4.30 100.530 174.666670
8.83 8.844240 4.30 100.660 163.333330
8.82 8.836120 4.30 100.790 168.333330
8.81 8.819860 4.30 100.920 173.333330
8.80 8.811740 4.30 101.050 178.333330
8.79 8.803610 4.30 101.180 183.333330
8.78 8.787360 4.30 101.310 176.0
8.77 8.779230 4.30 101.440 168.666670
8.76 8.771110 4.30 101.570 161.333330
8.75 8.762980 4.30 101.70 154.0
8.74 8.754850 4.280 102.140 146.666670
8.73 8.73860 4.260 102.580 140.0
8.72 8.730470 4.240 103.020 133.333330
8.71 8.722350 4.220 103.460 126.666670
8.70 8.714220 4.20 103.90 120.0
8.69 8.706090 4.20 102.8250 113.333330
8.68 8.689840 4.20 101.750 130.0
8.67 8.681720 4.20 100.6750 146.666670
8.66 8.673590 4.20 99.60 163.333330
8.65 8.656430 4.220 100.040 180.0
8.64 8.648310 4.240 100.480 196.666670
8.63 8.640180 4.260 100.920 184.666670
8.62 8.632050 4.280 101.360 172.666670
8.61 8.623930 4.30 101.80 160.666670
8.60 8.607670 4.30 102.120 148.666670
8.59 8.599550 4.30 102.440 136.666670
8.58 8.591420 4.30 102.760 130.666670
8.57 8.58330 4.30 103.080 124.666670
8.56 8.575170 4.30 103.40 118.666670
8.55 8.558920 4.30 102.880 112.666670
8.54 8.550340 4.30 102.360 106.666670
8.53 8.541760 4.30 101.840 112.666670
8.52 8.533630 4.30 101.320 118.666670
8.51 8.525510 4.30 100.80 124.666670
8.50 8.509260 4.30 101.020 130.666670
8.49 8.500680 4.30 101.240 136.666670
8.48 8.49210 4.30 101.460 138.0
8.47 8.483970 4.30 101.680 139.333330
8.46 8.475850 4.30 101.90 140.666670
8.45 8.459590 4.30 101.880 142.0
8.44 8.451020 4.30 101.860 143.333330
8.43 8.442440 4.30 101.840 138.0
8.42 8.434310 4.30 101.820 132.666670
8.41 8.426190 4.30 101.80 127.333330
8.40 8.409030 4.30 101.80 122.0
8.39 8.40090 4.30 101.80 116.666670
8.38 8.392780 4.30 101.80 126.0
8.37 8.38420 4.30 101.80 135.333330
8.36 8.375620 4.30 101.80 144.666670
8.35 8.359370 4.30 101.740 154.0
8.34 8.351240 4.30 101.680 163.333330
8.33 8.343120 4.30 101.620 150.666670
8.32 8.334990 4.30 101.560 138.0
8.31 8.326860 4.30 101.50 125.333330
8.30 8.309710 4.30 101.440 112.666670
8.29 8.301580 4.30 101.380 100.0
8.28 8.293450 4.30 101.320 108.0
8.27 8.27720 4.30 101.260 116.0
8.26 8.268620 4.30 101.20 124.0
8.25 8.260050 4.30 101.020 132.0
8.24 8.251920 4.30 100.840 140.0
8.23 8.243790 4.30 100.660 144.666670
8.22 8.226640 4.30 100.480 149.333330
8.21 8.218510 4.30 100.30 154.0
8.20 8.210380 4.30 100.320 158.666670
8.19 8.201810 4.30 100.340 163.333330
8.18 8.193230 4.30 100.360 161.575760
8.17 8.18510 4.30 100.380 159.818180
8.16 8.176980 4.30 100.40 158.060610
8.15 8.159820 4.30 100.640 156.303030
8.14 8.151690 4.30 100.880 154.545450
8.13 8.143570 4.30 101.120 156.267940
8.12 8.127310 4.30 101.360 157.990430
8.11 8.118740 4.30 101.60 159.712920
8.10 8.110160 4.30 101.180 161.435410
8.09 8.102030 4.30 100.760 163.157890
8.08 8.093910 4.30 100.340 155.042440
8.07 8.077650 4.30 99.920 146.926990
8.06 8.069530 4.30 99.50 138.811540
8.05 8.06140 4.30 99.860 130.69610
8.04 8.053270 4.30 100.220 122.580650
8.03 8.045150 4.30 100.580 120.731180
8.02 8.028890 4.30 100.940 118.881720
8.01 8.020770 4.30 101.30 117.032260
8.00 8.012640 4.30 101.150 115.18280
7.99 7.996390 4.30 101.0 113.333330
7.98 7.988260 4.30 100.850 116.666670
7.97 7.980140 4.30 100.70 120.0
7.96 7.972010 4.30 100.640 123.333330
7.95 7.963880 4.30 100.580 126.666670
7.94 7.947630 4.30 100.520 128.666670
7.93 7.93950 4.30 100.460 130.666670
7.92 7.931380 4.30 100.40 132.666670
7.91 7.923250 4.280 100.30 134.666670
7.90 7.915120 4.260 100.20 136.666670
7.89 7.897970 4.240 100.10 144.0
7.88 7.889840 4.220 100.0 151.333330
7.87 7.881720 4.20 99.90 158.666670
7.86 7.873590 4.240 100.060 166.0
7.85 7.865460 4.280 100.220 173.333330
7.84 7.849210 4.320 100.380 165.333330
7.83 7.841080 4.360 100.540 157.333330
7.82 7.832960 4.40 100.70 149.333330
7.81 7.81670 4.380 100.640 141.333330
7.80 7.808580 4.360 100.580 133.333330
7.79 7.800450 4.340 100.520 130.666670
7.78 7.792330 4.320 100.460 128.0
7.77 7.78420 4.30 100.40 125.333330
7.76 7.767950 4.340 100.240 122.666670
7.75 7.759820 4.380 100.080 120.0
7.74 7.751690 4.420 99.920 133.333330
7.73 7.743570 4.460 99.760 146.666670
7.72 7.735440 4.50 99.60 160.0
7.71 7.719190 4.460 99.680 173.333330
7.70 7.710610 4.420 99.760 186.666670
7.69 7.702030 4.380 99.840 189.333330
7.68 7.693910 4.340 99.920 192.0
7.67 7.685780 4.30 100.0 194.666670
7.66 7.669530 4.320 99.660 197.333330
7.65 7.66140 4.340 99.320 200.0
7.64 7.653270 4.360 98.980 186.666670
7.63 7.637020 4.380 98.640 173.333330
7.62 7.628890 4.40 98.30 160.0
7.61 7.620770 4.40 98.40 146.666670
7.60 7.612640 4.40 98.50 133.333330
7.59 7.604510 4.40 98.60 133.333330
7.58 7.588260 4.40 98.70 133.333330
7.57 7.579680 4.40 98.80 133.333330
7.56 7.571110 4.40 98.820 133.333330
7.55 7.562980 4.40 98.840 133.333330
7.54 7.554850 4.40 98.860 145.333330
7.53 7.53860 4.40 98.880 157.333330
7.52 7.530020 4.40 98.90 169.333330
7.51 7.521440 4.40 98.90 181.333330
7.50 7.513320 4.40 98.90 193.333330
7.49 7.505190 4.40 98.90 178.0
7.48 7.488940 4.40 98.90 162.666670
7.47 7.480360 4.40 98.90 147.333330
7.46 7.471780 4.40 99.140 132.0
7.45 7.463660 4.40 99.380 116.666670
7.44 7.455530 4.40 99.620 130.666670
7.43 7.439280 4.40 99.860 144.666670
7.42 7.431150 4.40 100.10 158.666670
7.41 7.423020 4.380 100.020 172.666670
7.40 7.414450 4.360 99.940 186.666670
7.39 7.405870 4.340 99.860 183.333330
7.38 7.389620 4.320 99.780 180.0
