~VERSION INFORMATION SECTION
VERS. 2.0 : CWLS LAS-VERSION 2.0
WRAP. NO : One line per depth step
~WELL INFORMATION SECTION
# MNEM.UNIT VALUE/NAME DESCRIPTION
#-------- -------------- ---------------------
STRT.Metres 16 : Start
STOP.Metres 0.47 : Stop
STEP.Metres -0.01 : Step
NULL.  -999.25 :NULL VALUE
DATE. 2025-18-11 : DATE
~CURVE INFORMATION SECTION
DEPTH.Metres : 0 Depth
Depth. : 1 Depth
Incline.Deg : 2 Incline
Azimuth.Deg : 3 Azimuth
GR.CPS : 4 GR
~PARAMETER INFORMATION SECTION
~OTHER
#-------------------------------------------------
#Produced By: GeoVista Logger - Version 7.1.107.0
Natural Gamma Sonde - 6447
Verticality Sonde - 6292
#-------------------------------------------------
~ASCII LOG DATA
# ...
11.74 11.75260 5.080 93.380 138.709680
11.73 11.744470 5.120 92.920 138.301080
11.72 11.727310 5.160 92.460 137.892470
11.71 11.719190 5.20 92.0 137.483870
11.70 11.711060 5.180 93.0 137.075270
11.69 11.702930 5.160 94.0 136.666670
11.68 11.694810 5.140 95.0 140.666670
11.67 11.678560 5.120 96.0 144.666670
11.66 11.670430 5.10 97.0 148.666670
11.65 11.66230 5.088890 96.90 152.666670
11.64 11.654180 5.077780 96.80 156.666670
11.63 11.646050 5.066670 96.70 161.333330
11.62 11.62980 5.055560 96.60 166.0
11.61 11.621670 5.044440 96.50 170.666670
11.60 11.613540 5.033330 96.40 175.333330
11.59 11.597290 5.022220 96.30 180.0
11.58 11.589160 5.011110 96.20 164.0
11.57 11.581040 5.0 96.10 148.0
11.56 11.572460 5.0 96.160 132.0
11.55 11.563880 5.0 96.220 116.0
11.54 11.547630 5.0 96.280 100.0
11.53 11.53950 5.0 96.340 103.0
11.52 11.531380 5.0 96.40 106.0
11.51 11.523250 5.0 96.540 109.0
11.50 11.515120 5.0 96.680 112.0
11.49 11.498870 5.0 96.820 115.0
11.48 11.490740 5.0 96.960 112.666670
11.47 11.482620 5.0 97.10 110.333330
11.46 11.466370 5.0 95.80 108.0
11.45 11.458240 5.0 94.50 105.666670
11.44 11.450110 5.0 93.20 103.333330
11.43 11.441990 5.0 91.90 113.333330
11.42 11.433860 5.0 90.60 123.333330
11.41 11.417610 5.0 92.720 133.333330
11.40 11.409480 5.0 94.840 143.333330
11.39 11.401350 5.0 96.960 153.333330
11.38 11.393230 5.0 99.080 149.166670
11.37 11.38510 5.0 101.20 145.0
11.36 11.368850 4.960 101.420 140.833330
11.35 11.360270 4.920 101.640 136.666670
11.34 11.351690 4.880 101.860 144.0
11.33 11.343570 4.840 102.080 151.333330
11.32 11.335440 4.80 102.30 158.666670
11.31 11.319190 4.80 101.380 166.0
11.30 11.311060 4.80 100.460 173.333330
11.29 11.302930 4.80 99.540 170.0
11.28 11.286680 4.80 98.620 166.666670
11.27 11.278560 4.80 97.70 163.333330
11.26 11.270430 4.80 97.520 160.0
11.25 11.26230 4.80 97.340 156.666670
11.24 11.254180 4.80 97.160 156.0
11.23 11.237020 4.80 96.980 155.333330
11.22 11.228890 4.80 96.80 154.666670
11.21 11.220770 4.80 96.620 154.0
11.20 11.212640 4.80 96.440 153.333330
11.19 11.204510 4.80 96.260 149.333330
11.18 11.188260 4.80 96.080 145.333330
11.17 11.180140 4.80 95.90 141.333330
11.16 11.172010 4.780 96.480 137.333330
11.15 11.163880 4.760 97.060 133.333330
11.14 11.155760 4.740 97.640 136.666670
11.13 11.13860 4.720 98.220 140.0
11.12 11.130470 4.70 98.80 143.333330
11.11 11.122350 4.680 99.280 146.666670
11.10 11.114220 4.660 99.760 150.0
11.09 11.106090 4.640 100.240 150.0
11.08 11.088940 4.620 100.720 150.0
11.07 11.080810 4.60 101.20 150.0
11.06 11.072690 4.580 100.880 150.0
11.05 11.056430 4.560 100.560 150.0
11.04 11.048310 4.540 100.240 148.666670
11.03 11.040180 4.520 99.920 147.333330
11.02 11.03160 4.50 99.60 146.0
11.01 11.023020 4.5250 98.9750 144.666670
11.00 11.006770 4.550 98.350 143.333330
10.99 10.998650 4.5750 97.7250 140.121210
10.98 10.990520 4.60 97.10 136.909090
10.97 10.981940 4.60 97.740 133.696970
10.96 10.973360 4.60 98.380 130.484850
10.95 10.957110 4.60 99.020 127.272730
10.94 10.948980 4.60 99.660 144.976080
10.93 10.940860 4.60 100.30 162.679430
10.92 10.932280 4.60 100.040 180.382780
10.91 10.92370 4.60 99.780 198.086120
10.90 10.907450 4.60 99.520 215.789470
10.89 10.899320 4.60 99.260 209.298250
10.88 10.89120 4.60 99.0 202.807020
10.87 10.882620 4.60 98.780 196.315790
10.86 10.874040 4.60 98.560 189.824560
10.85 10.857790 4.60 98.340 183.333330
10.84 10.849660 4.60 98.120 180.215050
10.83 10.841530 4.60 97.90 177.096770
10.82 10.833410 4.60 98.280 173.978490
10.81 10.825280 4.60 98.660 170.860220
10.80 10.808130 4.60 99.040 167.741940
10.79 10.80 4.60 99.420 164.139780
10.78 10.791870 4.60 99.80 160.537630
10.77 10.783750 4.60 99.340 156.935480
10.76 10.775620 4.60 98.880 153.333330
10.75 10.758470 4.60 98.420 158.0
10.74 10.750340 4.60 97.960 162.666670
10.73 10.742210 4.60 97.50 167.333330
10.72 10.734090 4.60 97.50 172.0
10.71 10.725960 4.60 97.50 176.666670
10.70 10.709710 4.60 97.50 174.666670
10.69 10.701580 4.60 97.50 172.666670
10.68 10.693450 4.60 97.50 170.666670
10.67 10.67720 4.580 97.30 168.666670
10.66 10.668620 4.560 97.10 166.666670
10.65 10.660050 4.540 96.90 162.666670
10.64 10.651920 4.520 96.70 158.666670
10.63 10.643790 4.50 96.50 154.666670
10.62 10.627540 4.520 96.90 150.666670
10.61 10.619410 4.540 97.30 146.666670
10.60 10.611290 4.560 97.70 135.333330
10.59 10.603160 4.580 98.10 124.0
10.58 10.595030 4.60 98.50 112.666670
10.57 10.578780 4.580 98.680 101.333330
10.56 10.570650 4.560 98.860 90.0
10.55 10.562530 4.540 99.040 95.0
10.54 10.553950 4.520 99.220 100.0
10.53 10.545370 4.50 99.40 105.0
10.52 10.529120 4.520 100.020 110.0
10.51 10.520990 4.540 100.640 115.0
10.50 10.512870 4.560 101.260 132.666670
10.49 10.496610 4.580 101.880 150.333330
10.48 10.488490 4.60 102.50 168.0
10.47 10.480360 4.580 102.180 185.666670
10.46 10.471780 4.560 101.860 203.333330
10.45 10.463210 4.540 101.540 187.666670
10.44 10.446950 4.520 101.220 172.0
10.43 10.438830 4.50 100.90 156.333330
10.42 10.43070 4.520 100.860 140.666670
10.41 10.422570 4.540 100.820 125.0
10.40 10.414450 4.560 100.780 142.0
10.39 10.398190 4.580 100.740 159.0
10.38 10.389620 4.60 100.70 176.0
10.37 10.381040 4.620 100.660 193.0
10.36 10.372910 4.640 100.620 210.0
10.35 10.364790 4.660 100.580 209.333330
10.34 10.348530 4.680 100.540 208.666670
10.33 10.340410 4.70 100.50 208.0
10.32 10.332280 4.70 100.060 207.333330
10.31 10.324150 4.70 99.620 206.666670
10.30 10.316030 4.70 99.180 199.333330
10.29 10.299770 4.70 98.740 192.0
10.28 10.291650 4.70 98.30 184.666670
10.27 10.283520 4.70 98.480 177.333330
10.26 10.266370 4.70 98.660 170.0
10.25 10.258240 4.70 98.840 172.0
10.24 10.250110 4.70 99.020 174.0
10.23 10.241990 4.70 99.20 176.0
10.22 10.233860 4.70 100.0250 178.0
10.21 10.21670 4.70 100.850 180.0
10.20 10.208580 4.70 101.6750 174.166670
10.19 10.200450 4.70 102.50 168.333330
10.18 10.192330 4.70 102.060 162.50
10.17 10.18420 4.70 101.620 156.666670
10.16 10.167950 4.70 101.180 161.333330
10.15 10.159370 4.70 100.740 166.0
10.14 10.150790 4.70 100.30 170.666670
10.13 10.142660 4.720 99.980 175.333330
10.12 10.134540 4.740 99.660 180.0
10.11 10.118280 4.760 99.340 174.666670
10.10 10.110160 4.780 99.020 169.333330
10.09 10.102030 4.80 98.70 164.0
10.08 10.093450 4.80 98.80 158.666670
10.07 10.084880 4.80 98.90 153.333330
10.06 10.068620 4.80 99.0 149.333330
10.05 10.06050 4.80 99.10 145.333330
10.04 10.052370 4.80 99.20 141.333330
10.03 10.043790 4.80 99.30 137.333330
10.02 10.035210 4.80 99.40 133.333330
10.01 10.018960 4.80 99.50 136.0
10.00 10.010840 4.80 99.60 138.666670
9.99 10.002710 4.80 99.70 141.333330
9.98 9.986460 4.780 99.580 144.0
9.97 9.978330 4.760 99.460 146.666670
9.96 9.97020 4.740 99.340 163.333330
9.95 9.961630 4.720 99.220 180.0
9.94 9.953050 4.70 99.10 196.666670
9.93 9.936790 4.70 99.0 213.333330
9.92 9.928670 4.70 98.90 230.0
9.91 9.920540 4.70 98.80 220.774190
9.90 9.912420 4.70 98.70 211.548390
9.89 9.904290 4.70 98.60 202.322580
9.88 9.888040 4.70 98.540 193.096770
9.87 9.879910 4.70 98.480 183.870970
9.86 9.871780 4.70 98.420 176.430110
9.85 9.863660 4.70 98.360 168.989250
9.84 9.855530 4.70 98.30 161.548390
9.83 9.839280 4.70 98.460 154.107530
9.82 9.831150 4.70 98.620 146.666670
9.81 9.823020 4.70 98.780 151.333330
9.80 9.806770 4.70 98.940 156.0
9.79 9.798650 4.70 99.10 160.666670
9.78 9.790520 4.70 99.020 165.333330
9.77 9.782390 4.70 98.940 170.0
9.76 9.774270 4.70 98.860 170.0
9.75 9.757110 4.70 98.780 170.0
9.74 9.748980 4.70 98.70 170.0
9.73 9.740860 4.680 99.040 170.0
9.72 9.732730 4.660 99.380 170.0
9.71 9.72460 4.640 99.720 163.333330
9.70 9.708350 4.620 100.060 156.666670
9.69 9.700230 4.60 100.40 150.0
9.68 9.69210 4.60 99.680 143.333330
9.67 9.683970 4.60 98.960 136.666670
9.66 9.675850 4.60 98.240 138.666670
9.65 9.659590 4.60 97.520 140.666670
9.64 9.651470 4.60 96.80 142.666670
9.63 9.643340 4.60 97.520 144.666670
9.62 9.634760 4.60 98.240 146.666670
9.61 9.626190 4.60 98.960 148.666670
9.60 9.609930 4.60 99.680 150.666670
9.59 9.601810 4.60 100.40 152.666670
