~VERSION INFORMATION SECTION
VERS. 2.0 : CWLS LAS-VERSION 2.0
WRAP. NO : One line per depth step
~WELL INFORMATION SECTION
# MNEM.UNIT VALUE/NAME DESCRIPTION
#-------- -------------- ---------------------
STRT.Metres 17 : Start
STOP.Metres 0.39 : Stop
STEP.Metres -0.01 : Step
NULL.  -999.25 :NULL VALUE
DATE. 2025-14-11 : DATE
~CURVE INFORMATION SECTION
DEPTH.Metres : 0 Depth
Depth. : 1 Depth
Incline.Deg : 2 Incline
Azimuth.Deg : 3 Azimuth
GR.CPS : 4 GR
~PARAMETER INFORMATION SECTION
~OTHER
#-------------------------------------------------
#Produced By: GeoVista Logger - Version 7.1.107.0
Natural Gamma Sonde - 6447
Verticality Sonde - 6292
#-------------------------------------------------
~ASCII LOG DATA
# ...
2.34 2.344020 2.566670 82.90 177.777780
2.33 2.334990 2.60 84.30 168.888890
2.32 2.325060 2.566670 83.633330 160.0
2.31 2.315120 2.533330 82.966670 145.0
2.30 2.306090 2.50 82.30 130.0
2.29 2.296160 2.466670 82.766670 144.444440
2.28 2.286230 2.433330 83.233330 158.888890
2.27 2.27630 2.40 83.70 173.333330
2.26 2.267270 2.466670 83.333330 170.101010
2.25 2.257340 2.533330 82.966670 166.868690
2.24 2.24740 2.60 82.60 163.636360
2.23 2.238370 2.566670 81.366670 154.704940
2.22 2.228440 2.533330 80.133330 145.773520
2.21 2.218510 2.50 78.90 136.842110
2.20 2.208580 2.50 80.50 154.864430
2.19 2.198650 2.50 82.10 172.886760
2.18 2.188710 2.50 83.70 190.909090
2.17 2.178780 2.50 82.266670 192.185010
2.16 2.168850 2.50 80.833330 193.460930
2.15 2.158920 2.50 79.40 194.736840
2.14 2.148980 2.50 79.066670 190.935670
2.13 2.139050 2.50 78.733330 187.13450
2.12 2.12460 2.50 78.40 183.333330
2.11 2.110160 2.533330 78.733330 187.777780
2.10 2.100230 2.566670 79.066670 192.222220
2.09 2.090290 2.60 79.40 196.666670
2.08 2.080360 2.566670 80.20 187.777780
2.07 2.070430 2.533330 81.0 178.888890
2.06 2.06050 2.50 81.80 170.0
2.05 2.055530 2.50 80.033330 173.333330
2.04 2.050560 2.50 78.266670 176.666670
2.03 2.039730 2.50 76.50 180.0
2.02 2.02980 2.50 76.933330 195.555560
2.01 2.022570 2.50 77.366670 211.111110
2.00 2.015350 2.50 77.80 226.666670
1.99 1.995030 2.50 77.133330 187.777780
1.98 1.980140 2.50 76.466670 148.888890
1.97 1.97020 2.50 75.80 110.0
1.96 1.961170 2.50 76.866670 145.0
1.95 1.951240 2.50 77.933330 180.0
1.94 1.940410 2.50 79.0 215.0
1.93 1.930470 2.50 77.833330 208.888890
1.92 1.921440 2.50 76.666670 202.777780
1.91 1.911510 2.50 75.50 196.666670
1.90 1.901580 2.533330 76.633330 188.888890
1.89 1.891650 2.566670 77.766670 181.111110
1.88 1.880810 2.60 78.90 173.333330
1.87 1.870880 2.566670 78.766670 173.333330
1.86 1.860950 2.533330 78.633330 173.333330
1.85 1.851020 2.50 78.50 173.333330
1.84 1.841080 2.50 78.150 163.888890
1.83 1.831150 2.50 77.80 154.444440
1.82 1.821220 2.533330 77.566670 145.0
1.81 1.811290 2.566670 77.333330 153.333330
1.80 1.801350 2.60 77.10 161.666670
1.79 1.791420 2.533330 77.40 170.0
1.78 1.781490 2.466670 77.70 173.939390
1.77 1.771560 2.40 78.0 177.878790
1.76 1.761630 2.40 80.133330 181.818180
1.75 1.751690 2.40 82.266670 184.370020
1.74 1.741760 2.40 84.40 186.921850
1.73 1.731830 2.433330 79.766670 189.473680
1.72 1.720990 2.466670 75.133330 172.982460
1.71 1.711060 2.50 70.50 156.491230
1.70 1.701130 2.40 72.733330 140.0
1.69 1.69120 2.30 74.966670 153.333330
1.68 1.682170 2.20 77.20 166.666670
1.67 1.672230 2.30 74.80 180.0
1.66 1.66230 2.40 72.40 165.555560
1.65 1.652370 2.50 70.0 151.111110
1.64 1.642440 2.40 70.366670 136.666670
1.63 1.632510 2.30 70.733330 146.666670
1.62 1.622570 2.20 71.10 156.666670
1.61 1.612640 2.233330 71.133330 166.666670
1.60 1.602710 2.266670 71.166670 167.777780
1.59 1.592780 2.30 71.20 168.888890
1.58 1.582840 2.366670 72.133330 170.0
1.57 1.572910 2.433330 73.066670 183.333330
1.56 1.562980 2.50 74.0 196.666670
1.55 1.553050 2.466670 72.666670 210.0
1.54 1.543120 2.433330 71.333330 202.222220
1.53 1.533180 2.40 70.0 194.444440
1.52 1.523250 2.40 71.066670 186.666670
1.51 1.513320 2.40 72.133330 167.777780
1.50 1.503390 2.40 73.20 148.888890
1.49 1.493450 2.333330 71.566670 130.0
1.48 1.483520 2.266670 69.933330 155.555560
1.47 1.473590 2.20 68.30 181.111110
1.46 1.463660 2.233330 67.866670 206.666670
1.45 1.453720 2.266670 67.433330 198.888890
1.44 1.443790 2.30 67.0 191.111110
1.43 1.433860 2.266670 68.80 183.333330
1.42 1.424830 2.233330 70.60 172.759860
1.41 1.41490 2.20 72.40 162.186380
1.40 1.404970 2.20 68.30 151.61290
1.39 1.395030 2.20 64.20 173.297490
1.38 1.38510 2.20 60.10 194.982080
1.37 1.375170 2.20 61.966670 216.666670
1.36 1.365240 2.20 63.833330 215.555560
1.35 1.35530 2.20 65.70 214.444440
1.34 1.345370 2.20 64.233330 213.333330
1.33 1.335440 2.20 62.766670 194.444440
1.32 1.325510 2.20 61.30 175.555560
1.31 1.315580 2.183330 61.316670 156.666670
1.30 1.305640 2.166670 61.333330 141.111110
1.29 1.295710 2.150 61.350 125.555560
1.28 1.284420 2.133330 61.366670 110.0
1.27 1.274040 2.116670 61.383330 137.777780
1.26 -999.25 2.10 61.40 165.555560
1.25 -999.25 2.10 63.833330 193.333330
1.24 -999.25 2.10 66.266670 186.666670
1.23 -999.25 2.10 68.70 180.0
1.22 -999.25 2.10 67.766670 166.666670
1.21 -999.25 2.10 66.833330 153.333330
1.20 -999.25 2.10 65.90 140.0
1.19 -999.25 2.033330 67.466670 147.777780
1.18 -999.25 1.966670 69.033330 155.555560
1.17 -999.25 1.90 70.60 163.333330
1.16 -999.25 1.90 69.066670 161.111110
1.15 -999.25 1.90 67.533330 158.888890
1.14 -999.25 1.90 66.0 156.666670
1.13 -999.25 1.933330 66.066670 153.333330
1.12 -999.25 1.966670 66.133330 150.0
1.11 -999.25 2.0 66.20 146.666670
1.10 -999.25 2.0 65.733330 140.0
1.09 -999.25 2.0 65.266670 133.333330
1.08 -999.25 2.0 64.80 126.666670
1.07 -999.25 2.0 64.70 135.555560
1.06 -999.25 2.0 64.60 144.444440
1.05 -999.25 2.0 64.50 153.333330
1.04 -999.25 1.933330 65.466670 148.888890
1.03 -999.25 1.866670 66.433330 144.444440
1.02 -999.25 1.80 67.40 140.0
1.01 -999.25 1.866670 67.0 154.444440
1.00 -999.25 1.933330 66.60 168.888890
0.99 -999.25 2.0 66.20 183.333330
0.98 -999.25 2.0 74.50 168.888890
0.97 -999.25 1.90 62.70 154.444440
0.96 -999.25 -999.25 -999.25 140.0
0.95 -999.25 -999.25 -999.25 150.0
0.94 -999.25 -999.25 -999.25 160.0
0.93 -999.25 -999.25 -999.25 170.0
0.92 -999.25 -999.25 -999.25 161.111110
0.91 -999.25 -999.25 -999.25 152.222220
0.90 -999.25 -999.25 -999.25 143.333330
0.89 -999.25 -999.25 -999.25 150.0
0.88 -999.25 -999.25 -999.25 156.666670
0.87 -999.25 -999.25 -999.25 163.333330
0.86 -999.25 -999.25 -999.25 162.652330
0.85 -999.25 -999.25 -999.25 161.971330
0.84 -999.25 -999.25 -999.25 161.290320
0.83 -999.25 -999.25 -999.25 150.860220
0.82 -999.25 -999.25 -999.25 140.430110
0.81 -999.25 -999.25 -999.25 130.0
0.80 -999.25 -999.25 -999.25 146.666670
0.79 -999.25 -999.25 -999.25 163.333330
0.78 -999.25 -999.25 -999.25 180.0
0.77 -999.25 -999.25 -999.25 160.0
0.76 -999.25 -999.25 -999.25 140.0
0.75 -999.25 -999.25 -999.25 120.0
0.74 -999.25 -999.25 -999.25 125.555560
0.73 -999.25 -999.25 -999.25 131.111110
0.72 -999.25 -999.25 -999.25 136.666670
0.71 -999.25 -999.25 -999.25 137.777780
0.70 -999.25 -999.25 -999.25 138.888890
0.69 -999.25 -999.25 -999.25 140.0
0.68 -999.25 -999.25 -999.25 160.0
0.67 -999.25 -999.25 -999.25 180.0
0.66 -999.25 -999.25 -999.25 200.0
0.65 -999.25 -999.25 -999.25 187.71930
0.64 -999.25 -999.25 -999.25 175.43860
0.63 -999.25 -999.25 -999.25 163.157890
0.62 -999.25 -999.25 -999.25 165.43860
0.61 -999.25 -999.25 -999.25 167.71930
0.60 -999.25 -999.25 -999.25 170.0
0.59 -999.25 -999.25 -999.25 164.444440
0.58 -999.25 -999.25 -999.25 158.888890
0.57 -999.25 -999.25 -999.25 153.333330
0.56 -999.25 -999.25 -999.25 138.888890
0.55 -999.25 -999.25 -999.25 124.444440
0.54 -999.25 -999.25 -999.25 110.0
0.53 -999.25 -999.25 -999.25 122.222220
0.52 -999.25 -999.25 -999.25 134.444440
0.51 -999.25 -999.25 -999.25 146.666670
0.50 -999.25 -999.25 -999.25 148.888890
0.49 -999.25 -999.25 -999.25 151.111110
0.48 -999.25 -999.25 -999.25 153.333330
0.47 -999.25 -999.25 -999.25 164.444440
0.46 -999.25 -999.25 -999.25 175.555560
0.45 -999.25 -999.25 -999.25 186.666670
0.44 -999.25 -999.25 -999.25 175.23810
0.43 -999.25 -999.25 -999.25 163.809520
0.42 -999.25 -999.25 -999.25 152.380950
0.41 -999.25 -999.25 -999.25 137.301590
0.40 -999.25 -999.25 -999.25 122.222220
0.39 -999.25 -999.25 -999.25 126.666670
