~VERSION INFORMATION SECTION
VERS. 2.0 : CWLS LAS-VERSION 2.0
WRAP. NO : One line per depth step
~WELL INFORMATION SECTION
# MNEM.UNIT VALUE/NAME DESCRIPTION
#-------- -------------- ---------------------
STRT.Metres 16 : Start
STOP.Metres 0.42 : Stop
STEP.Metres -0.01 : Step
NULL.  -999.25 :NULL VALUE
DATE. 2025-22-11 : DATE
~CURVE INFORMATION SECTION
DEPTH.Metres : 0 Depth
Depth. : 1 Depth
Incline.Deg : 2 Incline
Azimuth.Deg : 3 Azimuth
GR.CPS : 4 GR
~PARAMETER INFORMATION SECTION
~OTHER
#-------------------------------------------------
#Produced By: GeoVista Logger - Version 7.1.107.0
Natural Gamma Sonde - 6447
Verticality Sonde - 6292
#-------------------------------------------------
~ASCII LOG DATA
# ...
3.60 3.619860 3.16250 84.96250 168.333330
3.59 3.610840 3.150 86.350 165.833330
3.58 3.601810 3.13750 87.73750 163.333330
3.57 3.592780 3.1250 89.1250 160.833330
3.56 3.583750 3.11250 90.51250 158.333330
3.55 3.574720 3.10 91.90 155.833330
3.54 3.561630 3.08750 90.80 153.333330
3.53 3.548530 3.0750 89.70 155.940860
3.52 3.540110 3.06250 88.60 158.548390
3.51 3.531680 3.050 87.50 161.155910
3.50 3.523250 3.03750 86.40 163.763440
3.49 3.510160 3.0250 85.30 166.370970
3.48 3.497070 3.01250 84.20 168.978490
3.47 3.488340 3.0 83.10 171.586020
3.46 3.479610 3.01250 84.150 174.193550
3.45 3.470880 3.0250 85.20 170.752690
3.44 3.462450 3.03750 86.250 167.311830
3.43 3.454030 3.050 87.30 163.870970
3.42 3.44560 3.06250 88.350 160.430110
3.41 3.432510 3.0750 89.40 156.989250
3.40 3.419410 3.08750 90.450 153.548390
3.39 3.410380 3.10 91.50 150.107530
3.38 3.401350 3.06250 91.81250 146.666670
3.37 3.392330 3.0250 92.1250 147.857140
3.36 3.38360 2.98750 92.43750 149.047620
3.35 3.374870 2.950 92.750 150.23810
3.34 3.366140 2.91250 93.06250 151.428570
3.33 3.353050 2.8750 93.3750 152.619050
3.32 3.339950 2.83750 93.68750 153.809520
3.31 3.331230 2.80 94.0 155.0
3.30 3.32250 2.80 92.950 150.6250
3.29 3.313770 2.80 91.90 146.250
3.28 3.300230 2.80 90.850 141.8750
3.27 3.286680 2.80 89.80 137.50
3.26 3.277950 2.80 88.750 133.1250
3.25 3.269220 2.80 87.70 128.750
3.24 3.26050 2.80 86.650 124.3750
3.23 3.251770 2.80 85.60 120.0
3.22 3.243040 2.7750 86.61250 128.750
3.21 3.234310 2.750 87.6250 137.50
3.20 3.221220 2.7250 88.63750 146.250
3.19 3.208130 2.70 89.650 155.0
3.18 3.19940 2.6750 90.66250 163.750
3.17 3.190670 2.650 91.6750 172.50
3.16 3.181940 2.6250 92.68750 181.250
3.15 3.172910 2.60 93.70 190.0
3.14 3.163880 2.6250 93.050 185.833330
3.13 3.154850 2.650 92.40 181.666670
3.12 3.141760 2.6750 91.750 177.50
3.11 3.128670 2.70 91.10 173.333330
3.10 3.119940 2.7250 90.450 169.166670
3.09 3.111210 2.750 89.80 165.0
3.08 3.102480 2.7750 89.150 160.833330
3.07 3.093450 2.80 88.50 156.666670
3.06 3.084420 2.80 87.8250 162.916670
3.05 3.07540 2.80 87.150 169.166670
3.04 3.06230 2.80 86.4750 175.416670
3.03 3.049210 2.80 85.80 181.666670
3.02 3.040180 2.80 85.1250 187.916670
3.01 3.031150 2.80 84.450 194.166670
3.00 3.022120 2.80 83.7750 200.416670
2.99 3.013390 2.80 83.10 206.666670
2.98 3.004670 2.7750 83.63750 199.047620
2.97 2.995940 2.750 84.1750 191.428570
2.96 2.982390 2.7250 84.71250 183.809520
2.95 2.968850 2.70 85.250 176.190480
2.94 2.960120 2.6750 85.78750 168.571430
2.93 2.951390 2.650 86.3250 160.952380
2.92 2.942660 2.6250 86.86250 153.333330
2.91 2.933630 2.60 87.40 153.70370
2.90 2.92460 2.58750 86.76250 154.074070
2.89 2.915580 2.5750 86.1250 154.444440
2.88 2.902480 2.56250 85.48750 154.814810
2.87 2.889390 2.550 84.850 155.185190
2.86 2.880360 2.53750 84.21250 155.555560
2.85 2.871330 2.5250 83.5750 155.925930
2.84 2.86230 2.51250 82.93750 156.29630
2.83 2.853570 2.50 82.30 156.666670
2.82 2.844850 2.51250 82.950 156.666670
2.81 2.836120 2.5250 83.60 156.666670
2.80 2.822570 2.53750 84.250 156.666670
2.79 2.809030 2.550 84.90 156.666670
2.78 2.80030 2.56250 85.550 156.666670
2.77 2.791570 2.5750 86.20 156.666670
2.76 2.782840 2.58750 86.850 156.666670
2.75 2.773810 2.60 87.50 156.666670
2.74 2.764790 2.61250 86.30 159.166670
2.73 2.755760 2.6250 85.10 161.666670
2.72 2.742210 2.63750 83.90 164.166670
2.71 2.728670 2.650 82.70 166.666670
2.70 2.719340 2.66250 81.50 169.166670
2.69 2.710010 2.6750 80.30 171.666670
2.68 2.700680 2.68750 79.10 174.166670
2.67 2.691650 2.70 77.90 176.666670
2.66 2.682620 2.6750 79.76250 172.380950
2.65 2.673590 2.650 81.6250 168.095240
2.64 2.660050 2.6250 83.48750 163.809520
2.63 2.64650 2.60 85.350 159.523810
2.62 2.637770 2.5750 87.21250 155.23810
2.61 2.629040 2.550 89.0750 150.952380
2.60 2.620320 2.5250 90.93750 146.666670
2.59 2.611890 2.50 92.80 145.0
2.58 2.603460 2.48750 90.93750 143.333330
2.57 2.595030 2.4750 89.0750 141.666670
2.56 2.581940 2.46250 87.21250 140.0
2.55 2.568850 2.450 85.350 138.333330
2.54 2.560120 2.43750 83.48750 136.666670
2.53 2.551390 2.4250 81.6250 135.0
2.52 2.542660 2.41250 79.76250 133.333330
2.51 2.533940 2.40 77.90 135.416670
2.50 2.525210 2.38750 76.03750 137.50
2.49 2.516480 2.3750 74.1750 139.583330
2.48 2.502930 2.36250 72.31250 141.666670
2.47 2.489390 2.350 70.450 143.750
2.46 2.480660 2.33750 68.58750 145.833330
2.45 2.471930 2.3250 66.7250 147.916670
2.44 2.463210 2.31250 64.86250 150.0
2.43 2.450110 2.30 63.0 150.416670
2.42 2.437020 2.350 64.450 150.833330
2.41 2.428290 2.40 65.90 151.250
2.40 2.419560 2.450 67.350 151.666670
2.39 2.410840 2.50 68.80 152.083330
2.38 2.402110 2.550 70.250 152.50
2.37 2.393380 2.60 71.70 152.916670
2.36 2.384650 2.650 73.150 153.333330
2.35 2.372010 2.70 74.60 157.916670
2.34 2.359370 2.66250 75.98750 162.50
2.33 2.350640 2.6250 77.3750 167.083330
2.32 2.341910 2.58750 78.76250 171.666670
2.31 2.333180 2.550 80.150 176.250
2.30 2.320090 2.51250 81.53750 180.833330
2.29 2.3070 2.4750 82.9250 185.416670
2.28 2.298570 2.43750 84.31250 190.0
2.27 2.290140 2.40 85.70 190.0
2.26 2.281720 2.450 84.150 190.0
2.25 2.272990 2.50 82.60 190.0
2.24 2.264260 2.550 81.050 190.0
2.23 2.255530 2.60 79.50 190.0
2.22 2.241990 2.650 77.950 190.0
2.21 2.228440 2.70 76.40 190.0
2.20 2.219710 2.750 74.850 190.0
2.19 2.210990 2.80 73.30 187.083330
2.18 2.202260 2.771430 76.042860 184.166670
2.17 2.193530 2.742860 78.785710 181.250
2.16 2.18480 2.714290 81.528570 178.333330
2.15 2.176070 2.685710 84.271430 175.416670
2.14 2.162980 2.657140 87.014290 172.50
2.13 2.149890 2.628570 89.757140 169.583330
2.12 2.141160 2.60 92.50 166.666670
2.11 2.132430 2.606250 91.343750 172.043010
2.10 2.12370 2.61250 90.18750 177.419350
2.09 2.110160 2.618750 89.031250 182.79570
2.08 2.096610 2.6250 87.8750 188.172040
2.07 2.087890 2.631250 86.718750 193.548390
2.06 2.079160 2.63750 85.56250 198.924730
2.05 2.070430 2.643750 84.406250 204.301080
2.04 2.06140 2.650 83.250 209.677420
2.03 2.052370 2.656250 82.093750 206.801080
2.02 2.043340 2.66250 80.93750 203.924730
2.01 2.030250 2.668750 79.781250 201.048390
2.00 2.017160 2.6750 78.6250 198.172040
1.99 2.008130 2.681250 77.468750 195.29570
1.98 1.99910 2.68750 76.31250 192.419350
1.97 1.990070 2.693750 75.156250 189.543010
1.96 1.981340 2.70 74.0 186.666670
1.95 1.972610 2.71250 73.9750 186.250
1.94 1.963880 2.7250 73.950 185.833330
1.93 1.950340 2.73750 73.9250 185.416670
1.92 1.936790 2.750 73.90 185.0
1.91 1.928070 2.76250 73.8750 184.583330
1.90 1.919340 2.7750 73.850 184.166670
1.89 1.910610 2.78750 73.8250 183.750
1.88 1.901580 2.80 73.80 183.333330
1.87 1.892550 2.750 73.58750 179.166670
1.86 1.883520 2.70 73.3750 175.0
1.85 1.870430 2.650 73.16250 170.833330
1.84 1.857340 2.60 72.950 166.666670
1.83 1.848610 2.550 72.73750 162.50
1.82 1.839880 2.50 72.5250 158.333330
1.81 1.831150 2.450 72.31250 154.166670
1.80 1.822120 2.40 72.10 150.0
1.79 1.813090 2.41250 72.7250 152.50
1.78 1.804060 2.4250 73.350 155.0
1.77 1.790970 2.43750 73.9750 157.50
1.76 1.777880 2.450 74.60 160.0
1.75 1.769150 2.46250 75.2250 162.50
1.74 1.760420 2.4750 75.850 165.0
1.73 1.751690 2.48750 76.4750 167.50
1.72 1.742960 2.50 77.10 170.0
1.71 1.734240 2.46250 76.63750 170.416670
1.70 1.725510 2.4250 76.1750 170.833330
1.69 1.711960 2.38750 75.71250 171.250
1.68 1.698420 2.350 75.250 171.666670
1.67 1.689690 2.31250 74.78750 172.083330
1.66 1.680960 2.2750 74.3250 172.50
1.65 1.672230 2.23750 73.86250 172.916670
1.64 1.663510 2.20 73.40 173.333330
1.63 1.654780 2.18750 72.73750 174.583330
1.62 1.646050 2.1750 72.0750 175.833330
1.61 1.632510 2.16250 71.41250 177.083330
1.60 1.618960 2.150 70.750 178.333330
1.59 1.610230 2.13750 70.08750 179.583330
1.58 1.60150 2.1250 69.4250 180.833330
1.57 1.592780 2.11250 68.76250 182.083330
1.56 1.584050 2.10 68.10 183.333330
1.55 1.575320 2.11250 68.76250 179.583330
1.54 1.566590 2.1250 69.4250 175.833330
1.53 1.553050 2.13750 70.08750 172.083330
1.52 1.53950 2.150 70.750 168.333330
1.51 1.530780 2.16250 71.41250 164.583330
