~VERSION INFORMATION SECTION
VERS. 2.0 : CWLS LAS-VERSION 2.0
WRAP. NO : One line per depth step
~WELL INFORMATION SECTION
# MNEM.UNIT VALUE/NAME DESCRIPTION
#-------- -------------- ---------------------
STRT.Metres 16 : Start
STOP.Metres 0.15 : Stop
STEP.Metres -0.01 : Step
NULL.  -999.25 :NULL VALUE
DATE. 2025-24-11 : DATE
~CURVE INFORMATION SECTION
DEPTH.Metres : 0 Depth
Depth. : 1 Depth
Incline.Deg : 2 Incline
Azimuth.Deg : 3 Azimuth
GR.CPS : 4 GR
~PARAMETER INFORMATION SECTION
~OTHER
#-------------------------------------------------
#Produced By: GeoVista Logger - Version 7.1.107.0
Natural Gamma Sonde - 6447
Verticality Sonde - 6292
#-------------------------------------------------
~ASCII LOG DATA
# ...
4.54 4.577160 2.715790 92.502630 177.28070
4.53 4.568670 2.731580 92.305260 180.0
4.52 4.560180 2.747370 92.107890 174.358970
4.51 4.551690 2.763160 91.910530 168.717950
4.50 4.541080 2.778950 91.713160 163.076920
4.49 4.530470 2.794740 91.515790 157.43590
4.48 4.519860 2.810530 91.318420 151.794870
4.47 4.509260 2.826320 91.121050 146.153850
4.46 4.498650 2.842110 90.923680 140.512820
4.45 4.488040 2.857890 90.726320 134.871790
4.44 4.477430 2.873680 90.528950 129.230770
4.43 4.466820 2.889470 90.331580 123.589740
4.42 4.456430 2.905260 90.134210 117.948720
4.41 4.446050 2.921050 89.936840 112.307690
4.40 4.435670 2.936840 89.739470 106.666670
4.39 4.425280 2.952630 89.542110 110.512820
4.38 4.414670 2.968420 89.344740 114.358970
4.37 4.404060 2.984210 89.147370 118.205130
4.36 4.393450 3.0 88.950 122.051280
4.35 4.382840 3.015790 88.752630 125.897440
4.34 4.374540 3.031580 88.555260 129.743590
4.33 4.366230 3.047370 88.357890 133.589740
4.32 4.357920 3.063160 88.160530 137.43590
4.31 4.349620 3.078950 87.963160 141.282050
4.30 4.341310 3.094740 87.765790 145.128210
4.29 4.330930 3.110530 87.568420 148.974360
4.28 4.320540 3.126320 87.371050 152.820510
4.27 4.310160 3.142110 87.173680 156.666670
4.26 4.299770 3.157890 86.976320 160.0
4.25 4.289620 3.173680 86.778950 163.333330
4.24 4.279460 3.189470 86.581580 166.666670
4.23 4.26930 3.205260 86.384210 170.0
4.22 4.259140 3.221050 86.186840 173.333330
4.21 4.248980 3.236840 85.989470 176.666670
4.20 4.238830 3.252630 85.792110 180.0
4.19 4.228670 3.268420 85.594740 183.333330
4.18 4.218510 3.284210 85.397370 186.666670
4.17 4.208350 3.30 85.20 190.0
4.16 4.198190 3.2750 86.4250 193.333330
4.15 4.188040 3.250 87.650 196.666670
4.14 4.177880 3.2250 88.8750 200.0
4.13 4.167490 3.20 90.10 197.50
4.12 4.157110 3.1750 91.3250 195.0
4.11 4.146730 3.150 92.550 192.50
4.10 4.136340 3.1250 93.7750 190.0
4.09 4.125960 3.10 95.0 187.50
4.08 4.115580 3.0750 96.2250 185.0
4.07 4.105190 3.050 97.450 182.50
4.06 4.094810 3.0250 98.6750 180.0
4.05 4.084420 3.0 99.90 177.50
4.04 4.074040 2.969230 99.807690 175.0
4.03 4.063660 2.938460 99.715380 172.50
4.02 4.053270 2.907690 99.623080 170.0
4.01 4.044970 2.876920 99.530770 170.0
4.00 4.036660 2.846150 99.438460 170.0
3.99 4.028350 2.815380 99.346150 170.0
3.98 4.020050 2.784620 99.253850 170.0
3.97 4.011740 2.753850 99.161540 170.0
3.96 4.001130 2.723080 99.069230 170.0
3.95 3.990520 2.692310 98.976920 170.0
3.94 3.979910 2.661540 98.884620 170.0
3.93 3.96930 2.630770 98.792310 170.0
3.92 3.958470 2.60 98.70 170.0
3.91 3.947630 2.633330 98.20 170.0
3.90 3.936790 2.666670 97.70 170.0
3.89 3.925960 2.70 97.20 170.0
3.88 3.917110 2.733330 96.70 169.743590
3.87 3.908260 2.766670 96.20 169.487180
3.86 3.899410 2.80 95.70 169.230770
3.85 3.890560 2.833330 95.20 168.974360
3.84 3.881720 2.866670 94.70 168.717950
3.83 3.870880 2.90 94.20 168.461540
3.82 3.860050 2.933330 93.70 168.205130
3.81 3.849210 2.966670 93.20 167.948720
3.80 3.838370 3.0 92.70 167.692310
3.79 3.827540 2.984620 92.70 167.43590
3.78 3.81670 2.969230 92.70 167.179490
3.77 3.805870 2.953850 92.70 166.923080
3.76 3.795030 2.938460 92.70 166.666670
3.75 3.786190 2.923080 92.70 166.666670
3.74 3.777340 2.907690 92.70 166.666670
3.73 3.768490 2.892310 92.70 166.666670
3.72 3.759640 2.876920 92.70 166.666670
3.71 3.750790 2.861540 92.70 166.666670
3.70 3.739730 2.846150 92.70 166.666670
3.69 3.728670 2.830770 92.70 166.666670
3.68 3.717610 2.815380 92.70 166.666670
3.67 3.706550 2.80 92.70 166.666670
3.66 3.69770 2.815380 91.869230 166.666670
3.65 3.688850 2.830770 91.038460 166.666670
3.64 3.680 2.846150 90.207690 166.666670
3.63 3.671150 2.861540 89.376920 166.666670
3.62 3.66230 2.876920 88.546150 166.944440
3.61 3.651470 2.892310 87.715380 167.222220
3.60 3.640630 2.907690 86.884620 167.50
3.59 3.62980 2.923080 86.053850 167.777780
3.58 3.618960 2.938460 85.223080 168.055560
3.57 3.608350 2.953850 84.392310 168.333330
3.56 3.597740 2.969230 83.561540 168.611110
3.55 3.587130 2.984620 82.730770 168.888890
3.54 3.576520 3.0 81.90 169.166670
3.53 3.565910 3.0 82.369230 169.444440
3.52 3.55530 3.0 82.838460 169.722220
3.51 3.54470 3.0 83.307690 170.0
3.50 3.534090 3.0 83.776920 171.538460
3.49 3.52560 3.0 84.246150 173.076920
3.48 3.517110 3.0 84.715380 174.615380
3.47 3.508620 3.0 85.184620 176.153850
3.46 3.500140 3.0 85.653850 177.692310
3.45 3.491650 3.0 86.123080 179.230770
3.44 3.481040 3.0 86.592310 180.769230
3.43 3.470430 3.0 87.061540 182.307690
3.42 3.459820 3.0 87.530770 183.846150
3.41 3.449210 3.0 88.0 185.384620
3.40 3.43860 2.992310 88.361540 186.923080
3.39 3.427990 2.984620 88.723080 188.461540
3.38 3.417380 2.976920 89.084620 190.0
3.37 3.406770 2.969230 89.446150 188.333330
3.36 3.395940 2.961540 89.807690 186.666670
3.35 3.38510 2.953850 90.169230 185.0
3.34 3.374270 2.946150 90.530770 183.333330
3.33 3.363430 2.938460 90.892310 181.666670
3.32 3.354760 2.930770 91.253850 180.0
3.31 3.346090 2.923080 91.615380 178.333330
3.30 3.337430 2.915380 91.976920 176.666670
3.29 3.328760 2.907690 92.338460 175.0
3.28 3.320090 2.90 92.70 173.333330
3.27 3.309480 2.884620 92.138460 171.666670
3.26 3.298870 2.869230 91.576920 170.0
3.25 3.288260 2.853850 91.015380 170.0
3.24 3.277650 2.838460 90.453850 170.0
3.23 3.266820 2.823080 89.892310 170.0
3.22 3.255980 2.807690 89.330770 170.0
3.21 3.245150 2.792310 88.769230 170.0
3.20 3.234310 2.776920 88.207690 170.0
3.19 3.225640 2.761540 87.646150 170.0
3.18 3.216980 2.746150 87.084620 170.0
3.17 3.208310 2.730770 86.523080 170.0
3.16 3.199640 2.715380 85.961540 170.0
3.15 3.190970 2.70 85.40 170.0
3.14 3.180360 2.691670 86.566670 170.0
3.13 3.169750 2.683330 87.733330 167.948720
3.12 3.159140 2.6750 88.90 165.897440
3.11 3.148530 2.666670 90.066670 163.846150
3.10 3.13770 2.658330 91.233330 161.794870
3.09 3.126860 2.650 92.40 159.743590
3.08 3.116030 2.641670 93.566670 157.692310
3.07 3.105190 2.633330 94.733330 155.641030
3.06 3.096520 2.6250 95.90 153.589740
3.05 3.087860 2.616670 97.066670 151.538460
3.04 3.079190 2.608330 98.233330 149.487180
3.03 3.070520 2.60 99.40 147.43590
3.02 3.061850 2.607690 98.746150 145.384620
3.01 3.050790 2.615380 98.092310 143.333330
3.00 3.039730 2.623080 97.438460 143.461540
2.99 3.028670 2.630770 96.784620 143.589740
2.98 3.017610 2.638460 96.130770 143.717950
2.97 3.006770 2.646150 95.476920 143.846150
2.96 2.995940 2.653850 94.823080 143.974360
2.95 2.98510 2.661540 94.169230 144.102560
2.94 2.974270 2.669230 93.515380 144.230770
2.93 2.96560 2.676920 92.861540 144.358970
2.92 2.956930 2.684620 92.207690 144.487180
2.91 2.948260 2.692310 91.553850 144.615380
2.90 2.939590 2.70 90.90 144.743590
2.89 2.930930 2.684620 90.969230 144.871790
2.88 2.920090 2.669230 91.038460 145.0
2.87 2.909260 2.653850 91.107690 150.357140
2.86 2.898420 2.638460 91.176920 155.714290
2.85 2.887580 2.623080 91.246150 161.071430
2.84 2.878920 2.607690 91.315380 166.428570
2.83 2.870250 2.592310 91.384620 171.785710
2.82 2.861580 2.576920 91.453850 177.142860
2.81 2.852910 2.561540 91.523080 182.50
2.80 2.844240 2.546150 91.592310 187.857140
2.79 2.833180 2.530770 91.661540 193.214290
2.78 2.822120 2.515380 91.730770 198.571430
2.77 2.811060 2.50 91.80 203.928570
2.76 2.80 2.492310 92.115380 209.285710
2.75 2.788940 2.484620 92.430770 214.642860
2.74 2.777880 2.476920 92.746150 220.0
2.73 2.766820 2.469230 93.061540 218.055560
2.72 2.755760 2.461540 93.376920 216.111110
2.71 2.746730 2.453850 93.692310 214.166670
2.70 2.73770 2.446150 94.007690 212.222220
2.69 2.728670 2.438460 94.323080 210.277780
2.68 2.719640 2.430770 94.638460 208.333330
2.67 2.710610 2.423080 94.953850 206.388890
2.66 2.699320 2.415380 95.269230 204.444440
2.65 2.688040 2.407690 95.584620 202.50
2.64 2.676750 2.40 95.90 200.555560
2.63 2.665460 2.407690 94.469230 198.611110
2.62 2.65530 2.415380 93.038460 196.666670
2.61 2.645150 2.423080 91.607690 191.282050
2.60 2.634990 2.430770 90.176920 185.897440
2.59 2.624830 2.438460 88.746150 180.512820
2.58 2.616160 2.446150 87.315380 175.128210
