~VERSION INFORMATION SECTION
VERS. 2.0 : CWLS LAS-VERSION 2.0
WRAP. NO : One line per depth step
~WELL INFORMATION SECTION
# MNEM.UNIT VALUE/NAME DESCRIPTION
#-------- -------------- ---------------------
STRT.Metres 17 : Start
STOP.Metres 0.39 : Stop
STEP.Metres -0.01 : Step
NULL.  -999.25 :NULL VALUE
DATE. 2025-14-11 : DATE
~CURVE INFORMATION SECTION
DEPTH.Metres : 0 Depth
Depth. : 1 Depth
Incline.Deg : 2 Incline
Azimuth.Deg : 3 Azimuth
GR.CPS : 4 GR
~PARAMETER INFORMATION SECTION
~OTHER
#-------------------------------------------------
#Produced By: GeoVista Logger - Version 7.1.107.0
Natural Gamma Sonde - 6447
Verticality Sonde - 6292
#-------------------------------------------------
~ASCII LOG DATA
# ...
12.87 12.879460 5.70 90.30 110.0
12.86 12.869530 5.70 90.766670 100.0
12.85 12.859590 5.70 91.233330 112.222220
12.84 12.849660 5.70 91.70 124.444440
12.83 12.839730 5.666670 91.633330 136.666670
12.82 12.82980 5.633330 91.566670 134.444440
12.81 12.815350 5.60 91.50 132.222220
12.80 12.80090 5.60 91.333330 130.0
12.79 12.790970 5.60 91.166670 124.444440
12.78 12.781040 5.60 91.0 118.888890
12.77 12.771110 5.533330 90.30 113.333330
12.76 12.761170 5.466670 89.60 125.555560
12.75 12.752140 5.40 88.90 137.777780
12.74 12.742210 5.466670 89.766670 150.0
12.73 12.732280 5.533330 90.633330 148.888890
12.72 12.722350 5.60 91.50 147.777780
12.71 12.712420 5.60 92.50 146.666670
12.70 12.703390 5.60 93.50 135.555560
12.69 12.693450 5.60 94.50 124.444440
12.68 12.683520 5.566670 94.0 113.333330
12.67 12.673590 5.533330 93.50 117.777780
12.66 12.663660 5.50 93.0 122.222220
12.65 12.653720 5.533330 91.90 126.666670
12.64 12.643790 5.566670 90.80 123.333330
12.63 12.633860 5.60 89.70 120.0
12.62 12.623930 5.60 90.033330 116.666670
12.61 12.6140 5.60 90.366670 118.888890
12.60 12.604060 5.60 90.70 121.111110
12.59 12.594130 5.566670 91.633330 123.333330
12.58 12.58420 5.533330 92.566670 125.555560
12.57 12.575170 5.50 93.50 127.777780
12.56 12.565240 5.50 93.366670 130.0
12.55 12.55530 5.50 93.233330 127.777780
12.54 12.545370 5.50 93.10 125.555560
12.53 12.535440 5.550 91.80 123.333330
12.52 12.526410 5.60 90.50 122.222220
12.51 12.516480 5.60 91.566670 121.111110
12.50 12.506550 5.60 92.633330 120.0
12.49 12.496610 5.60 93.70 115.555560
12.48 12.487580 5.566670 92.90 111.111110
12.47 12.477650 5.533330 92.10 106.666670
12.46 12.467720 5.50 91.30 120.573480
12.45 12.458690 5.50 91.066670 134.480290
12.44 12.448760 5.50 90.833330 148.38710
12.43 12.438830 5.50 90.60 151.146950
12.42 12.42980 5.50 91.466670 153.906810
12.41 12.419860 5.50 92.333330 156.666670
12.40 12.409930 5.50 93.20 155.555560
12.39 12.395490 5.466670 93.066670 154.444440
12.38 12.381040 5.433330 92.933330 153.333330
12.37 12.371110 5.40 92.80 121.666670
12.36 12.361170 5.366670 92.466670 90.0
12.35 12.352140 5.333330 92.133330 101.111110
12.34 12.342210 5.30 91.80 112.222220
12.33 12.332280 5.333330 92.666670 123.333330
12.32 12.322350 5.366670 93.533330 140.0
12.31 12.313320 5.40 94.40 156.666670
12.30 12.303390 5.40 93.266670 173.333330
12.29 12.293450 5.40 92.133330 173.333330
12.28 12.283520 5.40 91.0 173.333330
12.27 12.274490 5.40 92.366670 173.333330
12.26 12.264560 5.40 93.733330 156.666670
12.25 12.254630 5.40 95.10 140.0
12.24 12.24560 5.40 94.433330 123.333330
12.23 12.235670 5.40 93.766670 113.333330
12.22 12.225730 5.40 93.10 103.333330
12.21 12.21670 5.40 93.30 93.333330
12.20 12.206770 5.40 93.50 108.888890
12.19 12.196840 5.40 93.70 124.444440
12.18 12.186910 5.366670 92.666670 140.0
12.17 12.177880 5.333330 91.633330 127.777780
12.16 12.167950 5.30 90.60 115.555560
12.15 12.158010 5.350 92.30 103.333330
12.14 12.148080 5.40 94.0 106.666670
12.13 12.139050 5.366670 94.633330 110.0
12.12 12.129120 5.333330 95.266670 113.333330
12.11 12.119190 5.30 95.90 121.111110
12.10 12.104740 5.30 94.70 128.888890
12.09 12.090290 5.30 93.50 136.666670
12.08 12.080360 5.30 92.30 141.111110
12.07 12.070430 5.30 93.433330 145.555560
12.06 12.06140 5.30 94.566670 150.0
12.05 12.051470 5.30 95.70 152.222220
12.04 12.041530 5.30 96.233330 154.444440
12.03 12.03160 5.30 96.766670 156.666670
12.02 12.022570 5.30 97.30 145.555560
12.01 12.012640 5.266670 96.60 134.444440
12.00 12.002710 5.233330 95.90 123.333330
11.99 11.992780 5.20 95.20 125.0
11.98 11.982840 5.20 94.833330 126.666670
11.97 11.972910 5.20 94.466670 136.666670
11.96 11.963880 5.20 94.10 146.666670
11.95 11.953950 5.20 94.266670 156.666670
11.94 11.944020 5.20 94.433330 149.605730
11.93 11.934090 5.20 94.60 142.54480
11.92 11.924150 5.20 95.066670 135.483870
11.91 11.914220 5.20 95.533330 138.100360
11.90 11.904290 5.20 96.0 140.716850
11.89 11.895260 5.20 95.0 143.333330
11.88 11.885330 5.20 94.0 141.111110
11.87 11.87540 5.20 93.0 138.888890
11.86 11.865460 5.20 93.60 136.666670
11.85 11.855530 5.20 94.20 127.777780
11.84 11.84650 5.20 94.80 118.888890
11.83 11.836570 5.20 94.60 110.0
11.82 11.826640 5.20 94.40 112.222220
11.81 11.81670 5.20 94.20 114.444440
11.80 11.806770 5.20 93.70 116.666670
11.79 11.796840 5.20 93.20 130.0
11.78 11.786910 5.20 94.30 143.333330
11.77 11.776980 5.20 95.40 156.666670
11.76 11.767040 5.20 96.50 148.888890
11.75 11.757110 5.166670 95.633330 141.111110
11.74 11.747180 5.133330 94.766670 133.333330
11.73 11.737250 5.10 93.90 123.333330
11.72 11.727310 5.133330 93.80 113.333330
11.71 11.717380 5.166670 93.70 103.333330
11.70 11.707450 5.20 93.60 115.555560
11.69 11.697520 5.20 94.60 127.777780
11.68 11.688490 5.20 95.60 140.0
11.67 11.678560 5.20 96.60 135.555560
11.66 11.668620 5.166670 95.30 131.111110
11.65 11.658690 5.133330 94.0 126.666670
11.64 11.648760 5.10 92.70 124.444440
11.63 11.638830 5.10 92.766670 122.222220
11.62 11.62980 5.10 92.833330 120.0
11.61 11.619860 5.10 92.90 123.333330
11.60 11.609930 5.10 93.90 126.666670
11.59 11.595490 5.10 94.90 130.0
11.58 11.581040 5.10 95.90 120.0
11.57 11.571110 5.066670 96.60 110.0
11.56 11.562080 5.033330 97.30 100.0
11.55 11.552140 5.0 98.0 94.444440
11.54 11.542210 5.0 97.0 88.888890
11.53 11.532280 5.0 96.0 95.925930
11.52 11.522350 5.0 95.0 102.962960
11.51 11.513320 5.0 94.933330 110.0
11.50 11.503390 5.0 94.866670 128.888890
11.49 11.493450 5.0 94.80 147.777780
11.48 11.483520 5.0 96.233330 166.666670
11.47 11.474490 5.0 97.666670 153.333330
11.46 11.464560 5.0 99.10 140.0
11.45 11.454630 5.0 96.733330 126.666670
11.44 11.44470 5.0 94.366670 136.666670
11.43 11.435670 5.0 92.0 146.666670
11.42 11.425730 5.0 94.166670 156.666670
11.41 11.41580 5.0 96.333330 161.111110
11.40 11.406770 5.0 98.50 165.555560
11.39 11.396840 4.966670 98.633330 170.0
11.38 11.386910 4.933330 98.766670 161.720430
11.37 11.377880 4.90 98.90 153.440860
11.36 11.367950 4.866670 97.70 145.161290
11.35 11.358010 4.833330 96.50 143.440860
11.34 11.348980 4.80 95.30 141.720430
11.33 11.334540 4.850 96.350 140.0
11.32 11.320090 4.90 97.40 135.555560
11.31 11.310160 4.90 96.90 131.111110
11.30 11.300230 4.90 96.40 126.666670
11.29 11.29120 4.90 95.90 138.888890
11.28 11.281260 4.866670 96.20 151.111110
11.27 11.271330 4.833330 96.50 163.333330
11.26 11.26230 4.80 96.80 153.333330
11.25 11.252370 4.80 97.366670 143.333330
11.24 11.242440 4.80 97.933330 133.333330
11.23 11.233410 4.80 98.50 153.333330
11.22 11.223480 4.80 98.033330 173.333330
11.21 11.213540 4.80 97.566670 174.444440
11.20 11.203610 4.80 97.10 175.555560
11.19 11.194580 4.766670 97.966670 176.666670
11.18 11.184650 4.733330 98.833330 168.888890
11.17 11.174720 4.70 99.70 161.111110
11.16 11.165690 4.70 98.80 153.333330
11.15 11.155760 4.70 97.90 151.111110
11.14 11.145820 4.70 97.0 148.888890
11.13 11.135890 4.70 97.066670 146.666670
11.12 11.126860 4.70 97.133330 151.111110
11.11 11.116930 4.70 97.20 155.555560
11.10 11.1070 4.70 97.80 160.0
11.09 11.097970 4.70 98.40 168.888890
11.08 11.088040 4.70 99.0 177.777780
11.07 11.07810 4.70 98.733330 186.666670
11.06 11.068170 4.70 98.466670 177.777780
11.05 11.058240 4.70 98.20 168.888890
11.04 11.048310 4.650 96.70 160.0
11.03 11.039280 4.60 95.20 168.888890
11.02 11.029350 4.60 96.733330 177.777780
11.01 11.019410 4.60 98.266670 186.666670
11.00 11.004970 4.60 99.80 183.333330
10.99 10.990520 4.60 99.966670 180.0
10.98 10.980590 4.60 100.133330 176.666670
10.97 10.970650 4.60 100.30 190.0
10.96 10.961630 4.60 99.766670 203.333330
10.95 10.951690 4.60 99.233330 216.666670
10.94 10.941760 4.60 98.70 208.888890
10.93 10.931830 4.60 97.533330 201.111110
10.92 10.92280 4.60 96.366670 193.333330
10.91 10.912870 4.60 95.20 181.111110
10.90 10.902930 4.60 97.066670 168.888890
10.89 10.8930 4.60 98.933330 156.666670
10.88 10.883070 4.60 100.80 148.888890
10.87 10.873140 4.60 100.30 141.111110
10.86 10.863210 4.60 99.80 133.333330
10.85 10.853270 4.60 99.30 134.444440
10.84 10.844240 4.60 98.333330 135.555560
