~VERSION INFORMATION SECTION
VERS. 2.0 : CWLS LAS-VERSION 2.0
WRAP. NO : One line per depth step
~WELL INFORMATION SECTION
# MNEM.UNIT VALUE/NAME DESCRIPTION
#-------- -------------- ---------------------
STRT.Metres 16 : Start
STOP.Metres 0.15 : Stop
STEP.Metres -0.01 : Step
NULL.  -999.25 :NULL VALUE
DATE. 2025-24-11 : DATE
~CURVE INFORMATION SECTION
DEPTH.Metres : 0 Depth
Depth. : 1 Depth
Incline.Deg : 2 Incline
Azimuth.Deg : 3 Azimuth
GR.CPS : 4 GR
~PARAMETER INFORMATION SECTION
~OTHER
#-------------------------------------------------
#Produced By: GeoVista Logger - Version 7.1.107.0
Natural Gamma Sonde - 6447
Verticality Sonde - 6292
#-------------------------------------------------
~ASCII LOG DATA
# ...
2.57 2.607490 2.453850 85.884620 169.743590
2.56 2.598830 2.461540 84.453850 164.358970
2.55 2.590160 2.469230 83.023080 158.974360
2.54 2.581490 2.476920 81.592310 153.589740
2.53 2.570650 2.484620 80.161540 148.205130
2.52 2.559820 2.492310 78.730770 142.820510
2.51 2.548980 2.50 77.30 137.43590
2.50 2.538150 2.442860 77.692860 132.051280
2.49 2.527310 2.385710 78.085710 126.666670
2.48 2.516480 2.328570 78.478570 130.256410
2.47 2.505640 2.271430 78.871430 133.846150
2.46 2.494810 2.214290 79.264290 137.43590
2.45 2.486140 2.157140 79.657140 141.025640
2.44 2.477470 2.10 80.050 144.615380
2.43 2.46880 2.042860 80.442860 148.205130
2.42 2.460140 1.985710 80.835710 151.794870
2.41 2.451470 1.928570 81.228570 155.384620
2.40 2.440860 1.871430 81.621430 158.974360
2.39 2.430250 1.814290 82.014290 162.56410
2.38 2.419640 1.757140 82.407140 166.153850
2.37 2.409030 1.70 82.80 169.743590
2.36 2.398650 1.723080 82.469230 173.333330
2.35 2.388260 1.746150 82.138460 173.076920
2.34 2.377880 1.769230 81.807690 172.820510
2.33 2.367490 1.792310 81.476920 172.56410
2.32 2.357110 1.815380 81.146150 172.307690
2.31 2.346730 1.838460 80.815380 172.051280
2.30 2.336340 1.861540 80.484620 171.794870
2.29 2.325960 1.884620 80.153850 171.538460
2.28 2.315350 1.907690 79.823080 171.282050
2.27 2.304740 1.930770 79.492310 171.025640
2.26 2.294130 1.953850 79.161540 170.769230
2.25 2.283520 1.976920 78.830770 170.512820
2.24 2.273360 2.0 78.50 170.256410
2.23 2.263210 2.023080 78.169230 170.0
2.22 2.253050 2.046150 77.838460 172.820510
2.21 2.242890 2.069230 77.507690 175.641030
2.20 2.232960 2.092310 77.176920 178.461540
2.19 2.223020 2.115380 76.846150 181.282050
2.18 2.213090 2.138460 76.515380 184.102560
2.17 2.203160 2.161540 76.184620 186.923080
2.16 2.193450 2.184620 75.853850 189.743590
2.15 2.183750 2.207690 75.523080 192.56410
2.14 2.174040 2.230770 75.192310 195.384620
2.13 2.164330 2.253850 74.861540 198.205130
2.12 2.15440 2.276920 74.530770 201.025640
2.11 2.144470 2.30 74.20 203.846150
2.10 2.134540 2.30 75.308330 206.666670
2.09 2.12460 2.30 76.416670 203.333330
2.08 2.115120 2.30 77.5250 200.0
2.07 2.105640 2.30 78.633330 196.666670
2.06 2.096160 2.30 79.741670 193.333330
2.05 2.086680 2.30 80.850 190.0
2.04 2.074040 2.30 81.958330 186.666670
2.03 2.06140 2.30 83.066670 183.333330
2.02 2.048760 2.30 84.1750 180.0
2.01 2.039280 2.30 85.283330 176.666670
2.00 2.02980 2.30 86.391670 173.333330
1.99 2.020320 2.30 87.50 170.0
1.98 2.010840 2.316670 87.133330 166.666670
1.97 2.001580 2.333330 86.766670 163.333330
1.96 1.992330 2.350 86.40 162.307690
1.95 1.983070 2.366670 86.033330 161.282050
1.94 1.973810 2.383330 85.666670 160.256410
1.93 1.964330 2.40 85.30 159.230770
1.92 1.954850 2.416670 84.933330 158.205130
1.91 1.945370 2.433330 84.566670 157.179490
1.90 1.935890 2.450 84.20 156.153850
1.89 1.923250 2.466670 83.833330 155.128210
1.88 1.910610 2.483330 83.466670 154.102560
1.87 1.897970 2.50 83.10 153.076920
1.86 1.888490 2.483330 83.566670 152.051280
1.85 1.879010 2.466670 84.033330 151.025640
1.84 1.869530 2.450 84.50 150.0
1.83 1.860050 2.433330 84.966670 154.230770
1.82 1.850560 2.416670 85.433330 158.461540
1.81 1.841080 2.40 85.90 162.692310
1.80 1.83160 2.383330 86.366670 166.923080
1.79 1.822120 2.366670 86.833330 171.153850
1.78 1.812640 2.350 87.30 175.384620
1.77 1.803160 2.333330 87.766670 179.615380
1.76 1.793680 2.316670 88.233330 183.846150
1.75 1.78420 2.30 88.70 188.076920
1.74 1.772160 2.30 87.327270 192.307690
1.73 1.760120 2.30 85.954550 196.538460
1.72 1.748080 2.30 84.581820 200.769230
1.71 1.736340 2.30 83.209090 205.0
1.70 1.72460 2.30 81.836360 201.538460
1.69 1.712870 2.30 80.463640 198.076920
1.68 1.702330 2.30 79.090910 194.615380
1.67 1.69180 2.30 77.718180 191.153850
1.66 1.681260 2.30 76.345450 187.692310
1.65 1.667720 2.30 74.972730 184.230770
1.64 1.654180 2.30 73.60 180.769230
1.63 1.646350 2.290910 75.772730 177.307690
1.62 1.638530 2.281820 77.945450 173.846150
1.61 1.63070 2.272730 80.118180 170.384620
1.60 1.609930 2.263640 82.290910 166.923080
1.59 1.600450 2.254550 84.463640 163.461540
1.58 1.590970 2.245450 86.636360 160.0
1.57 1.582390 2.236360 88.809090 157.692310
1.56 1.573810 2.227270 90.981820 155.384620
1.55 1.558470 2.218180 93.154550 153.076920
1.54 1.544020 2.209090 95.327270 150.769230
1.53 1.537250 2.20 97.50 148.461540
1.52 1.530470 2.236360 95.172730 146.153850
1.51 1.517830 2.272730 92.845450 143.846150
1.50 1.505190 2.309090 90.518180 141.538460
1.49 1.493450 2.345450 88.190910 139.230770
1.48 1.487580 2.381820 85.863640 136.923080
1.47 1.481720 2.418180 83.536360 134.615380
1.46 1.469980 2.454550 81.209090 132.307690
1.45 1.458240 2.490910 78.881820 130.0
1.44 1.44740 2.527270 76.554550 134.166670
1.43 1.435670 2.563640 74.227270 138.333330
1.42 1.424830 2.60 71.90 142.50
1.41 1.4140 2.50 73.70 146.666670
1.40 1.403160 2.40 75.50 150.833330
1.39 1.392330 2.30 77.30 155.0
1.38 1.381490 2.20 79.10 159.166670
1.37 1.376070 2.10 80.90 163.333330
1.36 1.370650 2.0 82.70 167.50
1.35 1.359820 1.90 84.50 171.666670
1.34 1.348980 1.80 86.30 175.833330
1.33 1.338150 1.880 84.020 180.0
1.32 1.327310 1.960 81.740 178.750
1.31 1.316480 2.040 79.460 177.50
1.30 1.305640 2.120 77.180 176.250
1.29 1.294810 2.20 74.90 175.0
1.28 1.283070 2.280 72.620 173.750
1.27 1.276750 2.360 70.340 172.50
1.26 1.270430 2.440 68.060 171.250
1.25 1.255980 2.520 65.780 170.0
1.24 1.248310 2.60 63.50 168.750
1.23 1.240630 2.53750 62.18750 167.50
1.22 1.23160 2.4750 60.8750 166.250
1.21 1.222570 2.41250 59.56250 165.0
1.20 1.212640 2.350 58.250 164.848480
1.19 1.202710 2.28750 56.93750 164.696970
1.18 1.195180 2.2250 55.6250 164.545450
1.17 1.187660 2.16250 54.31250 164.393940
1.16 1.180140 2.10 53.0 164.242420
1.15 1.167950 2.0 60.333330 164.090910
1.14 1.155760 1.90 67.666670 163.939390
1.13 1.147630 1.80 75.0 163.787880
1.12 1.13950 1.866670 72.266670 163.636360
1.11 1.131380 1.933330 69.533330 163.484850
1.10 1.119640 2.0 66.80 163.333330
1.09 1.10790 2.033330 64.433330 168.787880
1.08 1.088040 2.066670 62.066670 174.242420
1.07 1.073590 2.10 59.70 179.696970
1.06 1.061850 2.0 62.2750 185.151520
1.05 1.052820 1.90 64.850 190.606060
1.04 1.042890 1.80 67.4250 196.060610
1.03 1.033860 1.70 70.0 201.515150
1.02 -999.25 1.833330 66.833330 206.96970
1.01 -999.25 1.966670 63.666670 212.424240
1.00 -999.25 2.10 60.50 217.878790
0.99 -999.25 2.0750 60.8750 223.333330
0.98 -999.25 2.050 61.250 217.777780
0.97 -999.25 2.0250 61.6250 212.222220
0.96 -999.25 2.0 62.0 206.666670
0.95 -999.25 1.980 62.760 201.111110
0.94 -999.25 1.960 63.520 195.555560
0.93 -999.25 1.940 64.280 190.0
0.92 -999.25 1.920 65.040 184.444440
0.91 -999.25 1.90 65.80 178.888890
0.90 -999.25 1.90 65.328570 173.333330
0.89 -999.25 1.90 64.857140 167.777780
0.88 -999.25 1.90 64.385710 162.222220
0.87 -999.25 1.90 63.914290 156.666670
0.86 -999.25 1.90 63.442860 158.518520
0.85 -999.25 1.90 62.971430 160.370370
0.84 -999.25 1.90 62.50 162.222220
0.83 -999.25 1.90 62.383330 164.074070
0.82 -999.25 1.90 62.266670 165.925930
0.81 -999.25 1.90 62.150 167.777780
0.80 -999.25 1.90 62.033330 169.629630
0.79 -999.25 1.90 61.916670 171.481480
0.78 -999.25 1.90 61.80 173.333330
0.77 -999.25 1.866670 59.833330 172.777780
0.76 -999.25 1.833330 57.866670 172.222220
0.75 -999.25 1.80 55.90 171.666670
0.74 -999.25 1.70 67.50 171.111110
0.73 -999.25 1.70 67.40 170.555560
0.72 -999.25 -999.25 -999.25 170.0
0.71 -999.25 -999.25 -999.25 160.76190
0.70 -999.25 -999.25 -999.25 151.523810
0.69 -999.25 -999.25 -999.25 142.285710
0.68 -999.25 -999.25 -999.25 133.047620
0.67 -999.25 -999.25 -999.25 123.809520
0.66 -999.25 -999.25 -999.25 140.584420
0.65 -999.25 -999.25 -999.25 157.359310
0.64 -999.25 -999.25 -999.25 174.13420
0.63 -999.25 -999.25 -999.25 190.909090
0.62 -999.25 -999.25 -999.25 168.542570
0.61 -999.25 -999.25 -999.25 146.176050
0.60 -999.25 -999.25 -999.25 123.809520
0.59 -999.25 -999.25 -999.25 124.675320
0.58 -999.25 -999.25 -999.25 125.541130
0.57 -999.25 -999.25 -999.25 126.406930
