~VERSION INFORMATION SECTION
VERS. 2.0 : CWLS LAS-VERSION 2.0
WRAP. NO : One line per depth step
~WELL INFORMATION SECTION
# MNEM.UNIT VALUE/NAME DESCRIPTION
#-------- -------------- ---------------------
STRT.Metres 16 : Start
STOP.Metres 0.42 : Stop
STEP.Metres -0.01 : Step
NULL.  -999.25 :NULL VALUE
DATE. 2025-22-11 : DATE
~CURVE INFORMATION SECTION
DEPTH.Metres : 0 Depth
Depth. : 1 Depth
Incline.Deg : 2 Incline
Azimuth.Deg : 3 Azimuth
GR.CPS : 4 GR
~PARAMETER INFORMATION SECTION
~OTHER
#-------------------------------------------------
#Produced By: GeoVista Logger - Version 7.1.107.0
Natural Gamma Sonde - 6447
Verticality Sonde - 6292
#-------------------------------------------------
~ASCII LOG DATA
# ...
5.70 5.722350 4.0 97.966670 216.666670
5.69 5.709260 4.0 97.853330 210.0
5.68 5.700830 4.0 97.740 203.333330
5.67 5.69240 4.0 97.626670 196.666670
5.66 5.683970 4.0 97.513330 190.0
5.65 5.670880 4.0 97.40 183.333330
5.64 5.657790 4.0 97.78750 176.666670
5.63 5.649060 4.0 98.1750 177.50
5.62 5.640330 4.0 98.56250 178.333330
5.61 5.63160 4.0 98.950 179.166670
5.60 5.622870 4.0 99.33750 180.0
5.59 5.614150 4.0 99.7250 180.833330
5.58 5.605420 4.0 100.11250 181.666670
5.57 5.592330 4.0 100.50 182.50
5.56 5.579230 4.0 100.1250 183.333330
5.55 5.570810 4.0 99.750 184.583330
5.54 5.562380 4.0 99.3750 185.833330
5.53 5.553950 4.0 99.0 187.083330
5.52 5.540860 4.0 98.6250 188.333330
5.51 5.527770 4.0 98.250 189.583330
5.50 5.518740 4.0 97.8750 190.833330
5.49 5.509710 4.0 97.50 192.083330
5.48 5.500680 3.98750 97.550 193.333330
5.47 5.492250 3.9750 97.60 188.333330
5.46 5.483820 3.96250 97.650 183.333330
5.45 5.47540 3.950 97.70 178.333330
5.44 5.46230 3.93750 97.750 173.333330
5.43 5.449210 3.9250 97.80 168.333330
5.42 5.440480 3.91250 97.850 163.333330
5.41 5.431750 3.90 97.90 158.333330
5.40 5.423020 3.90 98.271430 153.333330
5.39 5.409930 3.90 98.642860 157.142860
5.38 5.396840 3.90 99.014290 160.952380
5.37 5.388110 3.90 99.385710 164.76190
5.36 5.379380 3.90 99.757140 168.571430
5.35 5.370650 3.90 100.128570 172.380950
5.34 5.362230 3.90 100.50 176.190480
5.33 5.35380 3.91250 99.28750 180.0
5.32 5.345370 3.9250 98.0750 175.833330
5.31 5.332280 3.93750 96.86250 171.666670
5.30 5.319190 3.950 95.650 167.50
5.29 5.310760 3.96250 94.43750 163.333330
5.28 5.302330 3.9750 93.2250 159.166670
5.27 5.293910 3.98750 92.01250 155.0
5.26 5.280810 4.0 90.80 150.833330
5.25 5.267720 3.9750 91.98750 146.666670
5.24 5.259290 3.950 93.1750 141.96970
5.23 5.250870 3.9250 94.36250 137.272730
5.22 5.242440 3.90 95.550 132.575760
5.21 5.22980 3.8750 96.73750 127.878790
5.20 5.217160 3.850 97.9250 123.181820
5.19 5.208430 3.8250 99.11250 118.484850
5.18 5.19970 3.80 100.30 113.787880
5.17 5.190970 3.80 99.80 109.090910
5.16 5.182540 3.80 99.30 115.191390
5.15 5.174120 3.80 98.80 121.291870
5.14 5.165690 3.80 98.30 127.392340
5.13 5.15260 3.80 97.80 133.492820
5.12 5.13950 3.80 97.30 139.59330
5.11 5.131080 3.80 96.80 145.693780
5.10 5.122650 3.80 96.30 151.794260
5.09 5.114220 3.80 96.393330 157.894740
5.08 5.101130 3.80 96.486670 151.794260
5.07 5.088040 3.80 96.580 145.693780
5.06 5.079310 3.80 96.673330 139.59330
5.05 5.070580 3.80 96.766670 133.492820
5.04 5.061850 3.80 96.860 127.392340
5.03 5.049210 3.80 96.953330 121.291870
5.02 5.036570 3.80 97.046670 115.191390
5.01 5.027840 3.80 97.140 109.090910
5.00 5.019110 3.80 97.233330 119.935060
4.99 5.010380 3.80 97.326670 130.779220
4.98 5.001660 3.80 97.420 141.623380
4.97 4.992930 3.80 97.513330 152.467530
4.96 4.98420 3.80 97.606670 163.311690
4.95 4.971110 3.80 97.70 174.155840
4.94 4.958010 3.7750 97.50 185.0
4.93 4.949290 3.750 97.30 183.958330
4.92 4.940560 3.7250 97.10 182.916670
4.91 4.931830 3.70 96.90 181.8750
4.90 4.918740 3.6750 96.70 180.833330
4.89 4.905640 3.650 96.50 179.791670
4.88 4.897220 3.6250 96.30 178.750
4.87 4.888790 3.60 96.10 177.708330
4.86 4.880360 3.58750 96.7250 176.666670
4.85 4.871630 3.5750 97.350 177.50
4.84 4.86290 3.56250 97.9750 178.333330
4.83 4.854180 3.550 98.60 179.166670
4.82 4.841080 3.53750 99.2250 180.0
4.81 4.827990 3.5250 99.850 180.833330
4.80 4.818960 3.51250 100.4750 181.666670
4.79 4.809930 3.50 101.10 182.50
4.78 4.80090 3.514290 99.571430 183.333330
4.77 4.792170 3.528570 98.042860 185.416670
4.76 4.783450 3.542860 96.514290 187.50
4.75 4.774720 3.557140 94.985710 189.583330
4.74 4.761630 3.571430 93.457140 191.666670
4.73 4.748530 3.585710 91.928570 193.750
4.72 4.740110 3.60 90.40 195.833330
4.71 4.731680 3.60 91.36250 197.916670
4.70 4.723250 3.60 92.3250 200.0
4.69 4.710160 3.60 93.28750 188.095240
4.68 4.697070 3.60 94.250 176.190480
4.67 4.688640 3.60 95.21250 164.285710
4.66 4.680210 3.60 96.1750 152.380950
4.65 4.671780 3.60 97.13750 140.476190
4.64 4.659140 3.60 98.10 128.571430
4.63 4.64650 3.58750 97.70 116.666670
4.62 4.637770 3.5750 97.30 122.916670
4.61 4.629040 3.56250 96.90 129.166670
4.60 4.620320 3.550 96.50 135.416670
4.59 4.611890 3.53750 96.10 141.666670
4.58 4.603460 3.5250 95.70 147.916670
4.57 4.595030 3.51250 95.30 154.166670
4.56 4.581940 3.50 94.90 160.416670
4.55 4.568850 3.4750 94.86250 166.666670
4.54 4.560120 3.450 94.8250 165.833330
4.53 4.551390 3.4250 94.78750 165.0
4.52 4.542660 3.40 94.750 164.166670
4.51 4.529570 3.3750 94.71250 163.333330
4.50 4.516480 3.350 94.6750 162.50
4.49 4.507750 3.3250 94.63750 161.666670
4.48 4.499020 3.30 94.60 160.833330
4.47 4.490290 3.3250 94.56250 160.0
4.46 4.481870 3.350 94.5250 161.250
4.45 4.473440 3.3750 94.48750 162.50
4.44 4.465010 3.40 94.450 163.750
4.43 4.451920 3.4250 94.41250 165.0
4.42 4.438830 3.450 94.3750 166.250
4.41 4.43040 3.4750 94.33750 167.50
4.40 4.421970 3.50 94.30 168.750
4.39 4.413540 3.457140 93.714290 170.0
4.38 4.400450 3.414290 93.128570 171.688310
4.37 4.387360 3.371430 92.542860 173.376620
4.36 4.378930 3.328570 91.957140 175.064940
4.35 4.37050 3.285710 91.371430 176.753250
4.34 4.362080 3.242860 90.785710 178.441560
4.33 4.349440 3.20 90.20 180.129870
4.32 4.336790 3.2250 90.76250 181.818180
4.31 4.328070 3.250 91.3250 177.511960
4.30 4.319340 3.2750 91.88750 173.205740
4.29 4.310610 3.30 92.450 168.899520
4.28 4.302180 3.3250 93.01250 164.59330
4.27 4.293750 3.350 93.5750 160.287080
4.26 4.285330 3.3750 94.13750 155.980860
4.25 4.272230 3.40 94.70 151.674640
4.24 4.259140 3.38750 94.70 147.368420
4.23 4.250710 3.3750 94.70 148.114040
4.22 4.242290 3.36250 94.70 148.859650
4.21 4.233860 3.350 94.70 149.605260
4.20 4.220770 3.33750 94.70 150.350880
4.19 4.207670 3.3250 94.70 151.096490
4.18 4.199250 3.31250 94.70 151.842110
4.17 4.190820 3.30 94.70 152.587720
4.16 4.182390 3.30 94.01250 153.333330
4.15 4.16930 3.30 93.3250 159.166670
4.14 4.156210 3.30 92.63750 165.0
4.13 4.147780 3.30 91.950 170.833330
4.12 4.139350 3.30 91.26250 176.666670
4.11 4.130930 3.30 90.5750 182.50
4.10 4.12220 3.30 89.88750 188.333330
4.09 4.113470 3.30 89.20 194.166670
4.08 4.104740 3.257140 90.342860 200.0
4.07 4.091650 3.214290 91.485710 197.619050
4.06 4.078560 3.171430 92.628570 195.23810
4.05 4.070130 3.128570 93.771430 192.857140
4.04 4.06170 3.085710 94.914290 190.476190
4.03 4.053270 3.042860 96.057140 188.095240
4.02 4.040180 3.0 97.20 185.714290
4.01 4.027090 2.98750 96.43750 183.333330
4.00 4.018660 2.9750 95.6750 180.0
3.99 4.010230 2.96250 94.91250 176.666670
3.98 4.001810 2.950 94.150 173.333330
3.97 3.993080 2.93750 93.38750 170.0
3.96 3.984350 2.9250 92.6250 166.666670
3.95 3.975620 2.91250 91.86250 163.333330
3.94 3.962530 2.90 91.10 160.0
3.93 3.949440 2.86250 91.7750 156.666670
3.92 3.940710 2.8250 92.450 155.0
3.91 3.931980 2.78750 93.1250 153.333330
3.90 3.923250 2.750 93.80 151.666670
3.89 3.914220 2.71250 94.4750 150.0
3.88 3.905190 2.6750 95.150 148.333330
3.87 3.896160 2.63750 95.8250 146.666670
3.86 3.882620 2.60 96.50 145.0
3.85 3.869070 2.70 94.66250 143.333330
3.84 3.860350 2.80 92.8250 143.750
3.83 3.851620 2.90 90.98750 144.166670
3.82 3.842890 3.0 89.150 144.583330
3.81 3.833860 3.10 87.31250 145.0
3.80 3.824830 3.20 85.4750 145.416670
3.79 3.81580 3.30 83.63750 145.833330
3.78 3.802710 3.40 81.80 146.250
3.77 3.789620 3.357140 81.828570 146.666670
3.76 3.780590 3.314290 81.857140 147.916670
3.75 3.771560 3.271430 81.885710 149.166670
3.74 3.762530 3.228570 81.914290 150.416670
3.73 3.75350 3.185710 81.942860 151.666670
3.72 3.744470 3.142860 81.971430 152.916670
3.71 3.735440 3.10 82.0 154.166670
3.70 3.722350 3.11250 81.850 155.416670
3.69 3.709260 3.1250 81.70 156.666670
3.68 3.700230 3.13750 81.550 159.047620
3.67 3.69120 3.150 81.40 161.428570
3.66 3.682170 3.16250 81.250 163.809520
3.65 3.673140 3.1750 81.10 166.190480
3.64 3.664110 3.18750 80.950 168.571430
3.63 3.655080 3.20 80.80 170.952380
3.62 3.641990 3.18750 82.18750 173.333330
3.61 3.628890 3.1750 83.5750 170.833330
