~VERSION INFORMATION SECTION
VERS. 2.0 : CWLS LAS-VERSION 2.0
WRAP. NO : One line per depth step
~WELL INFORMATION SECTION
# MNEM.UNIT VALUE/NAME DESCRIPTION
#-------- -------------- ---------------------
STRT.Metres 16 : Start
STOP.Metres 0.47 : Stop
STEP.Metres -0.01 : Step
NULL.  -999.25 :NULL VALUE
DATE. 2025-18-11 : DATE
~CURVE INFORMATION SECTION
DEPTH.Metres : 0 Depth
Depth. : 1 Depth
Incline.Deg : 2 Incline
Azimuth.Deg : 3 Azimuth
GR.CPS : 4 GR
~PARAMETER INFORMATION SECTION
~OTHER
#-------------------------------------------------
#Produced By: GeoVista Logger - Version 7.1.107.0
Natural Gamma Sonde - 6447
Verticality Sonde - 6292
#-------------------------------------------------
~ASCII LOG DATA
16.00 -999.25 -999.25 -999.25 -999.25
15.99 16.0 -999.25 -999.25 -999.25
15.98 15.992330 -999.25 -999.25 -999.25
15.97 15.984650 -999.25 -999.25 -999.25
15.96 15.96930 -999.25 -999.25 -999.25
15.95 15.961170 -999.25 -999.25 -999.25
15.94 15.953050 -999.25 -999.25 -999.25
15.93 15.93770 -999.25 -999.25 -999.25
15.92 15.930020 -999.25 -999.25 -999.25
15.91 15.922350 -999.25 -999.25 -999.25
15.90 15.914220 -999.25 -999.25 -999.25
15.89 15.906090 -999.25 -999.25 -999.25
15.88 15.889840 -999.25 -999.25 -999.25
15.87 15.881720 -999.25 -999.25 -999.25
15.86 15.873590 -999.25 -999.25 -999.25
15.85 15.857340 -999.25 -999.25 -999.25
15.84 15.849210 -999.25 -999.25 -999.25
15.83 15.841080 -999.25 -999.25 -999.25
15.82 15.832960 3.450 43.617390 -999.25
15.81 15.824830 6.90 87.234780 -999.25
15.80 15.808580 6.90 87.195650 -999.25
15.79 15.800450 6.90 87.156520 -999.25
15.78 15.792330 6.90 87.117390 -999.25
15.77 15.783750 6.90 87.078260 -999.25
15.76 15.775170 6.90 87.039130 -999.25
15.75 15.758010 6.90 87.0 -999.25
15.74 15.749440 6.8250 87.30 -999.25
15.73 15.740860 6.750 87.60 -999.25
15.72 15.732280 6.6750 87.90 -999.25
15.71 15.72370 6.60 88.20 -999.25
15.70 15.706550 6.620 87.220 -999.25
15.69 15.698420 6.640 86.240 -999.25
15.68 15.690290 6.660 85.260 -999.25
15.67 15.681720 6.680 84.280 -999.25
15.66 15.673140 6.70 83.30 -999.25
15.65 15.664560 6.660 84.280 -999.25
15.64 15.655980 6.620 85.260 -999.25
15.63 15.639730 6.580 86.240 -999.25
15.62 15.63160 6.540 87.220 -999.25
15.61 15.623480 6.50 88.20 -999.25
15.60 15.607220 6.50 89.240 -999.25
15.59 15.59910 6.50 90.280 -999.25
15.58 15.590970 6.50 91.320 -999.25
15.57 15.582840 6.50 92.360 -999.25
15.56 15.574720 6.50 93.40 -999.25
15.55 15.558470 6.540 91.90 -999.25
15.54 15.549890 6.580 90.40 -999.25
15.53 15.541310 6.620 88.90 -999.25
15.52 15.533180 6.660 87.40 -999.25
15.51 15.525060 6.70 85.90 -999.25
15.50 15.50880 6.70 86.40 -999.25
15.49 15.500680 6.70 86.90 -999.25
15.48 15.492550 6.70 87.40 -999.25
15.47 15.47630 6.70 87.90 -999.25
15.46 15.468170 6.70 88.40 -999.25
15.45 15.460050 6.70 88.520 -999.25
15.44 15.451470 6.70 88.640 -999.25
15.43 15.442890 6.70 88.760 -999.25
15.42 15.426640 6.70 88.880 -999.25
15.41 15.418510 6.70 89.0 -999.25
15.40 15.410380 6.70 88.780 -999.25
15.39 15.402260 6.70 88.560 -999.25
15.38 15.394130 6.70 88.340 -999.25
15.37 15.376980 6.70 88.120 -999.25
15.36 15.368850 6.70 87.90 -999.25
15.35 15.360720 6.640 88.020 -999.25
15.34 15.35260 6.580 88.140 -999.25
15.33 15.344470 6.520 88.260 -999.25
15.32 15.327310 6.460 88.380 -999.25
15.31 15.319190 6.40 88.50 -999.25
15.30 15.311060 6.40 88.680 -999.25
15.29 15.302930 6.40 88.860 -999.25
15.28 15.294810 6.40 89.040 -999.25
15.27 15.277650 6.40 89.220 -999.25
15.26 15.269530 6.40 89.40 -999.25
15.25 15.26140 6.440 90.040 -999.25
15.24 15.252820 6.480 90.680 146.080920
15.23 15.244240 6.520 91.320 159.60950
15.22 15.227990 6.560 91.960 173.138080
15.21 15.219410 6.60 92.60 186.666670
15.20 15.210840 6.5750 92.80 171.111110
15.19 15.202710 6.550 93.0 155.555560
15.18 15.194580 6.5250 93.20 140.0
15.17 15.177430 6.50 93.40 130.0
15.16 15.16930 6.50 93.0 120.0
15.15 15.161170 6.50 92.60 110.0
15.14 15.153050 6.50 92.20 100.0
15.13 15.144920 6.50 91.80 117.894740
15.12 15.127770 6.50 91.40 135.789470
15.11 15.119190 6.480 91.240 153.684210
15.10 15.110610 6.460 91.080 171.578950
15.09 15.102480 6.440 90.920 189.473680
15.08 15.094360 6.420 90.760 180.43860
15.07 15.07720 6.40 90.60 171.403510
15.06 15.069070 6.380 90.540 162.368420
15.05 15.060950 6.360 90.480 153.333330
15.04 15.04560 6.340 90.420 146.666670
15.03 15.039280 6.320 90.360 140.0
15.02 15.032960 6.30 90.30 133.333330
15.01 15.024380 6.280 90.520 126.666670
15.00 15.01580 6.260 90.740 120.0
14.99 14.998650 6.240 90.960 121.333330
14.98 14.990520 6.220 91.180 122.666670
14.97 14.982390 6.20 91.40 124.0
14.96 14.974270 6.10 91.340 125.333330
14.95 14.966140 6.0 91.280 126.666670
14.94 14.948980 5.90 91.220 130.666670
14.93 14.940860 5.80 91.160 134.666670
14.92 14.932730 5.70 91.10 138.666670
14.91 14.924150 5.760 90.60 142.666670
14.90 14.915580 5.820 90.10 146.666670
14.89 14.899320 5.880 89.60 144.666670
14.88 14.890740 5.940 89.10 142.666670
14.87 14.882170 6.0 88.60 140.666670
14.86 14.874040 6.020 88.50 138.666670
14.85 14.865910 6.040 88.40 136.666670
14.84 14.849660 6.060 88.30 134.666670
14.83 14.841080 6.080 88.20 132.666670
14.82 14.832510 6.10 88.10 130.666670
14.81 14.824380 6.10 88.50 128.666670
14.80 14.816250 6.10 88.90 126.666670
14.79 14.80 6.10 89.30 127.333330
14.78 14.791420 6.10 89.70 128.0
14.77 14.782840 6.10 90.10 128.666670
14.76 14.774270 6.120 90.560 129.333330
14.75 14.765690 6.140 91.020 130.0
14.74 14.749440 6.160 91.480 133.333330
14.73 14.740860 6.180 91.940 136.666670
14.72 14.732280 6.20 92.40 140.0
14.71 14.72370 6.20 91.740 143.333330
14.70 14.715120 6.20 91.080 146.666670
14.69 14.698870 6.20 90.420 148.0
14.68 14.690740 6.20 89.760 149.333330
14.67 14.682620 6.20 89.10 150.666670
14.66 14.674040 6.20 90.620 152.0
14.65 14.665460 6.20 92.140 153.333330
14.64 14.648310 6.20 93.660 146.0
14.63 14.639730 6.20 95.180 138.666670
14.62 14.631150 6.20 96.70 131.333330
14.61 14.622570 6.20 96.380 124.0
14.60 14.6140 6.20 96.060 116.666670
14.59 14.605420 6.20 95.740 117.20430
14.58 14.596840 6.20 95.420 117.741940
14.57 14.579680 6.20 95.10 118.279570
14.56 14.571110 6.180 94.60 118.81720
14.55 14.562530 6.160 94.10 119.354840
14.54 14.553950 6.140 93.60 128.150540
14.53 14.545370 6.120 93.10 136.946240
14.52 14.529120 6.10 92.60 145.741940
14.51 14.520540 6.10 92.440 154.537630
14.50 14.511960 6.10 92.280 163.333330
14.49 14.503390 6.10 92.120 168.0
14.48 14.494810 6.10 91.960 172.666670
14.47 14.478560 6.10 91.80 177.333330
14.46 14.469980 6.120 92.620 182.0
14.45 14.46140 6.140 93.440 186.666670
14.44 14.453270 6.160 94.260 182.0
14.43 14.445150 6.180 95.080 177.333330
14.42 14.42980 6.20 95.90 172.666670
14.41 14.422120 6.140 94.960 168.0
14.40 14.414450 6.080 94.020 163.333330
14.39 14.398190 6.020 93.080 162.666670
14.38 14.390070 5.960 92.140 162.0
14.37 14.381940 5.90 91.20 161.333330
14.36 14.373810 5.940 92.40 160.666670
14.35 14.365690 5.980 93.60 160.0
14.34 14.349440 6.020 94.80 144.0
14.33 14.341310 6.060 96.0 128.0
14.32 14.333180 6.10 97.20 112.0
14.31 14.316930 6.040 96.280 96.0
14.30 14.30880 5.980 95.360 80.0
14.29 14.300680 5.920 94.440 96.0
14.28 14.292550 5.860 93.520 112.0
14.27 14.284420 5.80 92.60 128.0
14.26 14.268170 5.780 92.360 144.0
14.25 14.260050 5.760 92.120 160.0
14.24 14.251920 5.740 91.880 149.333330
14.23 14.243790 5.720 91.640 138.666670
14.22 14.235670 5.70 91.40 128.0
14.21 14.219410 5.70 92.30 117.333330
14.20 14.211290 5.70 93.20 106.666670
14.19 14.203160 5.70 94.10 115.833330
14.18 14.186910 5.70 95.0 125.0
14.17 14.178780 5.70 95.90 134.166670
14.16 14.170650 5.720 95.180 143.333330
14.15 14.162530 5.740 94.460 146.666670
14.14 14.15440 5.760 93.740 150.0
14.13 14.137250 5.780 93.020 153.333330
14.12 14.129120 5.80 92.30 156.666670
14.11 14.120990 5.820 91.940 160.0
14.10 14.112870 5.840 91.580 170.666670
14.09 14.104740 5.860 91.220 181.333330
14.08 14.087580 5.880 90.860 192.0
14.07 14.079460 5.90 90.50 202.666670
14.06 14.071330 5.840 90.880 213.333330
14.05 14.062750 5.780 91.260 200.666670
14.04 14.054180 5.720 91.640 188.0
14.03 14.037020 5.660 92.020 175.333330
14.02 14.028890 5.60 92.40 162.666670
14.01 14.020770 5.60 92.0 150.0
14.00 14.012190 5.60 91.60 150.666670
13.99 14.003610 5.60 91.20 151.333330
13.98 13.986460 5.60 90.80 152.0
13.97 13.978330 5.60 90.40 152.666670
13.96 13.97020 5.622220 90.844440 153.333330
13.95 13.961630 5.644440 91.288890 154.0
13.94 13.953050 5.666670 91.733330 154.666670
13.93 13.944920 5.688890 92.177780 155.333330
13.92 13.936790 5.711110 92.622220 156.0
13.91 13.919640 5.733330 93.066670 156.666670
13.90 13.902480 5.755560 93.511110 154.666670
13.89 13.897070 5.777780 93.955560 152.666670
13.88 13.891650 5.80 94.40 150.666670
13.87 13.883070 5.820 94.080 148.666670
