~VERSION INFORMATION SECTION
VERS. 2.0 : CWLS LAS-VERSION 2.0
WRAP. NO : One line per depth step
~WELL INFORMATION SECTION
# MNEM.UNIT VALUE/NAME DESCRIPTION
#-------- -------------- ---------------------
STRT.Metres 16 : Start
STOP.Metres 0.15 : Stop
STEP.Metres -0.01 : Step
NULL.  -999.25 :NULL VALUE
DATE. 2025-24-11 : DATE
~CURVE INFORMATION SECTION
DEPTH.Metres : 0 Depth
Depth. : 1 Depth
Incline.Deg : 2 Incline
Azimuth.Deg : 3 Azimuth
GR.CPS : 4 GR
~PARAMETER INFORMATION SECTION
~OTHER
#-------------------------------------------------
#Produced By: GeoVista Logger - Version 7.1.107.0
Natural Gamma Sonde - 6447
Verticality Sonde - 6292
#-------------------------------------------------
~ASCII LOG DATA
16.00 -999.25 -999.25 -999.25 -999.25
15.99 7.997740 -999.25 -999.25 -999.25
15.98 15.995490 -999.25 -999.25 -999.25
15.97 15.98510 -999.25 -999.25 -999.25
15.96 15.974720 -999.25 -999.25 -999.25
15.95 15.966590 -999.25 -999.25 -999.25
15.94 15.958470 -999.25 -999.25 -999.25
15.93 15.950340 -999.25 -999.25 -999.25
15.92 15.941310 -999.25 -999.25 -999.25
15.91 15.932280 -999.25 -999.25 -999.25
15.90 15.923250 -999.25 -999.25 -999.25
15.89 15.913620 -999.25 -999.25 -999.25
15.88 15.903990 -999.25 -999.25 -999.25
15.87 15.894360 -999.25 -999.25 -999.25
15.86 15.886230 -999.25 -999.25 -999.25
15.85 15.87810 -999.25 -999.25 -999.25
15.84 15.869980 -999.25 -999.25 -999.25
15.83 15.861850 -999.25 -999.25 -999.25
15.82 15.853270 -999.25 -999.25 -999.25
15.81 15.84470 -999.25 -999.25 -999.25
15.80 15.836120 -999.25 -999.25 -999.25
15.79 15.827540 -999.25 -999.25 -999.25
15.78 15.818060 -999.25 -999.25 -999.25
15.77 15.808580 -999.25 -999.25 -999.25
15.76 15.79910 2.266670 29.270370 -999.25
15.75 15.789620 4.533330 58.540740 -999.25
15.74 15.779680 6.80 87.811110 -999.25
15.73 15.769750 6.80 87.809260 -999.25
15.72 15.759820 6.80 87.807410 -999.25
15.71 15.749890 6.80 87.805560 -999.25
15.70 15.739280 6.80 87.80370 -999.25
15.69 15.728670 6.80 87.801850 -999.25
15.68 15.718060 6.80 87.80 -999.25
15.67 15.707450 6.78750 87.8250 -999.25
15.66 15.697070 6.7750 87.850 -999.25
15.65 15.686680 6.76250 87.8750 -999.25
15.64 15.67630 6.750 87.90 -999.25
15.63 15.665910 6.73750 87.9250 -999.25
15.62 15.655530 6.7250 87.950 -999.25
15.61 15.645150 6.71250 87.9750 -999.25
15.60 15.634760 6.70 88.0 -999.25
15.59 15.624380 6.690910 88.036360 -999.25
15.58 15.6140 6.681820 88.072730 -999.25
15.57 15.603610 6.672730 88.109090 -999.25
15.56 15.593230 6.663640 88.145450 -999.25
15.55 15.582840 6.654550 88.181820 -999.25
15.54 15.574540 6.645450 88.218180 -999.25
15.53 15.566230 6.636360 88.254550 -999.25
15.52 15.557920 6.627270 88.290910 -999.25
15.51 15.549620 6.618180 88.327270 -999.25
15.50 15.541310 6.609090 88.363640 -999.25
15.49 15.53070 6.60 88.40 -999.25
15.48 15.520090 6.608330 88.283330 -999.25
15.47 15.509480 6.616670 88.166670 -999.25
15.46 15.498870 6.6250 88.050 -999.25
15.45 15.488260 6.633330 87.933330 -999.25
15.44 15.477650 6.641670 87.816670 -999.25
15.43 15.467040 6.650 87.70 -999.25
15.42 15.456430 6.658330 87.583330 -999.25
15.41 15.445820 6.666670 87.466670 -999.25
15.40 15.435210 6.6750 87.350 -999.25
15.39 15.42460 6.683330 87.233330 -999.25
15.38 15.4140 6.691670 87.116670 -999.25
15.37 15.405510 6.70 87.0 -999.25
15.36 15.397020 6.683330 87.133330 -999.25
15.35 15.388530 6.666670 87.266670 -999.25
15.34 15.380050 6.650 87.40 -999.25
15.33 15.371560 6.633330 87.533330 -999.25
15.32 15.360950 6.616670 87.666670 -999.25
15.31 15.350340 6.60 87.80 -999.25
15.30 15.339730 6.583330 87.933330 -999.25
15.29 15.329120 6.566670 88.066670 -999.25
15.28 15.318510 6.550 88.20 -999.25
15.27 15.30790 6.533330 88.333330 -999.25
15.26 15.297290 6.516670 88.466670 -999.25
15.25 15.286680 6.50 88.60 -999.25
15.24 15.276070 6.515380 88.676920 -999.25
15.23 15.265460 6.530770 88.753850 -999.25
15.22 15.254850 6.546150 88.830770 -999.25
15.21 15.244240 6.561540 88.907690 -999.25
15.20 15.235760 6.576920 88.984620 -999.25
15.19 15.227270 6.592310 89.061540 151.695990
15.18 15.218780 6.607690 89.138460 147.514660
15.17 15.210290 6.623080 89.215380 143.333330
15.16 15.201810 6.638460 89.292310 138.666670
15.15 15.19120 6.653850 89.369230 134.0
15.14 15.180590 6.669230 89.446150 129.333330
15.13 15.169980 6.684620 89.523080 124.666670
15.12 15.159370 6.70 89.60 120.0
15.11 15.148760 6.576920 89.061540 123.333330
15.10 15.138150 6.453850 88.523080 126.666670
15.09 15.127540 6.330770 87.984620 130.0
15.08 15.116930 6.207690 87.446150 133.333330
15.07 15.106320 6.084620 86.907690 136.666670
15.06 15.095710 5.961540 86.369230 140.0
15.05 15.08510 5.838460 85.830770 143.333330
15.04 15.074490 5.715380 85.292310 143.0
15.03 15.0660 5.592310 84.753850 142.666670
15.02 15.057520 5.469230 84.215380 142.333330
15.01 15.049030 5.346150 83.676920 142.0
15.00 15.040540 5.223080 83.138460 141.666670
14.99 15.032050 5.10 82.60 141.333330
14.98 15.021440 5.146150 82.861540 141.0
14.97 15.010840 5.192310 83.123080 140.666670
14.96 15.000230 5.238460 83.384620 140.333330
14.95 14.989620 5.284620 83.646150 140.0
14.94 14.979010 5.330770 83.907690 141.388890
14.93 14.96840 5.376920 84.169230 142.777780
14.92 14.957790 5.423080 84.430770 144.166670
14.91 14.947180 5.469230 84.692310 145.555560
14.90 14.936570 5.515380 84.953850 146.944440
14.89 14.925960 5.561540 85.215380 148.333330
14.88 14.915350 5.607690 85.476920 149.722220
14.87 14.904740 5.653850 85.738460 151.111110
14.86 14.896250 5.70 86.0 152.50
14.85 14.887770 5.691670 86.291670 153.888890
14.84 14.879280 5.683330 86.583330 155.277780
14.83 14.870790 5.6750 86.8750 156.666670
14.82 14.86230 5.666670 87.166670 154.722220
14.81 14.851690 5.658330 87.458330 152.777780
14.80 14.841080 5.650 87.750 150.833330
14.79 14.830470 5.641670 88.041670 148.888890
14.78 14.819860 5.633330 88.333330 146.944440
14.77 14.809260 5.6250 88.6250 145.0
14.76 14.798650 5.616670 88.916670 143.055560
14.75 14.788040 5.608330 89.208330 141.111110
14.74 14.777430 5.60 89.50 139.166670
14.73 14.766820 5.592310 89.253850 137.222220
14.72 14.756210 5.584620 89.007690 135.277780
14.71 14.74560 5.576920 88.761540 133.333330
14.70 14.734990 5.569230 88.515380 134.615380
14.69 14.726320 5.561540 88.269230 135.897440
14.68 14.717650 5.553850 88.023080 137.179490
14.67 14.708980 5.546150 87.776920 138.461540
14.66 14.700320 5.538460 87.530770 139.743590
14.65 14.691650 5.530770 87.284620 141.025640
14.64 14.680810 5.523080 87.038460 142.307690
14.63 14.669980 5.515380 86.792310 143.589740
14.62 14.659140 5.507690 86.546150 144.871790
14.61 14.648310 5.50 86.30 146.153850
14.60 14.639460 5.515380 86.692310 147.43590
14.59 14.630610 5.530770 87.084620 148.717950
14.58 14.621760 5.546150 87.476920 150.0
14.57 14.612910 5.561540 87.869230 147.948720
14.56 14.604060 5.576920 88.261540 145.897440
14.55 14.592780 5.592310 88.653850 143.846150
14.54 14.581490 5.607690 89.046150 141.794870
14.53 14.57020 5.623080 89.438460 139.743590
14.52 14.558920 5.638460 89.830770 137.692310
14.51 14.548080 5.653850 90.223080 135.641030
14.50 14.537250 5.669230 90.615380 133.589740
14.49 14.526410 5.684620 91.007690 131.538460
14.48 14.515580 5.70 91.40 129.487180
14.47 14.504740 5.70 91.084620 127.43590
14.46 14.493910 5.70 90.769230 125.384620
14.45 14.483070 5.70 90.453850 123.333330
14.44 14.472230 5.70 90.138460 125.0
14.43 14.464110 5.70 89.823080 126.666670
14.42 14.455980 5.70 89.507690 128.333330
14.41 14.447860 5.70 89.192310 130.0
14.40 14.439730 5.70 88.876920 131.666670
14.39 14.43160 5.70 88.561540 133.333330
14.38 14.420990 5.70 88.246150 135.0
14.37 14.410380 5.70 87.930770 136.666670
14.36 14.399770 5.70 87.615380 138.333330
14.35 14.389160 5.70 87.30 140.0
14.34 14.378780 5.707690 88.0 141.666670
14.33 14.36840 5.715380 88.70 143.333330
14.32 14.358010 5.723080 89.40 142.307690
14.31 14.347630 5.730770 90.10 141.282050
14.30 14.337020 5.738460 90.80 140.256410
14.29 14.326410 5.746150 91.50 139.230770
14.28 14.31580 5.753850 92.20 138.205130
14.27 14.305190 5.761540 92.90 137.179490
14.26 14.294810 5.769230 93.60 136.153850
14.25 14.284420 5.776920 94.30 135.128210
14.24 14.274040 5.784620 95.0 134.102560
14.23 14.263660 5.792310 95.70 133.076920
14.22 14.255170 5.80 96.40 132.051280
14.21 14.246680 5.807690 96.415380 131.025640
14.20 14.238190 5.815380 96.430770 130.0
14.19 14.229710 5.823080 96.446150 132.307690
14.18 14.221220 5.830770 96.461540 134.615380
14.17 14.210610 5.838460 96.476920 136.923080
14.16 14.20 5.846150 96.492310 139.230770
14.15 14.189390 5.853850 96.507690 141.538460
14.14 14.178780 5.861540 96.523080 143.846150
14.13 14.16840 5.869230 96.538460 146.153850
14.12 14.158010 5.876920 96.553850 148.461540
14.11 14.147630 5.884620 96.569230 150.769230
