~VERSION INFORMATION SECTION
VERS. 2.0 : CWLS LAS-VERSION 2.0
WRAP. NO : One line per depth step
~WELL INFORMATION SECTION
# MNEM.UNIT VALUE/NAME DESCRIPTION
#-------- -------------- ---------------------
STRT.Metres 16 : Start
STOP.Metres 0.15 : Stop
STEP.Metres -0.01 : Step
NULL.  -999.25 :NULL VALUE
DATE. 2025-24-11 : DATE
~CURVE INFORMATION SECTION
DEPTH.Metres : 0 Depth
Depth. : 1 Depth
Incline.Deg : 2 Incline
Azimuth.Deg : 3 Azimuth
GR.CPS : 4 GR
~PARAMETER INFORMATION SECTION
~OTHER
#-------------------------------------------------
#Produced By: GeoVista Logger - Version 7.1.107.0
Natural Gamma Sonde - 6447
Verticality Sonde - 6292
#-------------------------------------------------
~ASCII LOG DATA
# ...
10.43 10.471330 4.430770 97.946150 166.666670
10.42 10.46050 4.453850 97.530770 166.666670
10.41 10.449660 4.476920 97.115380 166.666670
10.40 10.438830 4.50 96.70 166.666670
10.39 10.428440 4.50 96.30 166.666670
10.38 10.418060 4.50 95.90 166.666670
10.37 10.407670 4.50 95.50 166.666670
10.36 10.397290 4.50 95.10 165.384620
10.35 10.386680 4.50 94.70 164.102560
10.34 10.376070 4.50 94.30 162.820510
10.33 10.365460 4.50 93.90 161.538460
10.32 10.354850 4.50 93.50 160.256410
10.31 10.346370 4.50 93.10 158.974360
10.30 10.337880 4.50 92.70 157.692310
10.29 10.329390 4.50 92.30 156.410260
10.28 10.32090 4.50 91.90 155.128210
10.27 10.312420 4.50 91.50 153.846150
10.26 10.301810 4.492310 92.507690 152.56410
10.25 10.29120 4.484620 93.515380 151.282050
10.24 10.280590 4.476920 94.523080 150.0
10.23 10.269980 4.469230 95.530770 153.611110
10.22 10.259370 4.461540 96.538460 157.222220
10.21 10.248760 4.453850 97.546150 160.833330
10.20 10.238150 4.446150 98.553850 164.444440
10.19 10.227540 4.438460 99.561540 168.055560
10.18 10.216930 4.430770 100.569230 171.666670
10.17 10.206320 4.423080 101.576920 175.277780
10.16 10.195710 4.415380 102.584620 178.888890
10.15 10.18510 4.407690 103.592310 182.50
10.14 10.174270 4.40 104.60 186.111110
10.13 10.163430 4.4250 104.416670 189.722220
10.12 10.15260 4.450 104.233330 193.333330
10.11 10.141760 4.4750 104.050 190.256410
10.10 10.133450 4.50 103.866670 187.179490
10.09 10.125150 4.5250 103.683330 184.102560
10.08 10.116840 4.550 103.50 181.025640
10.07 10.108530 4.5750 103.316670 177.948720
10.06 10.100230 4.60 103.133330 174.871790
10.05 10.089390 4.6250 102.950 171.794870
10.04 10.078560 4.650 102.766670 168.717950
10.03 10.067720 4.6750 102.583330 165.641030
10.02 10.056880 4.70 102.40 162.56410
10.01 10.046280 4.70 101.846150 159.487180
10.00 10.035670 4.70 101.292310 156.410260
9.99 10.025060 4.70 100.738460 153.333330
9.98 10.014450 4.70 100.184620 153.076920
9.97 10.005960 4.70 99.630770 152.820510
9.96 9.997470 4.70 99.076920 152.56410
9.95 9.988980 4.70 98.523080 152.307690
9.94 9.98050 4.70 97.969230 152.051280
9.93 9.972010 4.70 97.415380 151.794870
9.92 9.96140 4.70 96.861540 151.538460
9.91 9.950790 4.70 96.307690 151.282050
9.90 9.940180 4.70 95.753850 151.025640
9.89 9.929570 4.70 95.20 150.769230
9.88 9.918960 4.707690 95.446150 150.512820
9.87 9.908350 4.715380 95.692310 150.256410
9.86 9.897740 4.723080 95.938460 150.0
9.85 9.887130 4.730770 96.184620 152.051280
9.84 9.876750 4.738460 96.430770 154.102560
9.83 9.866370 4.746150 96.676920 156.153850
9.82 9.855980 4.753850 96.923080 158.205130
9.81 9.84560 4.761540 97.169230 160.256410
9.80 9.835210 4.769230 97.415380 162.307690
9.79 9.824830 4.776920 97.661540 164.358970
9.78 9.814450 4.784620 97.907690 166.410260
9.77 9.804060 4.792310 98.153850 168.461540
9.76 9.793450 4.80 98.40 170.512820
9.75 9.782840 4.792310 98.384620 172.56410
9.74 9.772230 4.784620 98.369230 174.615380
9.73 9.761630 4.776920 98.353850 176.666670
9.72 9.753320 4.769230 98.338460 178.888890
9.71 9.745010 4.761540 98.323080 181.111110
9.70 9.73670 4.753850 98.307690 183.333330
9.69 9.72840 4.746150 98.292310 185.555560
9.68 9.720090 4.738460 98.276920 187.777780
9.67 9.709480 4.730770 98.261540 190.0
9.66 9.698870 4.723080 98.246150 192.222220
9.65 9.688260 4.715380 98.230770 194.444440
9.64 9.677650 4.707690 98.215380 196.666670
9.63 9.667040 4.70 98.20 198.888890
9.62 9.656430 4.6960 97.9920 201.111110
9.61 9.645820 4.6920 97.7840 203.333330
9.60 9.635210 4.6880 97.5760 200.256410
9.59 9.624830 4.6840 97.3680 197.179490
9.58 9.614450 4.680 97.160 194.102560
9.57 9.604060 4.6760 96.9520 191.025640
9.56 9.593680 4.6720 96.7440 187.948720
9.55 9.585190 4.6680 96.5360 184.871790
9.54 9.57670 4.6640 96.3280 181.794870
9.53 9.568220 4.660 96.120 178.717950
9.52 9.559730 4.6560 95.9120 175.641030
9.51 9.551240 4.6520 95.7040 172.56410
9.50 9.540630 4.6480 95.4960 169.487180
9.49 9.530020 4.6440 95.2880 166.410260
9.48 9.519410 4.640 95.080 163.333330
9.47 9.50880 4.6360 94.8720 163.076920
9.46 9.498190 4.6320 94.6640 162.820510
9.45 9.487580 4.6280 94.4560 162.56410
9.44 9.476980 4.6240 94.2480 162.307690
9.43 9.466370 4.620 94.040 162.051280
9.42 9.455760 4.6160 93.8320 161.794870
9.41 9.445150 4.6120 93.6240 161.538460
9.40 9.434540 4.6080 93.4160 161.282050
9.39 9.423930 4.6040 93.2080 161.025640
9.38 9.415440 4.60 93.0 160.769230
9.37 9.406950 4.50 93.3750 160.512820
9.36 9.398470 4.40 93.750 160.256410
9.35 9.389980 4.30 94.1250 160.0
9.34 9.381490 4.20 94.50 157.222220
9.33 9.370650 4.10 94.8750 154.444440
9.32 9.359820 4.0 95.250 151.666670
9.31 9.348980 3.90 95.6250 148.888890
9.30 9.338150 3.80 96.0 146.111110
9.29 9.327310 3.70 96.3750 143.333330
9.28 9.316480 3.60 96.750 140.555560
9.27 9.305640 3.50 97.1250 137.777780
9.26 9.294810 3.40 97.50 135.0
9.25 9.286320 3.434620 97.773080 132.222220
9.24 9.277830 3.469230 98.046150 129.444440
9.23 9.269350 3.503850 98.319230 126.666670
9.22 9.260860 3.538460 98.592310 130.512820
9.21 9.252370 3.573080 98.865380 134.358970
9.20 9.241760 3.607690 99.138460 138.205130
9.19 9.231150 3.642310 99.411540 142.051280
9.18 9.220540 3.676920 99.684620 145.897440
9.17 9.209930 3.711540 99.957690 149.743590
9.16 9.199320 3.746150 100.230770 153.589740
9.15 9.188710 3.780770 100.503850 157.43590
9.14 9.17810 3.815380 100.776920 161.282050
9.13 9.167490 3.850 101.050 165.128210
9.12 9.156660 3.884620 101.323080 168.974360
9.11 9.145820 3.919230 101.596150 172.820510
9.10 9.134990 3.953850 101.869230 176.666670
9.09 9.124150 3.988460 102.142310 173.076920
9.08 9.115670 4.023080 102.415380 169.487180
9.07 9.107180 4.057690 102.688460 165.897440
9.06 9.098690 4.092310 102.961540 162.307690
9.05 9.09020 4.126920 103.234620 158.717950
9.04 9.081720 4.161540 103.507690 155.128210
9.03 9.071110 4.196150 103.780770 151.538460
9.02 9.06050 4.230770 104.053850 147.948720
9.01 9.049890 4.265380 104.326920 144.358970
9.00 9.039280 4.30 104.60 140.769230
8.99 9.028670 4.307690 104.238460 137.179490
8.98 9.018060 4.315380 103.876920 133.589740
8.97 9.007450 4.323080 103.515380 130.0
8.96 8.996840 4.330770 103.153850 132.338710
8.95 8.986230 4.338460 102.792310 134.677420
8.94 8.975620 4.346150 102.430770 137.016130
8.93 8.965010 4.353850 102.069230 139.354840
8.92 8.95440 4.361540 101.707690 141.693550
8.91 8.944020 4.369230 101.346150 144.032260
8.90 8.933630 4.376920 100.984620 146.370970
8.89 8.923250 4.384620 100.623080 148.709680
8.88 8.912870 4.392310 100.261540 151.048390
8.87 8.904380 4.40 99.90 153.38710
8.86 8.895890 4.40 100.1240 155.725810
8.85 8.88740 4.40 100.3480 158.064520
8.84 8.878920 4.40 100.5720 159.495450
8.83 8.870430 4.40 100.7960 160.926390
8.82 8.859820 4.40 101.020 162.357320
8.81 8.849210 4.40 101.2440 163.788250
8.80 8.83860 4.40 101.4680 165.219190
8.79 8.827990 4.40 101.6920 166.650120
8.78 8.817610 4.40 101.9160 168.081060
8.77 8.807220 4.40 102.140 169.511990
8.76 8.796840 4.40 102.3640 170.942930
8.75 8.786460 4.40 102.5880 172.373860
8.74 8.775850 4.40 102.8120 173.80480
8.73 8.765240 4.40 103.0360 175.235730
8.72 8.754630 4.40 103.260 176.666670
8.71 8.744020 4.40 103.4840 175.641030
8.70 8.733410 4.40 103.7080 174.615380
8.69 8.72280 4.40 103.9320 173.589740
8.68 8.712190 4.40 104.1560 172.56410
8.67 8.701580 4.40 104.380 171.538460
8.66 8.693270 4.40 104.6040 170.512820
8.65 8.684970 4.40 104.8280 169.487180
8.64 8.676660 4.40 105.0520 168.461540
8.63 8.668350 4.40 105.2760 167.43590
8.62 8.660050 4.40 105.50 166.410260
8.61 8.649440 4.392310 105.10 165.384620
8.60 8.638830 4.384620 104.70 164.358970
8.59 8.628220 4.376920 104.30 163.333330
8.58 8.617610 4.369230 103.90 159.487180
8.57 8.6070 4.361540 103.50 155.641030
8.56 8.596390 4.353850 103.10 151.794870
8.55 8.585780 4.346150 102.70 147.948720
8.54 8.575170 4.338460 102.30 144.102560
8.53 8.566680 4.330770 101.90 140.256410
8.52 8.558190 4.323080 101.50 136.410260
8.51 8.549710 4.315380 101.10 132.56410
8.50 8.541220 4.307690 100.70 128.717950
8.49 8.532730 4.30 100.30 124.871790
