~VERSION INFORMATION SECTION
VERS. 2.0 : CWLS LAS-VERSION 2.0
WRAP. NO : One line per depth step
~WELL INFORMATION SECTION
# MNEM.UNIT VALUE/NAME DESCRIPTION
#-------- -------------- ---------------------
STRT.Metres 16 : Start
STOP.Metres 0.15 : Stop
STEP.Metres -0.01 : Step
NULL.  -999.25 :NULL VALUE
DATE. 2025-24-11 : DATE
~CURVE INFORMATION SECTION
DEPTH.Metres : 0 Depth
Depth. : 1 Depth
Incline.Deg : 2 Incline
Azimuth.Deg : 3 Azimuth
GR.CPS : 4 GR
~PARAMETER INFORMATION SECTION
~OTHER
#-------------------------------------------------
#Produced By: GeoVista Logger - Version 7.1.107.0
Natural Gamma Sonde - 6447
Verticality Sonde - 6292
#-------------------------------------------------
~ASCII LOG DATA
# ...
8.48 8.52190 4.2960 100.460 121.025640
8.47 8.511060 4.2920 100.620 117.179490
8.46 8.500230 4.2880 100.780 113.333330
8.45 8.489390 4.2840 100.940 120.555560
8.44 8.478780 4.280 101.10 127.777780
8.43 8.468170 4.2760 101.260 135.0
8.42 8.457560 4.2720 101.420 142.222220
8.41 8.446950 4.2680 101.580 149.444440
8.40 8.436120 4.2640 101.740 156.666670
8.39 8.425280 4.260 101.90 163.888890
8.38 8.414450 4.2560 102.060 171.111110
8.37 8.403610 4.2520 102.220 178.333330
8.36 8.395120 4.2480 102.380 185.555560
8.35 8.386640 4.2440 102.540 192.777780
8.34 8.378150 4.240 102.70 200.0
8.33 8.369660 4.2360 102.860 197.692310
8.32 8.361170 4.2320 103.020 195.384620
8.31 8.350340 4.2280 103.180 193.076920
8.30 8.33950 4.2240 103.340 190.769230
8.29 8.328670 4.220 103.50 188.461540
8.28 8.317830 4.2160 103.660 186.153850
8.27 8.307220 4.2120 103.820 183.846150
8.26 8.296610 4.2080 103.980 181.538460
8.25 8.2860 4.2040 104.140 179.230770
8.24 8.27540 4.20 104.30 176.923080
8.23 8.266730 4.207690 103.869230 174.615380
8.22 8.258060 4.215380 103.438460 172.307690
8.21 8.249390 4.223080 103.007690 170.0
8.20 8.240720 4.230770 102.576920 164.358970
8.19 8.232050 4.238460 102.146150 158.717950
8.18 8.221440 4.246150 101.715380 153.076920
8.17 8.210840 4.253850 101.284620 147.43590
8.16 8.200230 4.261540 100.853850 141.794870
8.15 8.189620 4.269230 100.423080 136.153850
8.14 8.178780 4.276920 99.992310 130.512820
8.13 8.167950 4.284620 99.561540 124.871790
8.12 8.157110 4.292310 99.130770 119.230770
8.11 8.146280 4.30 98.70 113.589740
8.10 8.135670 4.30 99.115380 107.948720
8.09 8.125060 4.30 99.530770 102.307690
8.08 8.114450 4.30 99.946150 96.666670
8.07 8.103840 4.30 100.361540 99.743590
8.06 8.095350 4.30 100.776920 102.820510
8.05 8.086860 4.30 101.192310 105.897440
8.04 8.078370 4.30 101.607690 108.974360
8.03 8.069890 4.30 102.023080 112.051280
8.02 8.06140 4.30 102.438460 115.128210
8.01 8.051020 4.30 102.853850 118.205130
8.00 8.040630 4.30 103.269230 121.282050
7.99 8.030250 4.30 103.684620 124.358970
7.98 8.019860 4.30 104.10 127.43590
7.97 8.009260 4.30 103.715380 130.512820
7.96 7.998650 4.30 103.330770 133.589740
7.95 7.988040 4.30 102.946150 136.666670
7.94 7.977430 4.30 102.561540 136.388890
7.93 7.966820 4.30 102.176920 136.111110
7.92 7.956210 4.30 101.792310 135.833330
7.91 7.94560 4.30 101.407690 135.555560
7.90 7.934990 4.30 101.023080 135.277780
7.89 7.92460 4.30 100.638460 135.0
7.88 7.914220 4.30 100.253850 134.722220
7.87 7.903840 4.30 99.869230 134.444440
7.86 7.893450 4.30 99.484620 134.166670
7.85 7.884970 4.30 99.10 133.888890
7.84 7.876480 4.30 99.233330 133.611110
7.83 7.867990 4.30 99.366670 133.333330
7.82 7.85950 4.30 99.50 133.076920
7.81 7.851020 4.30 99.633330 132.820510
7.80 7.840410 4.30 99.766670 132.56410
7.79 7.82980 4.30 99.90 132.307690
7.78 7.819190 4.30 100.033330 132.051280
7.77 7.808580 4.30 100.166670 131.794870
7.76 7.798190 4.30 100.30 131.538460
7.75 7.787810 4.30 100.433330 131.282050
7.74 7.777430 4.30 100.566670 131.025640
7.73 7.767040 4.30 100.70 130.769230
7.72 7.756430 4.30 100.792310 130.512820
7.71 7.745820 4.30 100.884620 130.256410
7.70 7.735210 4.30 100.976920 130.0
7.69 7.72460 4.30 101.069230 127.692310
7.68 7.714220 4.30 101.161540 125.384620
7.67 7.703840 4.30 101.253850 123.076920
7.66 7.693450 4.30 101.346150 120.769230
7.65 7.683070 4.30 101.438460 118.461540
7.64 7.674580 4.30 101.530770 116.153850
7.63 7.666090 4.30 101.623080 113.846150
7.62 7.657610 4.30 101.715380 111.538460
7.61 7.649120 4.30 101.807690 109.230770
7.60 7.640630 4.30 101.90 106.923080
7.59 7.630020 4.30 101.823080 104.615380
7.58 7.619410 4.30 101.746150 102.307690
7.57 7.60880 4.30 101.669230 100.0
7.56 7.598190 4.30 101.592310 101.923080
7.55 7.587580 4.30 101.515380 103.846150
7.54 7.576980 4.30 101.438460 105.769230
7.53 7.566370 4.30 101.361540 107.692310
7.52 7.555760 4.30 101.284620 109.615380
7.51 7.545150 4.30 101.207690 111.538460
7.50 7.534540 4.30 101.130770 113.461540
7.49 7.523930 4.30 101.053850 115.384620
7.48 7.513320 4.30 100.976920 117.307690
7.47 7.504830 4.30 100.90 119.230770
7.46 7.496340 4.30 100.708330 121.153850
7.45 7.487860 4.30 100.516670 123.076920
7.44 7.479370 4.30 100.3250 125.0
7.43 7.470880 4.30 100.133330 129.027780
7.42 7.460050 4.30 99.941670 133.055560
7.41 7.449210 4.30 99.750 137.083330
7.40 7.438370 4.30 99.558330 141.111110
7.39 7.427540 4.30 99.366670 145.138890
7.38 7.416930 4.30 99.1750 149.166670
7.37 7.406320 4.30 98.983330 153.194440
7.36 7.395710 4.30 98.791670 157.222220
7.35 7.38510 4.30 98.60 161.250
7.34 7.376430 4.292310 98.50 165.277780
7.33 7.367770 4.284620 98.40 169.305560
7.32 7.35910 4.276920 98.30 173.333330
7.31 7.350430 4.269230 98.20 170.256410
7.30 7.341760 4.261540 98.10 167.179490
7.29 7.331150 4.253850 98.0 164.102560
7.28 7.320540 4.246150 97.90 161.025640
7.27 7.309930 4.238460 97.80 157.948720
7.26 7.299320 4.230770 97.70 154.871790
7.25 7.288490 4.223080 97.60 151.794870
7.24 7.277650 4.215380 97.50 148.717950
7.23 7.266820 4.207690 97.40 145.641030
7.22 7.255980 4.20 97.30 142.56410
7.21 7.245370 4.207690 97.323080 139.487180
7.20 7.234760 4.215380 97.346150 136.410260
7.19 7.224150 4.223080 97.369230 133.333330
7.18 7.213540 4.230770 97.392310 141.025640
7.17 7.205060 4.238460 97.415380 148.717950
7.16 7.196570 4.246150 97.438460 156.410260
7.15 7.188080 4.253850 97.461540 164.102560
7.14 7.179590 4.261540 97.484620 171.794870
7.13 7.171110 4.269230 97.507690 179.487180
7.12 7.16050 4.276920 97.530770 187.179490
7.11 7.149890 4.284620 97.553850 194.871790
7.10 7.139280 4.292310 97.576920 202.56410
7.09 7.128670 4.30 97.60 210.256410
7.08 7.118280 4.292310 97.923080 217.948720
7.07 7.10790 4.284620 98.246150 225.641030
7.06 7.097520 4.276920 98.569230 233.333330
7.05 7.087130 4.269230 98.892310 226.410260
7.04 7.076520 4.261540 99.215380 219.487180
7.03 7.065910 4.253850 99.538460 212.56410
7.02 7.05530 4.246150 99.861540 205.641030
7.01 7.04470 4.238460 100.184620 198.717950
7.00 7.034090 4.230770 100.507690 191.794870
6.99 7.023480 4.223080 100.830770 184.871790
6.98 7.012870 4.215380 101.153850 177.948720
6.97 7.002260 4.207690 101.476920 171.025640
6.96 6.99210 4.20 101.80 164.102560
6.95 6.981940 4.20 101.30 157.179490
6.94 6.971780 4.20 100.80 150.256410
6.93 6.961630 4.20 100.30 143.333330
6.92 6.953320 4.20 99.80 144.444440
6.91 6.945010 4.20 99.30 145.555560
6.90 6.93670 4.20 98.80 146.666670
6.89 6.92840 4.20 98.30 147.777780
6.88 6.920090 4.20 97.80 148.888890
6.87 6.909710 4.20 97.30 150.0
6.86 6.899320 4.20 96.80 151.111110
6.85 6.888940 4.20 96.30 152.222220
6.84 6.878560 4.20 95.80 153.333330
6.83 6.868170 4.20 95.30 154.444440
6.82 6.857790 4.158330 95.633330 155.555560
6.81 6.84740 4.116670 95.966670 156.666670
6.80 6.837020 4.0750 96.30 158.974360
6.79 6.826410 4.033330 96.633330 161.282050
6.78 6.81580 3.991670 96.966670 163.589740
6.77 6.805190 3.950 97.30 165.897440
6.76 6.794580 3.908330 97.633330 168.205130
6.75 6.78420 3.866670 97.966670 170.512820
6.74 6.773810 3.8250 98.30 172.820510
6.73 6.763430 3.783330 98.633330 175.128210
6.72 6.753050 3.741670 98.966670 177.43590
6.71 6.744560 3.70 99.30 179.743590
6.70 6.736070 3.707690 99.646150 182.051280
6.69 6.727580 3.715380 99.992310 184.358970
6.68 6.71910 3.723080 100.338460 186.666670
6.67 6.710610 3.730770 100.684620 186.923080
6.66 6.70 3.738460 101.030770 187.179490
6.65 6.689390 3.746150 101.376920 187.43590
6.64 6.678780 3.753850 101.723080 187.692310
6.63 6.668170 3.761540 102.069230 187.948720
6.62 6.657560 3.769230 102.415380 188.205130
6.61 6.646950 3.776920 102.761540 188.461540
6.60 6.636340 3.784620 103.107690 188.717950
6.59 6.625730 3.792310 103.453850 188.974360
6.58 6.615120 3.80 103.80 189.230770
6.57 6.604510 3.816670 103.841670 189.487180
6.56 6.593910 3.833330 103.883330 189.743590
6.55 6.58330 3.850 103.9250 190.0
6.54 6.574810 3.866670 103.966670 187.543420
6.53 6.566320 3.883330 104.008330 185.086850
6.52 6.557830 3.90 104.050 182.630270
6.51 6.549350 3.916670 104.091670 180.17370
