~VERSION INFORMATION SECTION
VERS. 2.0 : CWLS LAS-VERSION 2.0
WRAP. NO : One line per depth step
~WELL INFORMATION SECTION
# MNEM.UNIT VALUE/NAME DESCRIPTION
#-------- -------------- ---------------------
STRT.Metres 16 : Start
STOP.Metres 0.15 : Stop
STEP.Metres -0.01 : Step
NULL.  -999.25 :NULL VALUE
DATE. 2025-24-11 : DATE
~CURVE INFORMATION SECTION
DEPTH.Metres : 0 Depth
Depth. : 1 Depth
Incline.Deg : 2 Incline
Azimuth.Deg : 3 Azimuth
GR.CPS : 4 GR
~PARAMETER INFORMATION SECTION
~OTHER
#-------------------------------------------------
#Produced By: GeoVista Logger - Version 7.1.107.0
Natural Gamma Sonde - 6447
Verticality Sonde - 6292
#-------------------------------------------------
~ASCII LOG DATA
# ...
6.50 6.540860 3.933330 104.133330 177.717120
6.49 6.530250 3.950 104.1750 175.260550
6.48 6.519640 3.966670 104.216670 172.803970
6.47 6.509030 3.983330 104.258330 170.347390
6.46 6.498420 4.0 104.30 167.890820
6.45 6.487810 3.976920 103.676920 165.434240
6.44 6.47720 3.953850 103.053850 162.977670
6.43 6.466590 3.930770 102.430770 160.521090
6.42 6.455980 3.907690 101.807690 158.064520
6.41 6.445370 3.884620 101.184620 156.003580
6.40 6.434760 3.861540 100.561540 153.942650
6.39 6.424150 3.838460 99.938460 151.881720
6.38 6.413540 3.815380 99.315380 149.820790
6.37 6.405060 3.792310 98.692310 147.759860
6.36 6.396570 3.769230 98.069230 145.698920
6.35 6.388080 3.746150 97.446150 143.637990
6.34 6.379590 3.723080 96.823080 141.577060
6.33 6.371110 3.70 96.20 139.516130
6.32 6.36050 3.715380 96.923080 137.45520
6.31 6.349890 3.730770 97.646150 135.394270
6.30 6.339280 3.746150 98.369230 133.333330
6.29 6.328670 3.761540 99.092310 133.846150
6.28 6.318060 3.776920 99.815380 134.358970
6.27 6.307450 3.792310 100.538460 134.871790
6.26 6.296840 3.807690 101.261540 135.384620
6.25 6.286230 3.823080 101.984620 135.897440
6.24 6.275620 3.838460 102.707690 136.410260
6.23 6.265010 3.853850 103.430770 136.923080
6.22 6.25440 3.869230 104.153850 137.43590
6.21 6.243790 3.884620 104.876920 137.948720
6.20 6.23530 3.90 105.60 138.461540
6.19 6.226820 3.908330 104.8750 138.974360
6.18 6.218330 3.916670 104.150 139.487180
6.17 6.209840 3.9250 103.4250 140.0
6.16 6.201350 3.933330 102.70 143.888890
6.15 6.190740 3.941670 101.9750 147.777780
6.14 6.180140 3.950 101.250 151.666670
6.13 6.169530 3.958330 100.5250 155.555560
6.12 6.158920 3.966670 99.80 159.444440
6.11 6.148310 3.9750 99.0750 163.333330
6.10 6.13770 3.983330 98.350 167.222220
6.09 6.127090 3.991670 97.6250 171.111110
6.08 6.116480 4.0 96.90 175.0
6.07 6.106090 4.0 97.084620 178.888890
6.06 6.095710 4.0 97.269230 182.777780
6.05 6.085330 4.0 97.453850 186.666670
6.04 6.074940 4.0 97.638460 186.153850
6.03 6.064330 4.0 97.823080 185.641030
6.02 6.053720 4.0 98.007690 185.128210
6.01 6.043120 4.0 98.192310 184.615380
6.00 6.032510 4.0 98.376920 184.102560
5.99 6.024020 4.0 98.561540 183.589740
5.98 6.015530 4.0 98.746150 183.076920
5.97 6.007040 4.0 98.930770 182.56410
5.96 5.998560 4.0 99.115380 182.051280
5.95 5.990070 4.0 99.30 181.538460
5.94 5.979460 3.976920 99.20 181.025640
5.93 5.968850 3.953850 99.10 180.512820
5.92 5.958240 3.930770 99.0 180.0
5.91 5.947630 3.907690 98.90 186.153850
5.90 5.937020 3.884620 98.80 192.307690
5.89 5.926410 3.861540 98.70 198.461540
5.88 5.91580 3.838460 98.60 204.615380
5.87 5.905190 3.815380 98.50 210.769230
5.86 5.894810 3.792310 98.40 216.923080
5.85 5.884420 3.769230 98.30 223.076920
5.84 5.874040 3.746150 98.20 229.230770
5.83 5.863660 3.723080 98.10 235.384620
5.82 5.853270 3.70 98.0 241.538460
5.81 5.842890 3.70 98.258330 247.692310
5.80 5.832510 3.70 98.516670 253.846150
5.79 5.822120 3.70 98.7750 260.0
5.78 5.8140 3.70 99.033330 253.055560
5.77 5.805870 3.70 99.291670 246.111110
5.76 5.797740 3.70 99.550 239.166670
5.75 5.789620 3.70 99.808330 232.222220
5.74 5.781490 3.70 100.066670 225.277780
5.73 5.770880 3.70 100.3250 218.333330
5.72 5.760270 3.70 100.583330 211.388890
5.71 5.749660 3.70 100.841670 204.444440
5.70 5.739050 3.70 101.10 197.50
5.69 5.728440 3.723080 100.730770 190.555560
5.68 5.717830 3.746150 100.361540 183.611110
5.67 5.707220 3.769230 99.992310 176.666670
5.66 5.696610 3.792310 99.623080 177.43590
5.65 5.6860 3.815380 99.253850 178.205130
5.64 5.67540 3.838460 98.884620 178.974360
5.63 5.664790 3.861540 98.515380 179.743590
5.62 5.654180 3.884620 98.146150 180.512820
5.61 5.645690 3.907690 97.776920 181.282050
5.60 5.63720 3.930770 97.407690 182.051280
5.59 5.628710 3.953850 97.038460 182.820510
5.58 5.620230 3.976920 96.669230 183.589740
5.57 5.611740 4.0 96.30 184.358970
5.56 5.601130 3.992310 96.361540 185.128210
5.55 5.590520 3.984620 96.423080 185.897440
5.54 5.579910 3.976920 96.484620 186.666670
5.53 5.56930 3.969230 96.546150 187.43590
5.52 5.558690 3.961540 96.607690 188.205130
5.51 5.548080 3.953850 96.669230 188.974360
5.50 5.537470 3.946150 96.730770 189.743590
5.49 5.526860 3.938460 96.792310 190.512820
5.48 5.516250 3.930770 96.853850 191.282050
5.47 5.505640 3.923080 96.915380 192.051280
5.46 5.495030 3.915380 96.976920 192.820510
5.45 5.484420 3.907690 97.038460 193.589740
5.44 5.475940 3.90 97.10 194.358970
5.43 5.467450 3.891670 97.116670 195.128210
5.42 5.458960 3.883330 97.133330 195.897440
5.41 5.450470 3.8750 97.150 196.666670
5.40 5.441990 3.866670 97.166670 196.153850
5.39 5.431380 3.858330 97.183330 195.641030
5.38 5.420770 3.850 97.20 195.128210
5.37 5.410160 3.841670 97.216670 194.615380
5.36 5.399550 3.833330 97.233330 194.102560
5.35 5.389160 3.8250 97.250 193.589740
5.34 5.378780 3.816670 97.266670 193.076920
5.33 5.36840 3.808330 97.283330 192.56410
5.32 5.358010 3.80 97.30 192.051280
5.31 5.34740 3.80 97.292310 191.538460
5.30 5.336790 3.80 97.284620 191.025640
5.29 5.326190 3.80 97.276920 190.512820
5.28 5.315580 3.80 97.269230 190.0
5.27 5.305190 3.80 97.261540 190.0
5.26 5.294810 3.80 97.253850 190.0
5.25 5.284420 3.80 97.246150 190.0
5.24 5.274040 3.80 97.238460 190.0
5.23 5.265550 3.80 97.230770 190.0
5.22 5.257070 3.80 97.223080 190.0
5.21 5.248580 3.80 97.215380 190.0
5.20 5.240090 3.80 97.207690 190.0
5.19 5.23160 3.80 97.20 190.0
5.18 5.220990 3.80 96.792310 190.0
5.17 5.210380 3.80 96.384620 190.0
5.16 5.199770 3.80 95.976920 190.0
5.15 5.189160 3.80 95.569230 188.974360
5.14 5.178560 3.80 95.161540 187.948720
5.13 5.167950 3.80 94.753850 186.923080
5.12 5.157340 3.80 94.346150 185.897440
5.11 5.146730 3.80 93.938460 184.871790
5.10 5.136120 3.80 93.530770 183.846150
5.09 5.125510 3.80 93.123080 182.820510
5.08 5.11490 3.80 92.715380 181.794870
5.07 5.104290 3.80 92.307690 180.769230
5.06 5.09580 3.80 91.90 179.743590
5.05 5.087310 3.80 92.091670 178.717950
5.04 5.078830 3.80 92.283330 177.692310
5.03 5.070340 3.80 92.4750 176.666670
5.02 5.061850 3.80 92.666670 172.50
5.01 5.051240 3.80 92.858330 168.333330
5.00 5.040630 3.80 93.050 164.166670
4.99 5.030020 3.80 93.241670 160.0
4.98 5.019410 3.80 93.433330 155.833330
4.97 5.00880 3.80 93.6250 151.666670
4.96 4.998190 3.80 93.816670 147.50
4.95 4.987580 3.80 94.008330 143.333330
4.94 4.976980 3.80 94.20 139.166670
4.93 4.966140 3.761540 94.369230 135.0
4.92 4.95530 3.723080 94.538460 130.833330
4.91 4.944470 3.684620 94.707690 126.666670
4.90 4.933630 3.646150 94.876920 130.209790
4.89 4.925330 3.607690 95.046150 133.752910
4.88 4.917020 3.569230 95.215380 137.296040
4.87 4.908710 3.530770 95.384620 140.839160
4.86 4.900410 3.492310 95.553850 144.382280
4.85 4.89210 3.453850 95.723080 147.925410
4.84 4.881260 3.415380 95.892310 151.468530
4.83 4.870430 3.376920 96.061540 155.011660
4.82 4.859590 3.338460 96.230770 158.554780
4.81 4.848760 3.30 96.40 162.09790
4.80 4.837920 3.284620 96.184620 165.641030
4.79 4.827090 3.269230 95.969230 169.184150
4.78 4.816250 3.253850 95.753850 172.727270
4.77 4.805420 3.238460 95.538460 170.776590
4.76 4.794810 3.223080 95.323080 168.825910
4.75 4.78420 3.207690 95.107690 166.875230
4.74 4.773590 3.192310 94.892310 164.924550
4.73 4.762980 3.176920 94.676920 162.973870
4.72 4.754490 3.161540 94.461540 161.023190
4.71 4.7460 3.146150 94.246150 159.072510
4.70 4.737520 3.130770 94.030770 157.121830
4.69 4.729030 3.115380 93.815380 155.171140
4.68 4.720540 3.10 93.60 153.220460
4.67 4.710160 3.069230 93.530770 151.269780
4.66 4.699770 3.038460 93.461540 149.31910
4.65 4.689390 3.007690 93.392310 147.368420
4.64 4.679010 2.976920 93.323080 150.087720
4.63 4.66840 2.946150 93.253850 152.807020
4.62 4.657790 2.915380 93.184620 155.526320
4.61 4.647180 2.884620 93.115380 158.245610
4.60 4.636570 2.853850 93.046150 160.964910
4.59 4.625960 2.823080 92.976920 163.684210
4.58 4.615350 2.792310 92.907690 166.403510
4.57 4.604740 2.761540 92.838460 169.122810
4.56 4.594130 2.730770 92.769230 171.842110
4.55 4.585640 2.70 92.70 174.56140
