~VERSION INFORMATION SECTION
VERS. 2.0 : CWLS LAS-VERSION 2.0
WRAP. NO : One line per depth step
~WELL INFORMATION SECTION
# MNEM.UNIT VALUE/NAME DESCRIPTION
#-------- -------------- ---------------------
STRT.Metres 17 : Start
STOP.Metres 0.39 : Stop
STEP.Metres -0.01 : Step
NULL.  -999.25 :NULL VALUE
DATE. 2025-14-11 : DATE
~CURVE INFORMATION SECTION
DEPTH.Metres : 0 Depth
Depth. : 1 Depth
Incline.Deg : 2 Incline
Azimuth.Deg : 3 Azimuth
GR.CPS : 4 GR
~PARAMETER INFORMATION SECTION
~OTHER
#-------------------------------------------------
#Produced By: GeoVista Logger - Version 7.1.107.0
Natural Gamma Sonde - 6447
Verticality Sonde - 6292
#-------------------------------------------------
~ASCII LOG DATA
# ...
8.74 8.748530 4.20 101.533330 146.666670
8.73 8.73860 4.20 100.566670 156.666670
8.72 8.728670 4.20 99.60 166.666670
8.71 8.719640 4.233330 99.70 176.666670
8.70 8.709710 4.266670 99.80 176.666670
8.69 8.695260 4.30 99.90 176.666670
8.68 8.680810 4.250 101.150 176.666670
8.67 8.670880 4.20 102.40 171.111110
8.66 8.661850 4.20 101.233330 165.555560
8.65 8.651920 4.20 100.066670 160.0
8.64 8.641990 4.20 98.90 165.555560
8.63 8.632960 4.20 99.733330 171.111110
8.62 8.623020 4.20 100.566670 176.666670
8.61 8.613090 4.20 101.40 176.917560
8.60 8.604060 4.20 100.90 177.168460
8.59 8.594130 4.20 100.40 177.419350
8.58 8.58420 4.20 99.90 160.501790
8.57 8.574270 4.233330 100.10 143.584230
8.56 8.565240 4.266670 100.30 126.666670
8.55 8.55530 4.30 100.50 130.0
8.54 8.545370 4.30 100.566670 133.333330
8.53 8.535440 4.30 100.633330 136.666670
8.52 8.526410 4.30 100.70 165.0
8.51 8.516480 4.30 100.833330 193.333330
8.50 8.506550 4.30 100.966670 176.666670
8.49 8.496610 4.30 101.10 160.0
8.48 8.487580 4.266670 101.166670 143.333330
8.47 8.477650 4.233330 101.233330 142.222220
8.46 8.467720 4.20 101.30 141.111110
8.45 8.457790 4.20 101.20 140.0
8.44 8.448760 4.20 101.10 133.333330
8.43 8.438830 4.20 101.0 126.666670
8.42 8.428890 4.20 101.0 120.0
8.41 8.418960 4.20 101.0 126.666670
8.40 8.409930 4.20 101.0 133.333330
8.39 8.395030 4.20 100.60 140.0
8.38 8.380140 4.20 100.20 136.666670
8.37 8.37020 4.20 100.60 133.333330
8.36 8.360270 4.20 101.0 130.0
8.35 8.350340 4.20 101.40 144.444440
8.34 8.340410 4.233330 101.033330 158.888890
8.33 8.330470 4.266670 100.666670 173.333330
8.32 8.320540 4.30 100.30 162.222220
8.31 8.310610 4.30 100.466670 151.111110
8.30 8.301580 4.30 100.633330 140.0
8.29 8.291650 4.30 100.80 136.666670
8.28 8.281720 4.30 100.90 133.333330
8.27 8.271780 4.30 101.0 130.0
8.26 8.261850 4.30 101.10 131.111110
8.25 8.252820 4.30 101.133330 132.222220
8.24 8.242890 4.30 101.166670 133.333330
8.23 8.232960 4.30 101.20 128.888890
8.22 8.223020 4.30 101.066670 124.444440
8.21 8.213090 4.30 100.933330 120.0
8.20 8.204060 4.30 100.80 128.888890
8.19 8.194130 4.30 101.266670 137.777780
8.18 8.18420 4.30 101.733330 146.666670
8.17 8.174270 4.30 102.20 152.222220
8.16 8.164330 4.30 102.033330 157.777780
8.15 8.15440 4.30 101.866670 163.333330
8.14 8.144470 4.30 101.70 152.222220
8.13 8.134540 4.30 101.250 141.111110
8.12 8.12460 4.30 100.80 130.0
8.11 8.114670 4.30 100.866670 133.333330
8.10 8.105640 4.30 100.933330 136.666670
8.09 8.095710 4.30 101.0 137.777780
8.08 8.085780 4.333330 101.30 138.888890
8.07 8.075850 4.366670 101.60 140.0
8.06 8.065910 4.40 101.90 139.569890
8.05 8.055980 4.366670 101.50 139.139780
8.04 8.046050 4.333330 101.10 138.709680
8.03 8.037020 4.30 100.70 132.473120
8.02 8.027090 4.30 100.60 126.236560
8.01 8.017160 4.30 100.50 120.0
8.00 8.008130 4.30 100.40 130.0
7.99 7.998190 4.30 100.50 140.0
7.98 7.988260 4.30 100.60 150.0
7.97 7.979230 4.30 100.70 145.555560
7.96 7.96930 4.30 100.166670 141.111110
7.95 7.954850 4.30 99.633330 136.666670
7.94 7.940410 4.30 99.10 147.777780
7.93 7.930470 4.30 99.033330 158.888890
7.92 7.921440 4.30 98.966670 170.0
7.91 7.911510 4.30 98.90 158.333330
7.90 7.901580 4.30 98.933330 146.666670
7.89 7.892550 4.30 98.966670 135.0
7.88 7.882620 4.30 99.0 156.666670
7.87 7.872690 4.30 99.366670 178.333330
7.86 7.863660 4.30 99.733330 200.0
7.85 7.853720 4.30 100.10 175.0
7.84 7.843790 4.30 99.90 150.0
7.83 7.834760 4.30 99.70 123.333330
7.82 7.824830 4.30 99.50 96.666670
7.81 7.81490 4.30 99.533330 70.0
7.80 7.805870 4.30 99.566670 101.111110
7.79 7.795940 4.30 99.60 132.222220
7.78 7.7860 4.30 98.50 163.333330
7.77 7.776980 4.30 97.40 156.507940
7.76 7.767040 4.30 96.30 149.682540
7.75 7.757110 4.333330 97.433330 142.857140
7.74 7.748080 4.366670 98.566670 154.497350
7.73 7.738150 4.40 99.70 166.137570
7.72 7.728220 4.40 98.666670 177.777780
7.71 7.719190 4.40 97.633330 168.518520
7.70 7.709260 4.40 96.60 159.259260
7.69 7.694810 4.40 96.60 150.0
7.68 7.680360 4.40 96.60 158.888890
7.67 7.670430 4.40 96.60 167.777780
7.66 7.66140 4.40 98.10 176.666670
7.65 7.651470 4.40 99.60 158.888890
7.64 7.641530 4.40 99.166670 141.111110
7.63 7.63160 4.40 98.733330 123.333330
7.62 7.622570 4.40 98.30 120.0
7.61 7.612640 4.40 98.233330 116.666670
7.60 7.602710 4.40 98.166670 113.333330
7.59 7.593680 4.40 98.10 117.777780
7.58 7.583750 4.40 98.233330 122.222220
7.57 7.573810 4.40 98.366670 126.666670
7.56 7.564790 4.40 98.50 134.444440
7.55 7.554850 4.366670 98.40 142.222220
7.54 7.544920 4.333330 98.30 150.0
7.53 7.534990 4.30 98.20 143.333330
7.52 7.525960 4.333330 97.966670 136.666670
7.51 7.516030 4.366670 97.733330 124.444440
7.50 7.506090 4.40 97.50 112.222220
7.49 7.497070 4.40 98.033330 100.0
7.48 7.487130 4.40 98.566670 126.666670
7.47 7.47720 4.40 99.10 153.333330
7.46 7.467270 4.40 98.866670 180.0
7.45 7.457340 4.40 98.633330 175.555560
7.44 7.44740 4.40 98.40 171.111110
7.43 7.438370 4.366670 98.80 166.666670
7.42 7.428440 4.333330 99.20 155.555560
7.41 7.418510 4.30 99.60 144.444440
7.40 7.408580 4.30 99.850 133.333330
7.39 7.398650 4.30 100.10 145.555560
7.38 7.389620 4.30 99.633330 157.777780
7.37 7.379680 4.30 99.166670 170.0
7.36 7.369750 4.30 98.70 168.888890
7.35 7.35530 4.30 98.90 167.777780
7.34 7.340860 4.30 99.10 166.666670
7.33 7.330930 4.30 99.30 164.444440
7.32 7.320990 4.30 99.30 162.222220
7.31 7.311060 4.30 99.30 160.0
7.30 7.302030 4.30 99.30 165.555560
7.29 7.29210 4.30 99.50 171.111110
7.28 7.282170 4.30 99.70 176.666670
7.27 7.272230 4.30 99.90 170.0
7.26 7.26230 4.30 99.70 163.333330
7.25 7.252370 4.30 99.50 156.666670
7.24 7.242440 4.30 99.30 156.666670
7.23 7.232510 4.30 99.466670 156.666670
7.22 7.222570 4.30 99.633330 156.666670
7.21 7.212640 4.30 99.80 153.333330
7.20 7.203610 4.30 99.333330 150.0
7.19 7.193680 4.30 98.866670 146.666670
7.18 7.183750 4.30 98.40 151.111110
7.17 7.173810 4.30 98.60 155.555560
7.16 7.163880 4.30 98.80 160.0
7.15 7.153950 4.30 99.0 166.666670
7.14 7.144020 4.30 100.133330 173.333330
7.13 7.134990 4.30 101.266670 180.0
7.12 7.125060 4.30 102.40 173.333330
7.11 7.115120 4.30 101.90 166.666670
7.10 7.105190 4.30 101.40 160.0
7.09 7.095260 4.30 100.90 161.666670
7.08 7.086230 4.30 100.850 163.333330
7.07 7.07630 4.30 100.80 153.333330
7.06 7.067270 4.30 101.10 143.333330
7.05 7.057340 4.30 101.40 133.333330
7.04 7.04740 4.30 101.70 142.222220
7.03 7.038370 4.266670 101.066670 151.111110
7.02 7.028440 4.233330 100.433330 160.0
7.01 7.018510 4.20 99.80 154.444440
7.00 7.008580 4.20 100.266670 148.888890
6.99 6.998650 4.20 100.733330 143.333330
6.98 6.989620 4.20 101.20 151.111110
6.97 6.979680 4.20 101.133330 158.888890
6.96 6.969750 4.20 101.066670 166.666670
6.95 6.95530 4.20 101.0 174.551970
6.94 6.940860 4.166670 100.966670 182.437280
6.93 6.930930 4.133330 100.933330 190.322580
6.92 6.92190 4.10 100.90 169.103940
6.91 6.911960 4.133330 100.833330 147.88530
6.90 6.902930 4.166670 100.766670 126.666670
6.89 6.8930 4.20 100.70 143.333330
6.88 6.883970 4.20 100.266670 160.0
6.87 6.874040 4.20 99.833330 176.666670
6.86 6.865010 4.20 99.40 164.444440
6.85 6.855080 4.166670 100.20 152.222220
6.84 6.846050 4.133330 101.0 140.0
6.83 6.836120 4.10 101.80 150.0
6.82 6.827090 4.10 101.60 160.0
6.81 6.818060 4.10 101.40 162.222220
6.80 6.808130 4.10 101.20 164.444440
6.79 6.79910 4.10 101.90 166.666670
6.78 6.789160 4.10 102.60 172.222220
6.77 6.774720 4.10 103.30 177.777780
6.76 6.760270 4.10 102.766670 183.333330
6.75 6.751240 4.10 102.233330 165.555560
6.74 6.741310 4.10 101.70 147.777780
6.73 6.731380 4.10 101.366670 130.0
6.72 6.721440 4.10 101.033330 153.333330
6.71 6.712420 4.10 100.70 176.666670
6.70 6.702480 4.10 101.566670 200.0
6.69 6.692550 4.10 102.433330 178.888890
6.68 6.683520 4.10 103.30 157.777780
6.67 6.673590 4.10 101.350 136.666670
6.66 6.663660 4.10 99.40 151.111110
6.65 6.653720 4.10 99.30 165.555560
6.64 6.64470 4.10 99.20 180.0
6.63 6.634760 4.10 99.10 172.222220
6.62 6.624830 4.10 100.033330 164.444440
6.61 6.61580 4.10 100.966670 156.666670
