~VERSION INFORMATION SECTION
VERS. 2.0 : CWLS LAS-VERSION 2.0
WRAP. NO : One line per depth step
~WELL INFORMATION SECTION
# MNEM.UNIT VALUE/NAME DESCRIPTION
#-------- -------------- ---------------------
STRT.Metres 16 : Start
STOP.Metres 0.47 : Stop
STEP.Metres -0.01 : Step
NULL.  -999.25 :NULL VALUE
DATE. 2025-18-11 : DATE
~CURVE INFORMATION SECTION
DEPTH.Metres : 0 Depth
Depth. : 1 Depth
Incline.Deg : 2 Incline
Azimuth.Deg : 3 Azimuth
GR.CPS : 4 GR
~PARAMETER INFORMATION SECTION
~OTHER
#-------------------------------------------------
#Produced By: GeoVista Logger - Version 7.1.107.0
Natural Gamma Sonde - 6447
Verticality Sonde - 6292
#-------------------------------------------------
~ASCII LOG DATA
# ...
5.08 5.092550 3.680 97.20 167.333330
5.07 5.07630 3.640 97.40 168.0
5.06 5.068170 3.60 97.60 168.666670
5.05 5.060050 3.620 96.640 169.333330
5.04 5.051920 3.640 95.680 170.0
5.03 5.043790 3.660 94.720 170.0
5.02 5.027540 3.680 93.760 170.0
5.01 5.018960 3.70 92.80 170.0
5.00 5.010380 3.680 93.780 170.0
4.99 5.002260 3.660 94.760 170.0
4.98 4.994130 3.640 95.740 171.333330
4.97 4.977880 3.620 96.720 172.666670
4.96 4.969750 3.60 97.70 174.0
4.95 4.961630 3.620 97.140 175.333330
4.94 4.953050 3.640 96.580 176.666670
4.93 4.944470 3.660 96.020 181.333330
4.92 4.928220 3.680 95.460 186.0
4.91 4.920090 3.70 94.90 190.666670
4.90 4.911960 3.70 94.040 195.333330
4.89 4.903840 3.70 93.180 200.0
4.88 4.895710 3.70 92.320 194.666670
4.87 4.879460 3.70 91.460 189.333330
4.86 4.870880 3.70 90.60 184.0
4.85 4.86230 3.680 92.280 178.666670
4.84 4.854180 3.660 93.960 173.333330
4.83 4.846050 3.640 95.640 180.666670
4.82 4.828890 3.620 97.320 188.0
4.81 4.820320 3.60 99.0 195.333330
4.80 4.811740 3.5750 97.0750 202.666670
4.79 4.803610 3.550 95.150 210.0
4.78 4.795490 3.5250 93.2250 194.666670
4.77 4.779230 3.50 91.30 179.333330
4.76 4.770650 3.520 92.180 164.0
4.75 4.762080 3.540 93.060 148.666670
4.74 4.753950 3.560 93.940 133.333330
4.73 4.745820 3.580 94.820 136.0
4.72 4.729570 3.60 95.70 138.666670
4.71 4.721440 3.580 95.620 141.333330
4.70 4.713320 3.560 95.540 144.0
4.69 4.697070 3.540 95.460 146.666670
4.68 4.688940 3.520 95.380 140.96970
4.67 4.680810 3.50 95.30 135.272730
4.66 4.672690 3.520 95.020 129.575760
4.65 4.664560 3.540 94.740 123.878790
4.64 4.648310 3.560 94.460 118.181820
4.63 4.640180 3.580 94.180 126.12440
4.62 4.632050 3.60 93.90 134.066990
4.61 4.623930 3.580 94.120 142.009570
4.60 4.61580 3.560 94.340 149.952150
4.59 4.599550 3.540 94.560 157.894740
4.58 4.591420 3.520 94.780 145.087720
4.57 4.58330 3.50 95.0 132.28070
4.56 4.574720 3.50 94.740 119.473680
4.55 4.566140 3.50 94.480 106.666670
4.54 4.549890 3.50 94.220 113.333330
4.53 4.541760 3.50 93.960 120.0
4.52 4.533630 3.50 93.70 126.666670
4.51 4.517380 3.50 93.460 133.333330
4.50 4.50880 3.50 93.220 140.0
4.49 4.500230 3.50 92.980 142.666670
4.48 4.49210 3.50 92.740 145.333330
4.47 4.483970 3.50 92.50 148.0
4.46 4.467720 3.480 92.420 150.666670
4.45 4.459590 3.460 92.340 153.333330
4.44 4.451470 3.440 92.260 156.666670
4.43 4.443340 3.420 92.180 160.0
4.42 4.435210 3.40 92.10 163.333330
4.41 4.418960 3.40 92.280 166.666670
4.40 4.410840 3.40 92.460 170.0
4.39 4.402710 3.40 92.640 172.0
4.38 4.386460 3.40 92.820 174.0
4.37 4.378330 3.40 93.0 176.0
4.36 4.37020 3.40 92.960 178.0
4.35 4.362080 3.40 92.920 180.0
4.34 4.353950 3.40 92.880 174.322580
4.33 4.33770 3.40 92.840 168.645160
4.32 4.330020 3.40 92.80 162.967740
4.31 4.322350 3.380 93.340 157.290320
4.30 4.3070 3.360 93.880 151.61290
4.29 4.299770 3.340 94.420 154.623660
4.28 4.292550 3.320 94.960 157.634410
4.27 4.27810 3.30 95.50 160.645160
4.26 4.264560 3.30 94.780 163.655910
4.25 4.257790 3.30 94.060 166.666670
4.24 4.251020 3.30 93.340 160.0
4.23 4.236570 3.30 92.620 153.333330
4.22 4.22980 3.30 91.90 146.666670
4.21 4.223020 3.280 92.360 140.0
4.20 4.209480 3.260 92.820 133.333330
4.19 4.195940 3.240 93.280 140.0
4.18 4.189160 3.220 93.740 146.666670
4.17 4.182390 3.20 94.20 153.333330
4.16 4.168850 3.20 94.140 160.0
4.15 4.156210 3.20 94.080 166.666670
4.14 4.148980 3.20 94.020 176.0
4.13 4.141760 3.20 93.960 185.333330
4.12 4.129120 3.20 93.90 194.666670
4.11 4.115580 3.1750 93.5750 204.0
4.10 4.10880 3.150 93.250 213.333330
4.09 4.102030 3.1250 92.9250 206.666670
4.08 4.088490 3.10 92.60 200.0
4.07 4.074940 3.10 93.0 193.333330
4.06 4.068170 3.10 93.40 186.666670
4.05 4.06140 3.10 93.80 180.0
4.04 4.046950 3.10 94.20 175.333330
4.03 4.040180 3.10 94.60 170.666670
4.02 4.033410 3.120 93.840 166.0
4.01 4.019860 3.140 93.080 161.333330
4.00 4.006320 3.160 92.320 156.666670
3.99 3.999550 3.180 91.560 159.333330
3.98 3.992780 3.20 90.80 162.0
3.97 3.979230 3.1750 90.8750 164.666670
3.96 3.965690 3.150 90.950 167.333330
3.95 3.958920 3.1250 91.0250 170.0
3.94 3.952140 3.10 91.10 168.0
3.93 3.93770 3.1250 89.950 166.0
3.92 3.930930 3.150 88.80 164.0
3.91 3.924150 3.1750 87.650 162.0
3.90 3.909710 3.20 86.50 160.0
3.89 3.896160 3.18750 86.9750 159.166670
3.88 3.888940 3.1750 87.450 158.333330
3.87 3.881720 3.16250 87.9250 157.50
3.86 3.868170 3.150 88.40 156.666670
3.85 3.853720 3.13750 88.8750 152.666670
3.84 3.846950 3.1250 89.350 148.666670
3.83 3.840180 3.11250 89.8250 144.666670
3.82 3.825730 3.10 90.30 140.666670
3.81 3.818960 3.1250 89.90 136.666670
3.80 3.812190 3.150 89.50 140.666670
3.79 3.798650 3.1750 89.10 144.666670
3.78 3.78420 3.20 88.70 148.666670
3.77 3.777430 3.1750 89.1750 152.666670
3.76 3.770650 3.150 89.650 156.666670
3.75 3.756210 3.1250 90.1250 157.333330
3.74 3.749440 3.10 90.60 158.0
3.73 3.742660 3.1250 90.0 158.666670
3.72 3.728220 3.150 89.40 159.333330
3.71 3.713770 3.1750 88.80 160.0
3.70 3.7070 3.20 88.20 156.666670
3.69 3.700230 3.1750 88.550 153.333330
3.68 3.685780 3.150 88.90 150.0
3.67 3.679010 3.1250 89.250 146.666670
3.66 3.672230 3.10 89.60 143.333330
3.65 3.657790 3.10 90.30 153.333330
3.64 3.651020 3.10 91.0 163.333330
3.63 3.644240 3.10 91.70 173.333330
3.62 3.62980 3.10 92.40 183.333330
3.61 3.616250 3.10 93.10 193.333330
3.60 3.609480 3.0750 91.2750 180.0
3.59 3.602710 3.050 89.450 166.666670
3.58 3.588260 3.0250 87.6250 153.333330
3.57 3.574720 3.0 85.80 140.0
3.56 3.567950 3.0250 87.250 126.666670
3.55 3.561170 3.050 88.70 144.0
3.54 3.547630 3.0750 90.150 161.333330
3.53 3.534090 3.10 91.60 178.666670
3.52 3.527770 3.06250 91.61250 196.0
3.51 3.521440 3.0250 91.6250 213.333330
3.50 3.50790 2.98750 91.63750 200.666670
3.49 3.494360 2.950 91.650 188.0
3.48 3.487580 2.91250 91.66250 175.333330
3.47 3.480810 2.8750 91.6750 162.666670
3.46 3.467270 2.83750 91.68750 150.0
3.45 3.46050 2.80 91.70 154.166670
3.44 3.453720 2.7750 91.8250 158.333330
3.43 3.439280 2.750 91.950 162.50
3.42 3.425730 2.7250 92.0750 166.666670
3.41 3.418960 2.70 92.20 176.61290
3.40 3.412190 2.720 90.920 186.559140
3.39 3.398650 2.740 89.640 196.505380
3.38 3.38510 2.760 88.360 206.451610
3.37 3.377880 2.780 87.080 193.172040
3.36 3.370650 2.80 85.80 179.892470
3.35 3.357110 2.7750 84.9250 166.61290
3.34 3.343570 2.750 84.050 153.333330
3.33 3.336790 2.7250 83.1750 163.333330
3.32 3.330020 2.70 82.30 173.333330
3.31 3.315580 2.70 83.9750 183.333330
3.30 3.30880 2.70 85.650 193.333330
3.29 3.302030 2.70 87.3250 203.333330
3.28 3.288490 2.70 89.0 191.666670
3.27 3.274940 2.6750 87.950 180.0
3.26 3.267720 2.650 86.90 168.333330
3.25 3.26050 2.6250 85.850 156.666670
3.24 3.246950 2.60 84.80 150.0
3.23 3.240180 2.6250 85.4750 143.333330
3.22 3.233410 2.650 86.150 136.666670
3.21 3.219860 2.6750 86.8250 130.0
3.20 3.206320 2.70 87.50 148.750
3.19 3.19910 2.70 87.6750 167.50
3.18 3.191870 2.70 87.850 186.250
3.17 3.178330 2.70 88.0250 205.0
3.16 3.164790 2.70 88.20 202.50
3.15 3.158010 2.70 86.7750 200.0
3.14 3.151240 2.70 85.350 197.50
3.13 3.136790 2.70 83.9250 195.0
3.12 3.130020 2.70 82.50 183.750
3.11 3.123250 2.650 84.850 172.50
3.10 3.109710 2.60 87.20 161.250
3.09 3.095260 2.550 89.550 150.0
3.08 3.088490 2.50 91.90 155.833330
3.07 3.081720 2.550 87.950 161.666670
3.06 3.068170 2.60 84.0 167.50
3.05 3.053720 2.650 80.050 173.333330
3.04 3.046950 2.70 76.10 177.50
3.03 3.040180 2.70 78.240 181.666670
3.02 3.026640 2.70 80.380 185.833330
3.01 3.019410 2.70 82.520 190.0
3.00 3.012190 2.70 84.660 176.666670
2.99 2.997740 2.70 86.80 163.333330
2.98 2.98420 2.7250 84.7250 150.0
2.97 2.977430 2.750 82.650 136.666670
2.96 2.970650 2.7750 80.5750 144.666670
2.95 2.956210 2.80 78.50 152.666670
2.94 2.949440 2.750 79.6250 160.666670
2.93 2.942660 2.70 80.750 168.666670
2.92 2.929120 2.650 81.8750 176.666670
2.91 2.914670 2.60 83.0 180.0
2.90 2.90790 2.58750 83.1250 183.333330
2.89 2.901130 2.5750 83.250 186.666670
2.88 2.886680 2.56250 83.3750 190.0
2.87 2.879910 2.550 83.50 167.50
2.86 2.873140 2.53750 83.6250 145.0
2.85 2.858690 2.5250 83.750 122.50
