~VERSION INFORMATION SECTION
VERS. 2.0 : CWLS LAS-VERSION 2.0
WRAP. NO : One line per depth step
~WELL INFORMATION SECTION
# MNEM.UNIT VALUE/NAME DESCRIPTION
#-------- -------------- ---------------------
STRT.Metres 17 : Start
STOP.Metres 0.39 : Stop
STEP.Metres -0.01 : Step
NULL.  -999.25 :NULL VALUE
DATE. 2025-14-11 : DATE
~CURVE INFORMATION SECTION
DEPTH.Metres : 0 Depth
Depth. : 1 Depth
Incline.Deg : 2 Incline
Azimuth.Deg : 3 Azimuth
GR.CPS : 4 GR
~PARAMETER INFORMATION SECTION
~OTHER
#-------------------------------------------------
#Produced By: GeoVista Logger - Version 7.1.107.0
Natural Gamma Sonde - 6447
Verticality Sonde - 6292
#-------------------------------------------------
~ASCII LOG DATA
# ...
10.83 10.834310 4.60 97.366670 136.666670
10.82 10.824380 4.60 96.40 141.648750
10.81 10.814450 4.60 96.066670 146.630820
10.80 10.804510 4.60 95.733330 151.61290
10.79 10.795490 4.60 95.40 162.186380
10.78 10.785550 4.60 95.866670 172.759860
10.77 10.775620 4.60 96.333330 183.333330
10.76 10.765690 4.60 96.80 166.666670
10.75 10.755760 4.60 96.733330 150.0
10.74 10.746730 4.60 96.666670 158.888890
10.73 10.736790 4.60 96.60 167.777780
10.72 10.726860 4.60 96.750 176.666670
10.71 10.716930 4.60 96.90 168.888890
10.70 10.70790 4.60 97.333330 161.111110
10.69 10.697970 4.60 97.766670 153.333330
10.68 10.688040 4.60 98.20 152.222220
10.67 10.679010 4.60 97.533330 151.111110
10.66 10.669070 4.60 96.866670 150.0
10.65 10.659140 4.60 96.20 152.222220
10.64 10.64470 4.60 96.333330 154.444440
10.63 10.630250 4.60 96.466670 156.666670
10.62 10.620320 4.60 96.60 148.888890
10.61 10.610380 4.566670 96.833330 141.111110
10.60 10.600450 4.533330 97.066670 133.333330
10.59 10.591420 4.50 97.30 137.777780
10.58 10.581490 4.533330 97.266670 142.222220
10.57 10.571560 4.566670 97.233330 146.666670
10.56 10.561630 4.60 97.20 152.222220
10.55 10.55260 4.566670 97.233330 157.777780
10.54 10.542660 4.533330 97.266670 163.333330
10.53 10.532730 4.50 97.30 155.555560
10.52 10.52370 4.466670 97.333330 147.777780
10.51 10.513770 4.433330 97.366670 140.0
10.50 10.503840 4.40 97.40 144.444440
10.49 10.494810 4.433330 97.70 148.888890
10.48 10.484880 4.466670 98.0 153.333330
10.47 10.474940 4.50 98.30 165.0
10.46 10.465010 4.50 98.133330 176.666670
10.45 10.455980 4.50 97.966670 177.777780
10.44 10.446050 4.50 97.80 178.888890
10.43 10.436120 4.533330 97.533330 180.0
10.42 10.427090 4.566670 97.266670 183.333330
10.41 10.417160 4.60 97.0 186.666670
10.40 10.407220 4.60 98.166670 190.0
10.39 10.397290 4.60 99.333330 173.333330
10.38 10.387360 4.60 100.50 156.666670
10.37 10.378330 4.60 99.633330 140.0
10.36 10.36840 4.60 98.766670 135.555560
10.35 10.358470 4.60 97.90 131.111110
10.34 10.348530 4.60 99.0 126.666670
10.33 10.33950 4.60 100.10 140.0
10.32 10.329570 4.633330 99.233330 153.333330
10.31 10.319640 4.666670 98.366670 166.666670
10.30 10.305190 4.70 97.50 178.888890
10.29 10.290740 4.666670 97.80 191.111110
10.28 10.280810 4.633330 98.10 203.333330
10.27 10.270880 4.60 98.40 186.093190
10.26 10.261850 4.60 99.233330 168.853050
10.25 10.251920 4.60 100.066670 151.61290
10.24 10.241990 4.60 100.90 164.40860
10.23 10.232960 4.633330 100.133330 177.20430
10.22 10.223020 4.666670 99.366670 190.0
10.21 10.213090 4.70 98.60 195.555560
10.20 10.204060 4.70 98.516670 201.111110
10.19 10.194130 4.70 98.433330 206.666670
10.18 10.18420 4.70 98.350 194.444440
10.17 10.174270 4.70 98.266670 182.222220
10.16 10.164330 4.70 98.183330 170.0
10.15 10.15440 4.70 98.10 160.0
10.14 10.144470 4.70 97.933330 150.0
10.13 10.135440 4.70 97.766670 151.111110
10.12 10.125510 4.70 97.60 152.222220
10.11 10.115580 4.70 97.466670 153.333330
10.10 10.105640 4.70 97.333330 158.888890
10.09 10.096610 4.70 97.20 164.444440
10.08 10.086680 4.70 97.466670 170.0
10.07 10.076750 4.70 97.733330 180.0
10.06 10.066820 4.70 98.0 190.0
10.05 10.057790 4.70 97.80 200.0
10.04 10.047860 4.70 97.60 187.777780
10.03 10.037920 4.70 97.40 175.555560
10.02 10.027990 4.70 97.30 163.333330
10.01 10.018960 4.70 97.20 164.444440
10.00 10.009030 4.70 97.10 165.555560
9.99 9.99910 4.70 97.0 166.666670
9.98 9.989160 4.70 96.90 170.0
9.97 9.979230 4.70 96.933330 173.333330
9.96 9.96930 4.70 96.966670 176.666670
9.95 9.954850 4.70 97.0 172.222220
9.94 9.940410 4.70 96.866670 167.777780
9.93 9.930470 4.70 96.733330 163.333330
9.92 9.920540 4.70 96.60 168.888890
9.91 9.911510 4.70 96.70 174.444440
9.90 9.901580 4.70 96.80 180.0
9.89 9.891650 4.70 96.90 188.888890
9.88 9.881720 4.70 96.866670 197.777780
9.87 9.872690 4.70 96.833330 206.666670
9.86 9.862750 4.70 96.80 202.222220
9.85 9.852820 4.70 97.066670 197.777780
9.84 9.842890 4.70 97.333330 193.333330
9.83 9.833860 4.70 97.60 198.888890
9.82 9.823930 4.70 97.70 204.444440
9.81 9.8140 4.70 97.80 210.0
9.80 9.804970 4.70 97.90 224.444440
9.79 9.795030 4.70 97.60 238.888890
9.78 9.78510 4.70 97.30 253.333330
9.77 9.776070 4.70 97.0 218.333330
9.76 9.766140 4.70 97.866670 183.333330
9.75 9.756210 4.70 98.733330 178.888890
9.74 9.747180 4.70 99.60 174.444440
9.73 9.737250 4.666670 99.60 170.0
9.72 9.727310 4.633330 99.60 173.548390
9.71 9.718280 4.60 99.60 177.096770
9.70 9.708350 4.60 98.90 180.645160
9.69 9.699320 4.60 98.20 183.763440
9.68 9.689390 4.60 97.50 186.881720
9.67 9.674940 4.60 97.150 190.0
9.66 9.66050 4.60 96.80 183.333330
9.65 9.650560 4.60 96.70 176.666670
9.64 9.641530 4.60 96.60 170.0
9.63 9.63160 4.60 96.50 165.555560
9.62 9.621670 4.60 97.533330 161.111110
9.61 9.612640 4.60 98.566670 156.666670
9.60 9.602710 4.60 99.60 142.222220
9.59 9.592780 4.60 99.066670 127.777780
9.58 9.583750 4.60 98.533330 113.333330
9.57 9.573810 4.60 98.0 148.888890
9.56 9.563880 4.566670 97.90 184.444440
9.55 9.553950 4.533330 97.80 220.0
9.54 9.544920 4.50 97.70 200.0
9.53 9.534990 4.50 98.50 180.0
9.52 9.525060 4.50 99.30 160.0
9.51 9.516030 4.50 100.10 157.777780
9.50 9.506090 4.50 99.233330 155.555560
9.49 9.496160 4.50 98.366670 153.333330
9.48 9.486230 4.50 97.50 126.666670
9.47 9.47720 4.50 97.566670 100.0
9.46 9.467270 4.50 97.633330 118.888890
9.45 9.457340 4.50 97.70 137.777780
9.44 9.44740 4.466670 98.266670 156.666670
9.43 9.437470 4.433330 98.833330 166.666670
9.42 9.428440 4.40 99.40 176.666670
9.41 9.418510 4.40 99.833330 186.666670
9.40 9.408580 4.40 100.266670 165.555560
9.39 9.398650 4.40 100.70 144.444440
9.38 9.389620 4.40 100.50 123.333330
9.37 9.379680 4.40 100.30 124.444440
9.36 9.369750 4.40 99.633330 125.555560
9.35 9.35530 4.40 98.966670 126.666670
9.34 9.340860 4.40 98.30 124.444440
9.33 9.330930 4.40 99.20 122.222220
9.32 9.320990 4.40 100.10 120.0
9.31 9.311960 4.40 101.0 125.555560
9.30 9.302030 4.40 100.533330 131.111110
9.29 9.29210 4.40 100.066670 136.666670
9.28 9.282170 4.40 99.60 137.777780
9.27 9.272230 4.40 99.10 138.888890
9.26 9.26230 4.40 98.60 140.0
9.25 9.252370 4.40 98.10 141.111110
9.24 9.242440 4.40 99.633330 142.222220
9.23 9.232510 4.40 101.166670 143.333330
9.22 9.222570 4.40 102.70 162.222220
9.21 9.213540 4.40 102.166670 181.111110
9.20 9.203610 4.40 101.633330 200.0
9.19 9.193680 4.40 101.10 165.555560
9.18 9.183750 4.40 101.133330 131.111110
9.17 9.173810 4.40 101.166670 96.666670
9.16 9.164790 4.40 101.20 105.304660
9.15 9.154850 4.40 101.333330 113.942650
9.14 9.144920 4.40 101.466670 122.580650
9.13 9.134990 4.40 101.60 135.053760
9.12 9.125960 4.40 101.366670 147.526880
9.11 9.116030 4.40 101.133330 160.0
9.10 9.106090 4.40 100.90 156.666670
9.09 9.096160 4.40 100.90 153.333330
9.08 9.086230 4.40 100.90 150.0
9.07 9.07720 4.40 100.90 138.333330
9.06 9.067270 4.40 99.40 126.666670
9.05 9.057340 4.40 97.90 142.222220
9.04 9.04740 4.40 99.333330 157.777780
9.03 9.037470 4.40 100.766670 173.333330
9.02 9.027540 4.40 102.20 171.111110
9.01 9.018510 4.366670 102.066670 168.888890
9.00 9.008580 4.333330 101.933330 166.666670
8.99 8.998650 4.30 101.80 186.666670
8.98 8.988710 4.30 101.033330 206.666670
8.97 8.979680 4.30 100.266670 226.666670
8.96 8.969750 4.30 99.50 205.555560
8.95 8.959820 4.30 100.30 184.444440
8.94 8.949890 4.30 101.10 163.333330
8.93 8.935440 4.30 101.90 170.0
8.92 8.920990 4.30 102.20 176.666670
8.91 8.911060 4.30 102.50 183.333330
8.90 8.902030 4.30 102.80 177.777780
8.89 8.89210 4.30 101.433330 172.222220
8.88 8.883070 4.30 100.066670 166.666670
8.87 8.873140 4.30 98.70 148.148150
8.86 8.863210 4.30 99.90 129.629630
8.85 8.854180 4.30 101.10 111.111110
8.84 8.844240 4.30 102.30 138.518520
8.83 8.834310 4.266670 101.066670 165.925930
8.82 8.825280 4.233330 99.833330 193.333330
8.81 8.815350 4.20 98.60 171.666670
8.80 8.805420 4.233330 98.90 150.0
8.79 8.796390 4.266670 99.20 168.888890
8.78 8.786460 4.30 99.50 187.777780
8.77 8.776520 4.266670 100.50 206.666670
8.76 8.767490 4.233330 101.50 186.666670
8.75 8.757560 4.20 102.50 166.666670
