~VERSION INFORMATION SECTION
VERS. 2.0 : CWLS LAS-VERSION 2.0
WRAP. NO : One line per depth step
~WELL INFORMATION SECTION
# MNEM.UNIT VALUE/NAME DESCRIPTION
#-------- -------------- ---------------------
STRT.Metres 16 : Start
STOP.Metres 0.42 : Stop
STEP.Metres -0.01 : Step
NULL.  -999.25 :NULL VALUE
DATE. 2025-22-11 : DATE
~CURVE INFORMATION SECTION
DEPTH.Metres : 0 Depth
Depth. : 1 Depth
Incline.Deg : 2 Incline
Azimuth.Deg : 3 Azimuth
GR.CPS : 4 GR
~PARAMETER INFORMATION SECTION
~OTHER
#-------------------------------------------------
#Produced By: GeoVista Logger - Version 7.1.107.0
Natural Gamma Sonde - 6447
Verticality Sonde - 6292
#-------------------------------------------------
~ASCII LOG DATA
# ...
14.01 14.032510 5.228570 92.228570 194.166670
14.00 14.019410 5.20 91.90 198.333330
13.99 14.006320 5.26250 91.98750 202.50
13.98 13.997590 5.3250 92.0750 206.666670
13.97 13.988860 5.38750 92.16250 200.416670
13.96 13.980140 5.450 92.250 194.166670
13.95 13.971410 5.51250 92.33750 187.916670
13.94 13.962680 5.5750 92.4250 181.666670
13.93 13.953950 5.63750 92.51250 175.416670
13.92 13.940860 5.70 92.60 169.166670
13.91 13.927770 5.68750 92.450 162.916670
13.90 13.919040 5.6750 92.30 156.666670
13.89 13.910310 5.66250 92.150 155.94470
13.88 13.901580 5.650 92.0 155.222730
13.87 13.892850 5.63750 91.850 154.500770
13.86 13.884120 5.6250 91.70 153.77880
13.85 13.87540 5.61250 91.550 153.056840
13.84 13.861850 5.60 91.40 152.334870
13.83 13.848310 5.60 91.150 151.61290
13.82 13.839280 5.60 90.90 153.077960
13.81 13.830250 5.60 90.650 154.543010
13.80 13.821220 5.60 90.40 156.008060
13.79 13.812490 5.60 90.150 157.473120
13.78 13.803760 5.60 89.90 158.938170
13.77 13.795030 5.60 89.650 160.403230
13.76 13.781490 5.60 89.40 161.868280
13.75 13.767950 5.606670 89.473330 163.333330
13.74 13.758920 5.613330 89.546670 161.666670
13.73 13.749890 5.620 89.620 160.0
13.72 13.740860 5.626670 89.693330 158.333330
13.71 13.732130 5.633330 89.766670 156.666670
13.70 13.72340 5.640 89.840 155.0
13.69 13.714670 5.646670 89.913330 153.333330
13.68 13.701130 5.653330 89.986670 151.666670
13.67 13.687580 5.660 90.060 150.0
13.66 13.678860 5.666670 90.133330 150.0
13.65 13.670130 5.673330 90.206670 150.0
13.64 13.66140 5.680 90.280 150.0
13.63 13.652370 5.686670 90.353330 150.0
13.62 13.643340 5.693330 90.426670 150.0
13.61 13.634310 5.70 90.50 150.0
13.60 13.620770 5.71250 90.80 150.0
13.59 13.607220 5.7250 91.10 150.0
13.58 13.59850 5.73750 91.40 147.619050
13.57 13.589770 5.750 91.70 145.23810
13.56 13.581040 5.76250 92.0 142.857140
13.55 13.572010 5.7750 92.30 140.476190
13.54 13.562980 5.78750 92.60 138.095240
13.53 13.553950 5.80 92.90 135.714290
13.52 13.540410 5.81250 92.80 133.333330
13.51 13.526860 5.8250 92.70 135.833330
13.50 13.518130 5.83750 92.60 138.333330
13.49 13.509410 5.850 92.50 140.833330
13.48 13.500680 5.86250 92.40 143.333330
13.47 13.491650 5.8750 92.30 145.833330
13.46 13.482620 5.88750 92.20 148.333330
13.45 13.473590 5.90 92.10 150.833330
13.44 13.460950 5.8750 92.13750 153.333330
13.43 13.448310 5.850 92.1750 149.583330
13.42 13.439580 5.8250 92.21250 145.833330
13.41 13.430850 5.80 92.250 142.083330
13.40 13.422120 5.7750 92.28750 138.333330
13.39 13.409480 5.750 92.3250 134.583330
13.38 13.396840 5.7250 92.36250 130.833330
13.37 13.388110 5.70 92.40 127.083330
13.36 13.379380 5.68750 92.53750 123.333330
13.35 13.370650 5.6750 92.6750 120.952380
13.34 13.361930 5.66250 92.81250 118.571430
13.33 13.35320 5.650 92.950 116.190480
13.32 13.344470 5.63750 93.08750 113.809520
13.31 13.331830 5.6250 93.2250 111.428570
13.30 13.319190 5.61250 93.36250 109.047620
13.29 13.310460 5.60 93.50 106.666670
13.28 13.301730 5.60 93.36250 108.333330
13.27 13.2930 5.60 93.2250 110.0
13.26 13.280360 5.60 93.08750 111.666670
13.25 13.267720 5.60 92.950 113.333330
13.24 13.258990 5.60 92.81250 115.0
13.23 13.250260 5.60 92.6750 116.666670
13.22 13.241530 5.60 92.53750 118.333330
13.21 13.228440 5.60 92.40 120.0
13.20 13.215350 5.58750 92.26250 127.727270
13.19 13.206920 5.5750 92.1250 135.454550
13.18 13.19850 5.56250 91.98750 143.181820
13.17 13.190070 5.550 91.850 150.909090
13.16 13.181340 5.53750 91.71250 158.636360
13.15 13.172610 5.5250 91.5750 166.363640
13.14 13.163880 5.51250 91.43750 174.090910
13.13 13.150790 5.50 91.30 181.818180
13.12 13.13770 5.50 91.10 180.143540
13.11 13.129270 5.50 90.90 178.46890
13.10 13.120840 5.50 90.70 176.794260
13.09 13.112420 5.50 90.50 175.119620
13.08 13.099320 5.50 90.30 173.444980
13.07 13.086230 5.50 90.10 171.770330
13.06 13.07750 5.50 89.90 170.095690
13.05 13.068770 5.50 89.70 168.421050
13.04 13.060050 5.50 89.950 162.368420
13.03 13.051320 5.50 90.20 156.315790
13.02 13.042590 5.50 90.450 150.263160
13.01 13.033860 5.50 90.70 144.210530
13.00 13.020770 5.50 90.950 138.157890
12.99 13.007670 5.50 91.20 132.105260
12.98 12.998950 5.50 91.450 126.052630
12.97 12.990220 5.50 91.70 120.0
12.96 12.981490 5.50 91.171430 117.50
12.95 12.972760 5.50 90.642860 115.0
12.94 12.964030 5.50 90.114290 112.50
12.93 12.95530 5.50 89.585710 110.0
12.92 12.942210 5.50 89.057140 107.50
12.91 12.929120 5.50 88.528570 105.0
12.90 12.920090 5.50 88.0 102.50
12.89 12.911060 5.51250 88.5250 100.0
12.88 12.902030 5.5250 89.050 105.0
12.87 12.89330 5.53750 89.5750 110.0
12.86 12.884570 5.550 90.10 115.0
12.85 12.875850 5.56250 90.6250 120.0
12.84 12.862750 5.5750 91.150 125.0
12.83 12.849660 5.58750 91.6750 130.0
12.82 12.840930 5.60 92.20 135.0
12.81 12.83220 5.58750 92.150 140.0
12.80 12.823480 5.5750 92.10 142.50
12.79 12.810380 5.56250 92.050 145.0
12.78 12.797290 5.550 92.0 147.50
12.77 12.788560 5.53750 91.950 150.0
12.76 12.779830 5.5250 91.90 152.50
12.75 12.771110 5.51250 91.850 155.0
12.74 12.762380 5.50 91.80 157.50
12.73 12.753650 5.50 91.650 160.0
12.72 12.744920 5.50 91.50 155.0
12.71 12.731380 5.50 91.350 150.0
12.70 12.717830 5.50 91.20 145.0
12.69 12.70910 5.50 91.050 140.0
12.68 12.700380 5.50 90.90 135.0
12.67 12.691650 5.50 90.750 130.0
12.66 12.682920 5.50 90.60 125.0
12.65 12.674190 5.450 90.3750 120.0
12.64 12.665460 5.40 90.150 120.833330
12.63 12.652370 5.350 89.9250 121.666670
12.62 12.639280 5.30 89.70 122.50
12.61 12.630550 5.250 89.4750 123.333330
12.60 12.621820 5.20 89.250 124.166670
12.59 12.613090 5.150 89.0250 125.0
12.58 12.60 5.10 88.80 125.833330
12.57 12.586910 5.093750 88.881250 126.666670
12.56 12.578480 5.08750 88.96250 129.047620
12.55 12.570050 5.081250 89.043750 131.428570
12.54 12.561630 5.0750 89.1250 133.809520
12.53 12.548530 5.068750 89.206250 136.190480
12.52 12.535440 5.06250 89.28750 138.571430
12.51 12.527010 5.056250 89.368750 140.952380
12.50 12.518590 5.050 89.450 143.333330
12.49 12.510160 5.043750 89.531250 135.416670
12.48 12.501430 5.03750 89.61250 127.50
12.47 12.49270 5.031250 89.693750 119.583330
12.46 12.483970 5.0250 89.7750 111.666670
12.45 12.470880 5.018750 89.856250 103.750
12.44 12.457790 5.01250 89.93750 95.833330
12.43 12.449360 5.006250 90.018750 87.916670
12.42 12.440930 5.0 90.10 80.0
12.41 12.432510 5.050 90.8250 87.338710
12.40 12.419410 5.10 91.550 94.677420
12.39 12.406320 5.150 92.2750 102.016130
12.38 12.397890 5.20 93.0 109.354840
12.37 12.389470 5.250 93.7250 116.693550
12.36 12.381040 5.30 94.450 124.032260
12.35 12.372310 5.350 95.1750 131.370970
12.34 12.363580 5.40 95.90 138.709680
12.33 12.354850 5.328570 95.0 137.20430
12.32 12.342210 5.257140 94.10 135.698920
12.31 12.329570 5.185710 93.20 134.193550
12.30 12.320840 5.114290 92.30 132.688170
12.29 12.312110 5.042860 91.40 131.18280
12.28 12.303390 4.971430 90.50 129.677420
12.27 12.290740 4.90 89.60 128.172040
12.26 12.27810 4.9250 89.73750 126.666670
12.25 12.269380 4.950 89.8750 127.142860
12.24 12.260650 4.9750 90.01250 127.619050
12.23 12.251920 5.0 90.150 128.095240
12.22 12.239280 5.0250 90.28750 128.571430
12.21 12.226640 5.050 90.4250 129.047620
12.20 12.217910 5.0750 90.56250 129.523810
12.19 12.209180 5.10 90.70 130.0
12.18 12.200450 5.10 91.08750 130.0
12.17 12.192020 5.10 91.4750 130.0
12.16 12.18360 5.10 91.86250 130.0
12.15 12.175170 5.10 92.250 130.0
12.14 12.162080 5.10 92.63750 130.0
12.13 12.148980 5.10 93.0250 130.0
12.12 12.140260 5.10 93.41250 130.0
12.11 12.131530 5.10 93.80 130.0
12.10 12.12280 5.1250 93.41250 131.666670
12.09 12.110160 5.150 93.0250 133.333330
12.08 12.097520 5.1750 92.63750 135.0
12.07 12.088790 5.20 92.250 136.666670
12.06 12.080060 5.2250 91.86250 138.333330
12.05 12.071330 5.250 91.4750 140.0
12.04 12.06260 5.2750 91.08750 141.666670
12.03 12.053880 5.30 90.70 143.333330
12.02 12.045150 5.242860 91.20 140.416670
12.01 12.032050 5.185710 91.70 137.50
12.00 12.018960 5.128570 92.20 134.583330
11.99 12.010230 5.071430 92.70 131.666670
11.98 12.00150 5.014290 93.20 128.750
