~VERSION INFORMATION SECTION
VERS. 2.0 : CWLS LAS-VERSION 2.0
WRAP. NO : One line per depth step
~WELL INFORMATION SECTION
# MNEM.UNIT VALUE/NAME DESCRIPTION
#-------- -------------- ---------------------
STRT.Metres 16 : Start
STOP.Metres 0.42 : Stop
STEP.Metres -0.01 : Step
NULL.  -999.25 :NULL VALUE
DATE. 2025-22-11 : DATE
~CURVE INFORMATION SECTION
DEPTH.Metres : 0 Depth
Depth. : 1 Depth
Incline.Deg : 2 Incline
Azimuth.Deg : 3 Azimuth
GR.CPS : 4 GR
~PARAMETER INFORMATION SECTION
~OTHER
#-------------------------------------------------
#Produced By: GeoVista Logger - Version 7.1.107.0
Natural Gamma Sonde - 6447
Verticality Sonde - 6292
#-------------------------------------------------
~ASCII LOG DATA
# ...
1.50 1.522050 2.1750 72.0750 160.833330
1.49 1.513320 2.18750 72.73750 157.083330
1.48 1.500230 2.20 73.40 153.333330
1.47 1.487130 2.23750 73.16250 153.333330
1.46 1.47810 2.2750 72.9250 153.333330
1.45 1.469070 2.31250 72.68750 153.333330
1.44 1.460050 2.350 72.450 153.333330
1.43 1.451320 2.38750 72.21250 153.333330
1.42 1.442590 2.4250 71.9750 153.333330
1.41 1.433860 2.46250 71.73750 153.333330
1.40 1.420770 2.50 71.50 165.984850
1.39 1.407670 2.43750 71.2250 178.636360
1.38 1.398650 2.3750 70.950 191.287880
1.37 1.389620 2.31250 70.6750 203.939390
1.36 1.380590 2.250 70.40 216.590910
1.35 1.371860 2.18750 70.1250 229.242420
1.34 1.363130 2.1250 69.850 241.893940
1.33 1.35440 2.06250 69.5750 254.545450
1.32 1.341310 2.0 69.30 238.516750
1.31 1.328220 2.03750 68.98750 222.488040
1.30 1.307450 2.0750 68.6750 206.459330
1.29 -999.25 2.11250 68.36250 190.430620
1.28 -999.25 2.150 68.050 174.401910
1.27 -999.25 2.18750 67.73750 158.373210
1.26 -999.25 2.2250 67.4250 142.34450
1.25 -999.25 2.26250 67.11250 126.315790
1.24 -999.25 2.30 66.80 129.276320
1.23 -999.25 2.285710 66.0 132.236840
1.22 -999.25 2.271430 65.20 135.197370
1.21 -999.25 2.257140 64.40 138.157890
1.20 -999.25 2.242860 63.60 141.118420
1.19 -999.25 2.228570 62.80 144.078950
1.18 -999.25 2.214290 62.0 147.039470
1.17 -999.25 2.20 61.20 150.0
1.16 -999.25 2.16250 62.58750 152.916670
1.15 -999.25 2.1250 63.9750 155.833330
1.14 -999.25 2.08750 65.36250 158.750
1.13 -999.25 2.050 66.750 161.666670
1.12 -999.25 2.01250 68.13750 164.583330
1.11 -999.25 1.9750 69.5250 167.50
1.10 -999.25 1.93750 70.91250 170.416670
1.09 -999.25 1.90 72.30 173.333330
1.08 -999.25 1.9750 71.91250 168.333330
1.07 -999.25 2.050 71.5250 163.333330
1.06 -999.25 2.1250 71.13750 158.333330
1.05 -999.25 2.20 70.750 153.333330
1.04 -999.25 2.2750 70.36250 148.333330
1.03 -999.25 2.350 69.9750 143.333330
1.02 -999.25 2.4250 69.58750 138.333330
1.01 -999.25 2.50 69.20 133.333330
1.00 -999.25 2.0 63.30 135.0
0.99 -999.25 -999.25 -999.25 136.666670
0.98 -999.25 -999.25 -999.25 138.333330
0.97 -999.25 -999.25 -999.25 140.0
0.96 -999.25 -999.25 -999.25 141.666670
0.95 -999.25 -999.25 -999.25 143.333330
0.94 -999.25 -999.25 -999.25 145.0
0.93 -999.25 -999.25 -999.25 146.666670
0.92 -999.25 -999.25 -999.25 149.166670
0.91 -999.25 -999.25 -999.25 151.666670
0.90 -999.25 -999.25 -999.25 154.166670
0.89 -999.25 -999.25 -999.25 156.666670
0.88 -999.25 -999.25 -999.25 159.166670
0.87 -999.25 -999.25 -999.25 161.666670
0.86 -999.25 -999.25 -999.25 164.166670
0.85 -999.25 -999.25 -999.25 166.666670
0.84 -999.25 -999.25 -999.25 164.583330
0.83 -999.25 -999.25 -999.25 162.50
0.82 -999.25 -999.25 -999.25 160.416670
0.81 -999.25 -999.25 -999.25 158.333330
0.80 -999.25 -999.25 -999.25 156.250
0.79 -999.25 -999.25 -999.25 154.166670
0.78 -999.25 -999.25 -999.25 152.083330
0.77 -999.25 -999.25 -999.25 150.0
0.76 -999.25 -999.25 -999.25 156.250
0.75 -999.25 -999.25 -999.25 162.50
0.74 -999.25 -999.25 -999.25 168.750
0.73 -999.25 -999.25 -999.25 175.0
0.72 -999.25 -999.25 -999.25 181.250
0.71 -999.25 -999.25 -999.25 187.50
0.70 -999.25 -999.25 -999.25 193.750
0.69 -999.25 -999.25 -999.25 200.0
0.68 -999.25 -999.25 -999.25 196.250
0.67 -999.25 -999.25 -999.25 192.50
0.66 -999.25 -999.25 -999.25 188.750
0.65 -999.25 -999.25 -999.25 185.0
0.64 -999.25 -999.25 -999.25 181.250
0.63 -999.25 -999.25 -999.25 177.50
0.62 -999.25 -999.25 -999.25 173.750
0.61 -999.25 -999.25 -999.25 170.0
0.60 -999.25 -999.25 -999.25 169.314520
0.59 -999.25 -999.25 -999.25 168.629030
0.58 -999.25 -999.25 -999.25 167.943550
0.57 -999.25 -999.25 -999.25 167.258060
0.56 -999.25 -999.25 -999.25 166.572580
0.55 -999.25 -999.25 -999.25 165.88710
0.54 -999.25 -999.25 -999.25 165.201610
0.53 -999.25 -999.25 -999.25 164.516130
0.52 -999.25 -999.25 -999.25 166.451610
0.51 -999.25 -999.25 -999.25 168.38710
0.50 -999.25 -999.25 -999.25 170.322580
0.49 -999.25 -999.25 -999.25 172.258060
0.48 -999.25 -999.25 -999.25 174.193550
0.47 -999.25 -999.25 -999.25 176.129030
0.46 -999.25 -999.25 -999.25 178.064520
0.45 -999.25 -999.25 -999.25 180.0
0.44 -999.25 -999.25 -999.25 176.666670
0.43 -999.25 -999.25 -999.25 173.333330
0.42 -999.25 -999.25 -999.25 170.0
