~VERSION INFORMATION SECTION
VERS. 2.0 : CWLS LAS-VERSION 2.0
WRAP. NO : One line per depth step
~WELL INFORMATION SECTION
# MNEM.UNIT VALUE/NAME DESCRIPTION
#-------- -------------- ---------------------
STRT.Metres 16 : Start
STOP.Metres 0.47 : Stop
STEP.Metres -0.01 : Step
NULL.  -999.25 :NULL VALUE
DATE. 2025-18-11 : DATE
~CURVE INFORMATION SECTION
DEPTH.Metres : 0 Depth
Depth. : 1 Depth
Incline.Deg : 2 Incline
Azimuth.Deg : 3 Azimuth
GR.CPS : 4 GR
~PARAMETER INFORMATION SECTION
~OTHER
#-------------------------------------------------
#Produced By: GeoVista Logger - Version 7.1.107.0
Natural Gamma Sonde - 6447
Verticality Sonde - 6292
#-------------------------------------------------
~ASCII LOG DATA
# ...
13.86 13.874490 5.840 93.760 146.666670
13.85 13.858240 5.860 93.440 144.666670
13.84 13.849660 5.880 93.120 142.666670
13.83 13.841080 5.90 92.80 140.666670
13.82 13.832960 5.880 92.940 138.666670
13.81 13.824830 5.860 93.080 136.666670
13.80 13.808580 5.840 93.220 142.666670
13.79 13.80 5.820 93.360 148.666670
13.78 13.791420 5.80 93.50 154.666670
13.77 13.78330 5.820 93.420 160.666670
13.76 13.775170 5.840 93.340 166.666670
13.75 13.758920 5.860 93.260 158.666670
13.74 13.750790 5.880 93.180 150.666670
13.73 13.742660 5.90 93.10 142.666670
13.72 13.726410 5.90 93.040 134.666670
13.71 13.718280 5.90 92.980 126.666670
13.70 13.710160 5.90 92.920 130.0
13.69 13.701580 5.90 92.860 133.333330
13.68 13.6930 5.90 92.80 136.666670
13.67 13.676750 5.883330 92.683330 140.0
13.66 13.668620 5.866670 92.566670 143.333330
13.65 13.66050 5.850 92.450 146.666670
13.64 13.651920 5.833330 92.333330 141.20430
13.63 13.643340 5.816670 92.216670 135.741940
13.62 13.627090 5.80 92.10 130.279570
13.61 13.618960 5.80 92.30 124.81720
13.60 13.610840 5.80 92.50 119.354840
13.59 13.602710 5.80 92.70 116.18280
13.58 13.594580 5.80 92.90 113.010750
13.57 13.578330 5.780 92.660 109.838710
13.56 13.57020 5.760 92.420 106.666670
13.55 13.562080 5.740 92.180 107.333330
13.54 13.55350 5.720 91.940 108.0
13.53 13.544920 5.70 91.70 108.666670
13.52 13.527770 5.70 92.040 109.333330
13.51 13.519190 5.70 92.380 110.0
13.50 13.510610 5.70 92.720 116.666670
13.49 13.502480 5.70 93.060 123.333330
13.48 13.494360 5.70 93.40 130.0
13.47 13.47720 5.70 93.60 136.666670
13.46 13.469070 5.70 93.80 143.333330
13.45 13.460950 5.70 94.0 143.333330
13.44 13.453270 5.70 94.20 143.333330
13.43 13.44560 5.70 94.40 143.333330
13.42 13.429350 5.70 94.060 143.333330
13.41 13.421220 5.70 93.720 143.333330
13.40 13.413090 5.70 93.380 148.666670
13.39 13.396840 5.70 93.040 154.0
13.38 13.388710 5.70 92.70 159.333330
13.37 13.380590 5.70 92.70 164.666670
13.36 13.372460 5.70 92.70 170.0
13.35 13.364330 5.70 92.70 172.666670
13.34 13.348080 5.70 92.70 175.333330
13.33 13.339950 5.70 92.70 178.0
13.32 13.331830 5.70 92.720 180.666670
13.31 13.32370 5.70 92.740 183.333330
13.30 13.315580 5.70 92.760 163.03030
13.29 13.299320 5.70 92.780 142.727270
13.28 13.29120 5.70 92.80 122.424240
13.27 13.283070 5.70 92.820 102.121210
13.26 13.266820 5.70 92.840 81.818180
13.25 13.258690 5.70 92.860 92.822970
13.24 13.250560 5.70 92.880 103.827750
13.23 13.242890 5.70 92.90 114.832540
13.22 13.235210 5.680 92.480 125.837320
13.21 13.218960 5.660 92.060 136.842110
13.20 13.210840 5.640 91.640 128.140350
13.19 13.202710 5.620 91.220 119.43860
13.18 13.186460 5.60 90.80 110.736840
13.17 13.178330 5.580 90.540 102.035090
13.16 13.17020 5.560 90.280 93.333330
13.15 13.162080 5.540 90.020 98.666670
13.14 13.153950 5.520 89.760 104.0
13.13 13.13770 5.50 89.50 109.333330
13.12 13.129120 5.5250 89.3750 114.666670
13.11 13.120540 5.550 89.250 120.0
13.10 13.112420 5.5750 89.1250 122.666670
13.09 13.104290 5.60 89.0 125.333330
13.08 13.088040 5.60 89.640 128.0
13.07 13.079910 5.60 90.280 130.666670
13.06 13.071780 5.60 90.920 133.333330
13.05 13.063660 5.60 91.560 137.50
13.04 13.055530 5.60 92.20 141.666670
13.03 13.039280 5.580 92.720 145.833330
13.02 13.031150 5.560 93.240 150.0
13.01 13.023020 5.540 93.760 154.666670
13.00 13.01490 5.520 94.280 159.333330
12.99 13.006770 5.50 94.80 164.0
12.98 12.989620 5.520 93.70 168.666670
12.97 12.981490 5.540 92.60 173.333330
12.96 12.973360 5.560 91.50 157.333330
12.95 12.965240 5.580 90.40 141.333330
12.94 12.957110 5.60 89.30 125.333330
12.93 12.939950 5.620 89.860 109.333330
12.92 12.931830 5.640 90.420 93.333330
12.91 12.92370 5.660 90.980 98.0
12.90 12.907450 5.680 91.540 102.666670
12.89 12.898870 5.70 92.10 107.333330
12.88 12.890290 5.70 92.320 112.0
12.87 12.882170 5.70 92.540 116.666670
12.86 12.874040 5.70 92.760 116.666670
12.85 12.857790 5.70 92.980 116.666670
12.84 12.849660 5.70 93.20 116.666670
12.83 12.841530 5.680 93.280 116.666670
12.82 12.833410 5.660 93.360 116.666670
12.81 12.825280 5.640 93.440 124.666670
12.80 12.808130 5.620 93.520 132.666670
12.79 12.80 5.60 93.60 140.666670
12.78 12.791870 5.560 92.860 148.666670
12.77 12.783750 5.520 92.120 156.666670
12.76 12.775620 5.480 91.380 149.333330
12.75 12.758470 5.440 90.640 142.0
12.74 12.750340 5.40 89.90 134.666670
12.73 12.742210 5.40 89.90 127.333330
12.72 12.733630 5.40 89.90 120.0
12.71 12.725060 5.40 89.90 119.225810
12.70 12.70880 5.40 89.90 118.451610
12.69 12.700230 5.40 89.90 117.677420
12.68 12.691650 5.40 90.40 116.903230
12.67 12.683520 5.40 90.90 116.129030
12.66 12.67540 5.40 91.40 126.903230
12.65 12.659140 5.40 91.90 137.677420
12.64 12.651020 5.360 91.620 148.451610
12.63 12.642890 5.320 91.340 159.225810
12.62 12.634310 5.280 91.060 170.0
12.61 12.625730 5.240 90.780 156.0
12.60 12.609480 5.20 90.50 142.0
12.59 12.601350 5.260 90.920 128.0
12.58 12.593230 5.320 91.340 114.0
12.57 12.576980 5.380 91.760 100.0
12.56 12.568850 5.440 92.180 108.0
12.55 12.560720 5.50 92.60 116.0
12.54 12.55260 5.50 92.920 124.0
12.53 12.544470 5.50 93.240 132.0
12.52 12.528220 5.50 93.560 140.0
12.51 12.520090 5.50 93.880 139.333330
12.50 12.511960 5.50 94.20 138.666670
12.49 12.503840 5.480 93.80 138.0
12.48 12.495710 5.460 93.40 137.333330
12.47 12.479460 5.440 93.0 136.666670
12.46 12.471330 5.420 92.60 128.0
12.45 12.463210 5.40 92.20 119.333330
12.44 12.447860 5.40 92.380 110.666670
12.43 12.439280 5.40 92.560 102.0
12.42 12.43070 5.40 92.740 93.333330
12.41 12.422570 5.40 92.920 110.0
12.40 12.414450 5.40 93.10 126.666670
12.39 12.398190 5.240 91.980 143.333330
12.38 12.390070 5.080 90.860 160.0
12.37 12.381940 4.920 89.740 154.666670
12.36 12.373810 4.760 88.620 149.333330
12.35 12.365690 4.60 87.50 144.0
12.34 12.349440 4.70 88.0 138.666670
12.33 12.341310 4.80 88.50 133.333330
12.32 12.333180 4.90 89.0 132.0
12.31 12.317830 5.0 89.50 130.666670
12.30 12.309710 5.10 90.0 129.333330
12.29 12.301580 5.140 90.480 128.0
12.28 12.293450 5.180 90.960 126.666670
12.27 12.285330 5.220 91.440 125.333330
12.26 12.269070 5.260 91.920 124.0
12.25 12.260950 5.30 92.40 122.666670
12.24 12.252820 5.30 92.630 121.333330
12.23 12.236570 5.30 92.860 120.0
12.22 12.228440 5.30 93.090 127.333330
12.21 12.220320 5.30 93.320 134.666670
12.20 12.212190 5.30 93.550 142.0
12.19 12.204060 5.30 93.780 149.333330
12.18 12.187810 5.30 94.010 156.666670
12.17 12.179680 5.30 94.240 152.666670
12.16 12.171560 5.30 94.470 148.666670
12.15 12.163430 5.30 94.70 144.666670
12.14 12.15530 5.30 95.340 140.666670
12.13 12.139050 5.30 95.980 136.666670
12.12 12.130930 5.30 96.620 136.666670
12.11 12.12280 5.30 97.260 136.666670
12.10 12.106550 5.30 97.90 136.666670
12.09 12.098420 5.30 97.120 136.666670
12.08 12.090290 5.30 96.340 136.666670
12.07 12.082170 5.30 95.560 134.666670
12.06 12.074040 5.30 94.780 132.666670
12.05 12.057790 5.30 94.0 130.666670
12.04 12.049210 5.2750 94.20 128.666670
12.03 12.040630 5.250 94.40 126.666670
12.02 12.032510 5.2250 94.60 127.333330
12.01 12.024380 5.20 94.80 128.0
12.00 12.008130 5.20 95.10 128.666670
11.99 12.0 5.20 95.40 129.333330
11.98 11.991870 5.20 95.70 130.0
11.97 11.98330 5.20 96.0 127.333330
11.96 11.974720 5.20 96.30 124.666670
11.95 11.958470 5.180 96.060 122.0
11.94 11.950340 5.160 95.820 119.333330
11.93 11.942210 5.140 95.580 116.666670
11.92 11.934090 5.120 95.340 120.666670
11.91 11.925960 5.10 95.10 124.666670
11.90 11.909710 5.120 94.820 128.666670
11.89 11.901130 5.140 94.540 132.666670
11.88 11.892550 5.160 94.260 136.666670
11.87 11.87630 5.180 93.980 135.333330
11.86 11.868170 5.20 93.70 134.0
11.85 11.860050 5.20 94.260 132.666670
11.84 11.851470 5.20 94.820 131.333330
11.83 11.842890 5.20 95.380 130.0
11.82 11.826640 5.20 95.940 124.0
11.81 11.818510 5.20 96.50 118.0
11.80 11.810380 5.160 96.060 112.0
11.79 11.801810 5.120 95.620 106.0
11.78 11.793230 5.080 95.180 100.0
11.77 11.776980 5.040 94.740 109.677420
11.76 11.768850 5.0 94.30 119.354840
11.75 11.760720 5.040 93.840 129.032260
