~VERSION INFORMATION SECTION
VERS. 2.0 : CWLS LAS-VERSION 2.0
WRAP. NO : One line per depth step
~WELL INFORMATION SECTION
# MNEM.UNIT VALUE/NAME DESCRIPTION
#-------- -------------- ---------------------
STRT.Metres 16 : Start
STOP.Metres 0.47 : Stop
STEP.Metres -0.01 : Step
NULL.  -999.25 :NULL VALUE
DATE. 2025-18-11 : DATE
~CURVE INFORMATION SECTION
DEPTH.Metres : 0 Depth
Depth. : 1 Depth
Incline.Deg : 2 Incline
Azimuth.Deg : 3 Azimuth
GR.CPS : 4 GR
~PARAMETER INFORMATION SECTION
~OTHER
#-------------------------------------------------
#Produced By: GeoVista Logger - Version 7.1.107.0
Natural Gamma Sonde - 6447
Verticality Sonde - 6292
#-------------------------------------------------
~ASCII LOG DATA
# ...
2.84 2.845150 2.51250 83.8750 100.0
2.83 2.837920 2.50 84.0 117.105260
2.82 2.83070 2.550 85.450 134.210530
2.81 2.817160 2.60 86.90 151.315790
2.80 2.809930 2.650 88.350 168.421050
2.79 2.802710 2.70 89.80 171.315790
2.78 2.788260 2.6750 88.350 174.210530
2.77 2.774720 2.650 86.90 177.105260
2.76 2.767490 2.6250 85.450 180.0
2.75 2.760270 2.60 84.0 174.0
2.74 2.745820 2.60 83.80 168.0
2.73 2.73860 2.60 83.60 162.0
2.72 2.731380 2.60 83.40 156.0
2.71 2.716930 2.60 83.20 150.0
2.70 2.709710 2.60 83.0 156.666670
2.69 2.702480 2.5750 81.30 163.333330
2.68 2.688040 2.550 79.60 170.0
2.67 2.674490 2.5250 77.90 176.666670
2.66 2.668170 2.50 76.20 180.0
2.65 2.661850 2.4250 79.2250 183.333330
2.64 2.648310 2.350 82.250 186.666670
2.63 2.634760 2.2750 85.2750 190.0
2.62 2.627540 2.20 88.30 183.750
2.61 2.620320 2.250 86.9250 177.50
2.60 2.606770 2.30 85.550 171.250
2.59 2.60 2.350 84.1750 165.0
2.58 2.593230 2.40 82.80 156.250
2.57 2.579680 2.450 81.750 147.50
2.56 2.565240 2.50 80.70 138.750
2.55 2.558470 2.550 79.650 130.0
2.54 2.551690 2.60 78.60 145.0
2.53 2.538150 2.580 78.860 160.0
2.52 2.52370 2.560 79.120 175.0
2.51 2.516930 2.540 79.380 190.0
2.50 2.510160 2.520 79.640 195.0
2.49 2.495710 2.50 79.90 200.0
2.48 2.488940 2.50 79.8250 205.0
2.47 2.482170 2.50 79.750 210.0
2.46 2.468620 2.50 79.6750 203.333330
2.45 2.455080 2.50 79.60 196.666670
2.44 2.447860 2.50 79.7250 190.0
2.43 2.440630 2.50 79.850 183.333330
2.42 2.427090 2.50 79.9750 186.666670
2.41 2.413540 2.50 80.10 190.0
2.40 2.407220 2.5250 79.9750 193.333330
2.39 2.40090 2.550 79.850 196.666670
2.38 2.387360 2.5750 79.7250 190.833330
2.37 2.373810 2.60 79.60 185.0
2.36 2.367040 2.550 80.40 179.166670
2.35 2.360270 2.50 81.20 173.333330
2.34 2.346730 2.450 82.0 178.0
2.33 2.339950 2.40 82.80 182.666670
2.32 2.333180 2.420 81.90 187.333330
2.31 2.319640 2.440 81.0 192.0
2.30 2.306090 2.460 80.10 196.666670
2.29 2.298870 2.480 79.20 193.333330
2.28 2.291650 2.50 78.30 190.0
2.27 2.27810 2.50 79.3250 186.666670
2.26 2.264560 2.50 80.350 183.333330
2.25 2.257790 2.50 81.3750 194.318180
2.24 2.251020 2.50 82.40 205.303030
2.23 2.237470 2.50 81.7250 216.287880
2.22 2.230250 2.50 81.050 227.272730
2.21 2.223020 2.50 80.3750 194.138760
2.20 2.209480 2.50 79.70 161.004780
2.19 2.195940 2.4750 79.5250 127.870810
2.18 2.188710 2.450 79.350 94.736840
2.17 2.181490 2.4250 79.1750 125.21930
2.16 2.167950 2.40 79.0 155.701750
2.15 2.15440 2.4250 78.550 186.184210
2.14 2.147630 2.450 78.10 216.666670
2.13 2.140860 2.4750 77.650 195.833330
2.12 2.126410 2.50 77.20 175.0
2.11 2.119190 2.50 77.7750 154.166670
2.10 2.111960 2.50 78.350 133.333330
2.09 2.098420 2.50 78.9250 140.0
2.08 2.084880 2.50 79.50 146.666670
2.07 2.077650 2.50 79.1750 153.333330
2.06 2.070430 2.50 78.850 160.0
2.05 2.056880 2.50 78.5250 166.666670
2.04 2.050110 2.50 78.20 170.833330
2.03 2.043340 2.50 77.9250 175.0
2.02 2.028890 2.50 77.650 179.166670
2.01 2.015350 2.50 77.3750 183.333330
2.00 2.008580 2.50 77.10 182.50
1.99 2.001810 2.50 77.4250 181.666670
1.98 1.987360 2.50 77.750 180.833330
1.97 1.980590 2.50 78.0750 180.0
1.96 1.973810 2.50 78.40 183.333330
1.95 1.959370 2.480 78.360 186.666670
1.94 1.945820 2.460 78.320 190.0
1.93 1.93860 2.440 78.280 193.333330
1.92 1.931380 2.420 78.240 190.833330
1.91 1.917830 2.40 78.20 188.333330
1.90 1.910610 2.4250 79.1250 185.833330
1.89 1.903390 2.450 80.050 183.333330
1.88 1.889840 2.4750 80.9750 189.333330
1.87 1.87540 2.50 81.90 195.333330
1.86 1.868620 2.550 80.8750 201.333330
1.85 1.861850 2.60 79.850 207.333330
1.84 1.848310 2.650 78.8250 213.333330
1.83 1.833860 2.70 77.80 210.0
1.82 1.827090 2.650 77.5750 206.666670
1.81 1.820320 2.60 77.350 203.333330
1.80 1.805870 2.550 77.1250 200.0
1.79 1.79910 2.50 76.90 191.666670
1.78 1.792330 2.50 76.1250 183.333330
1.77 1.778780 2.50 75.350 175.0
1.76 1.764330 2.50 74.5750 166.666670
1.75 1.757560 2.50 73.80 163.333330
1.74 1.750790 2.450 74.5750 160.0
1.73 1.737250 2.40 75.350 156.666670
1.72 1.730020 2.350 76.1250 153.333330
1.71 1.72280 2.30 76.90 155.833330
1.70 1.709260 2.320 75.860 158.333330
1.69 1.695710 2.340 74.820 160.833330
1.68 1.688940 2.360 73.780 163.333330
1.67 1.682170 2.380 72.740 155.833330
1.66 1.667720 2.40 71.70 148.333330
1.65 1.660950 2.3750 72.2750 140.833330
1.64 1.654180 2.350 72.850 133.333330
1.63 1.639730 2.3250 73.4250 128.666670
1.62 1.626190 2.30 74.0 124.0
1.61 1.619410 2.3250 72.550 119.333330
1.60 1.612640 2.350 71.10 114.666670
1.59 1.598190 2.3750 69.650 110.0
1.58 1.584650 2.40 68.20 125.833330
1.57 1.577880 2.40 68.6750 141.666670
1.56 1.571110 2.40 69.150 157.50
1.55 1.556660 2.40 69.6250 173.333330
1.54 1.549890 2.40 70.10 182.50
1.53 1.543120 2.350 69.56250 191.666670
1.52 1.529570 2.30 69.0250 200.833330
1.51 1.515120 2.250 68.48750 210.0
1.50 1.508350 2.20 67.950 208.333330
1.49 1.501580 2.150 67.41250 206.666670
1.48 1.488040 2.10 66.8750 205.0
1.47 1.474490 2.050 66.33750 203.333330
1.46 1.467270 2.0 65.80 196.666670
1.45 1.460050 2.022220 65.277780 190.0
1.44 1.44650 2.044440 64.755560 183.333330
1.43 1.439730 2.066670 64.233330 176.666670
1.42 1.432960 2.088890 63.711110 178.333330
1.41 1.418510 2.111110 63.188890 180.0
1.40 1.404970 2.133330 62.666670 181.666670
1.39 1.391420 2.155560 62.144440 183.333330
1.38 1.381490 2.177780 61.622220 177.50
1.37 1.373360 2.20 61.10 171.666670
1.36 1.364330 2.1750 60.5750 165.833330
1.35 1.354180 2.150 60.050 160.0
1.34 -999.25 2.1250 59.5250 157.50
1.33 -999.25 2.10 59.0 155.0
1.32 -999.25 2.1250 62.1250 152.50
1.31 -999.25 2.150 65.250 150.0
1.30 -999.25 2.1750 68.3750 155.0
1.29 -999.25 2.20 71.50 160.0
1.28 -999.25 2.20 69.6250 165.0
1.27 -999.25 2.20 67.750 170.0
1.26 -999.25 2.20 65.8750 165.333330
1.25 -999.25 2.20 64.0 160.666670
1.24 -999.25 2.20 62.1250 156.0
1.23 -999.25 2.20 60.250 151.333330
1.22 -999.25 2.20 58.3750 146.666670
1.21 -999.25 2.20 56.50 152.50
1.20 -999.25 2.150 55.550 158.333330
1.19 -999.25 2.10 54.60 164.166670
1.18 -999.25 2.050 53.650 170.0
1.17 -999.25 2.0 52.70 173.333330
1.16 -999.25 1.980 55.660 176.666670
1.15 -999.25 1.960 58.620 180.0
1.14 -999.25 1.940 61.580 183.333330
1.13 -999.25 1.920 64.540 180.833330
1.12 -999.25 1.90 67.50 178.333330
1.11 -999.25 2.10 70.60 175.833330
1.10 -999.25 2.30 73.70 173.333330
1.09 -999.25 2.50 76.80 175.833330
1.08 -999.25 2.50 71.550 178.333330
1.07 -999.25 2.50 66.30 180.833330
1.06 -999.25 1.80 71.30 183.333330
1.05 -999.25 1.80 70.0 173.790320
1.04 -999.25 -999.25 -999.25 164.247310
1.03 -999.25 -999.25 -999.25 154.70430
1.02 -999.25 -999.25 -999.25 145.161290
1.01 -999.25 -999.25 -999.25 147.462370
1.00 -999.25 -999.25 -999.25 149.763440
0.99 -999.25 -999.25 -999.25 152.064520
0.98 -999.25 -999.25 -999.25 154.365590
0.97 -999.25 -999.25 -999.25 156.666670
0.96 -999.25 -999.25 -999.25 157.50
0.95 -999.25 -999.25 -999.25 158.333330
0.94 -999.25 -999.25 -999.25 159.166670
0.93 -999.25 -999.25 -999.25 160.0
0.92 -999.25 -999.25 -999.25 173.750
0.91 -999.25 -999.25 -999.25 187.50
0.90 -999.25 -999.25 -999.25 201.250
0.89 -999.25 -999.25 -999.25 215.0
0.88 -999.25 -999.25 -999.25 213.750
0.87 -999.25 -999.25 -999.25 212.50
0.86 -999.25 -999.25 -999.25 211.250
0.85 -999.25 -999.25 -999.25 210.0
0.84 -999.25 -999.25 -999.25 201.250
0.83 -999.25 -999.25 -999.25 192.50
0.82 -999.25 -999.25 -999.25 183.750
0.81 -999.25 -999.25 -999.25 175.0
0.80 -999.25 -999.25 -999.25 176.704550
0.79 -999.25 -999.25 -999.25 178.409090
0.78 -999.25 -999.25 -999.25 180.113640
0.77 -999.25 -999.25 -999.25 181.818180
0.76 -999.25 -999.25 -999.25 180.191390
0.75 -999.25 -999.25 -999.25 178.564590
0.74 -999.25 -999.25 -999.25 176.93780
0.73 -999.25 -999.25 -999.25 175.3110
0.72 -999.25 -999.25 -999.25 173.684210
0.71 -999.25 -999.25 -999.25 171.929820
0.70 -999.25 -999.25 -999.25 170.175440
0.69 -999.25 -999.25 -999.25 168.421050
0.68 -999.25 -999.25 -999.25 166.666670
0.67 -999.25 -999.25 -999.25 175.833330
0.66 -999.25 -999.25 -999.25 185.0
0.65 -999.25 -999.25 -999.25 194.166670
0.64 -999.25 -999.25 -999.25 203.333330
