~VERSION INFORMATION SECTION
VERS. 2.0 : CWLS LAS-VERSION 2.0
WRAP. NO : One line per depth step
~WELL INFORMATION SECTION
# MNEM.UNIT VALUE/NAME DESCRIPTION
#-------- -------------- ---------------------
STRT.Metres 17 : Start
STOP.Metres 0.39 : Stop
STEP.Metres -0.01 : Step
NULL.  -999.25 :NULL VALUE
DATE. 2025-14-11 : DATE
~CURVE INFORMATION SECTION
DEPTH.Metres : 0 Depth
Depth. : 1 Depth
Incline.Deg : 2 Incline
Azimuth.Deg : 3 Azimuth
GR.CPS : 4 GR
~PARAMETER INFORMATION SECTION
~OTHER
#-------------------------------------------------
#Produced By: GeoVista Logger - Version 7.1.107.0
Natural Gamma Sonde - 6447
Verticality Sonde - 6292
#-------------------------------------------------
~ASCII LOG DATA
17.00 -999.25 -999.25 -999.25 -999.25
16.99 16.993230 -999.25 -999.25 -999.25
16.98 16.98510 -999.25 -999.25 -999.25
16.97 16.976070 -999.25 -999.25 -999.25
16.96 16.967950 -999.25 -999.25 -999.25
16.95 16.958920 -999.25 -999.25 -999.25
16.94 16.945370 -999.25 -999.25 -999.25
16.93 16.930930 -999.25 -999.25 -999.25
16.92 16.92190 -999.25 -999.25 -999.25
16.91 16.911960 -999.25 -999.25 -999.25
16.90 16.902030 -999.25 -999.25 -999.25
16.89 16.89210 -999.25 -999.25 -999.25
16.88 16.882170 -999.25 -999.25 -999.25
16.87 16.873140 -999.25 -999.25 -999.25
16.86 16.863210 7.60 87.198670 -999.25
16.85 16.853270 7.60 87.20 -999.25
16.84 16.843340 7.60 87.350 -999.25
16.83 16.833410 7.60 87.50 -999.25
16.82 16.823480 7.60 87.350 -999.25
16.81 16.813540 7.60 87.20 -999.25
16.80 16.803610 7.60 88.20 -999.25
16.79 16.793680 7.60 87.750 -999.25
16.78 16.782840 7.60 87.30 -999.25
16.77 16.772910 7.550 87.950 -999.25
16.76 16.762980 7.50 88.60 -999.25
16.75 16.753050 7.50 88.0 -999.25
16.74 16.743120 7.50 87.40 -999.25
16.73 16.733180 7.50 86.850 -999.25
16.72 16.723250 7.50 86.30 -999.25
16.71 16.713320 7.50 86.366670 -999.25
16.70 16.703390 7.50 86.433330 -999.25
16.69 16.693450 7.50 86.50 -999.25
16.68 16.683520 7.50 87.30 -999.25
16.67 16.673590 7.50 88.10 -999.25
16.66 16.663660 7.50 88.90 -999.25
16.65 16.653720 7.550 88.450 -999.25
16.64 16.64470 7.60 88.0 -999.25
16.63 16.633860 7.533330 87.433330 -999.25
16.62 16.624830 7.466670 86.866670 -999.25
16.61 16.61490 7.40 86.30 -999.25
16.60 16.604970 7.40 86.666670 -999.25
16.59 16.595030 7.40 87.033330 -999.25
16.58 16.58510 7.40 87.40 -999.25
16.57 16.575170 7.40 88.40 -999.25
16.56 16.565240 7.40 89.40 -999.25
16.55 16.55530 7.40 90.40 -999.25
16.54 16.545370 7.40 89.683330 -999.25
16.53 16.535440 7.40 88.966670 -999.25
16.52 16.525510 7.40 88.250 -999.25
16.51 16.515580 7.40 87.533330 -999.25
16.50 16.505640 7.40 86.816670 -999.25
16.49 16.495710 7.40 86.10 -999.25
16.48 16.485780 7.366670 87.20 -999.25
16.47 16.475850 7.333330 88.30 -999.25
16.46 16.465010 7.30 89.40 -999.25
16.45 16.455080 7.30 88.933330 -999.25
16.44 16.445150 7.30 88.466670 -999.25
16.43 16.435210 7.30 88.0 -999.25
16.42 16.425280 7.30 86.733330 -999.25
16.41 16.415350 7.30 85.466670 -999.25
16.40 16.405420 7.30 84.20 -999.25
16.39 16.395490 7.30 85.90 -999.25
16.38 16.385550 7.30 87.60 -999.25
16.37 16.375620 7.30 89.30 -999.25
16.36 16.365690 7.30 89.50 -999.25
16.35 16.355760 7.30 89.70 -999.25
16.34 16.345820 7.30 89.90 -999.25
16.33 16.335890 7.266670 89.333330 -999.25
16.32 16.325960 7.233330 88.766670 -999.25
16.31 16.315120 7.20 88.20 -999.25
16.30 16.305190 7.233330 87.566670 -999.25
16.29 16.295260 7.266670 86.933330 -999.25
16.28 16.285330 7.30 86.30 150.741820
16.27 16.27540 7.233330 86.50 203.333330
16.26 16.264560 7.166670 86.70 150.0
16.25 16.254630 7.10 86.90 151.666670
16.24 16.24470 7.133330 87.466670 153.333330
16.23 16.234760 7.166670 88.033330 148.333330
16.22 16.224830 7.20 88.60 143.333330
16.21 16.21490 7.166670 87.566670 143.333330
16.20 16.204970 7.133330 86.533330 155.0
16.19 16.194130 7.10 85.50 166.666670
16.18 16.18420 7.133330 86.20 151.666670
16.17 16.174270 7.166670 86.90 136.666670
16.16 16.164330 7.20 87.60 153.333330
16.15 16.15440 7.166670 89.166670 170.0
16.14 16.144470 7.133330 90.733330 186.666670
16.13 16.134540 7.10 92.30 183.333330
16.12 16.12460 7.10 90.366670 180.0
16.11 16.114670 7.10 88.433330 157.777780
16.10 16.103840 7.10 86.50 135.555560
16.09 16.094810 7.10 86.966670 113.333330
16.08 16.084880 7.10 87.433330 116.666670
16.07 16.074040 7.10 87.90 120.0
16.06 16.064110 7.10 88.083330 142.222220
16.05 16.054180 7.10 88.266670 164.444440
16.04 16.044240 7.10 88.450 186.666670
16.03 16.034310 7.10 88.633330 191.111110
16.02 16.024380 7.10 88.816670 195.555560
16.01 16.014450 7.10 89.0 200.0
16.00 16.004510 7.10 88.40 185.555560
15.99 15.994580 7.10 87.80 171.111110
15.98 15.984650 7.10 87.20 156.666670
15.97 15.974720 7.066670 87.633330 158.888890
15.96 15.964790 7.033330 88.066670 161.111110
15.95 15.954850 7.0 88.50 163.333330
15.94 15.944920 7.0 88.80 140.0
15.93 15.934990 7.0 89.10 116.666670
15.92 15.925060 7.0 89.40 93.333330
15.91 15.915120 7.0 88.866670 116.767680
15.90 15.906090 7.0 88.333330 140.202020
15.89 15.896160 7.0 87.80 163.636360
15.88 15.886230 7.0 87.50 144.178630
15.87 15.87630 7.0 87.20 124.720890
15.86 15.866370 7.0 86.90 105.263160
15.85 15.856430 7.0 87.666670 110.175440
15.84 15.84650 7.0 88.433330 115.087720
15.83 15.836570 7.0 89.20 120.0
15.82 15.826640 7.0 88.966670 130.0
15.81 15.81670 7.0 88.733330 140.0
15.80 15.806770 7.0 88.50 150.0
15.79 15.796840 6.966670 89.266670 156.666670
15.78 15.786910 6.933330 90.033330 163.333330
15.77 15.776980 6.90 90.80 170.0
15.76 15.767040 6.90 90.60 170.0
15.75 15.757110 6.90 90.40 170.0
15.74 15.747180 6.90 90.20 170.0
15.73 15.737250 6.90 88.666670 156.666670
15.72 15.727310 6.90 87.133330 143.333330
15.71 15.717380 6.90 85.60 130.0
15.70 15.707450 6.933330 86.50 130.0
15.69 15.698420 6.966670 87.40 130.0
15.68 15.688490 7.0 88.30 130.0
15.67 15.679460 6.90 89.166670 140.0
15.66 15.669530 6.80 90.033330 150.0
15.65 15.659590 6.70 90.90 160.0
15.64 15.648760 6.70 89.366670 155.555560
15.63 15.638830 6.70 87.833330 151.111110
15.62 15.628890 6.70 86.30 146.666670
15.61 15.618960 6.733330 86.333330 155.555560
15.60 15.609030 6.766670 86.366670 164.444440
15.59 15.59910 6.80 86.40 173.333330
15.58 15.589160 6.80 86.766670 161.111110
15.57 15.579230 6.80 87.133330 148.888890
15.56 15.564790 6.80 87.50 136.666670
15.55 15.550340 6.766670 87.666670 146.666670
15.54 15.540410 6.733330 87.833330 156.666670
15.53 15.530470 6.70 88.0 166.666670
15.52 15.520540 6.70 88.10 151.111110
15.51 15.510610 6.70 88.20 135.555560
15.50 15.501580 6.70 88.30 120.0
15.49 15.491650 6.70 88.933330 146.666670
15.48 15.481720 6.70 89.566670 173.333330
15.47 15.471780 6.70 90.20 200.0
15.46 15.461850 6.70 89.533330 172.222220
15.45 15.452820 6.70 88.866670 144.444440
15.44 15.442890 6.70 88.20 116.666670
15.43 15.432960 6.70 88.60 120.202020
15.42 15.423020 6.70 89.0 123.737370
15.41 15.413090 6.70 89.40 127.272730
15.40 15.403160 6.70 89.833330 133.971290
15.39 15.393230 6.70 90.266670 140.669860
15.38 15.38330 6.70 90.70 147.368420
15.37 15.373360 6.70 90.133330 142.690060
15.36 15.364330 6.70 89.566670 138.01170
15.35 15.35440 6.70 89.0 133.333330
15.34 15.344470 6.70 88.50 151.111110
15.33 15.334540 6.70 88.0 168.888890
15.32 15.32460 6.70 87.50 186.666670
15.31 15.314670 6.70 88.10 176.666670
15.30 15.304740 6.70 88.70 166.666670
15.29 15.294810 6.70 89.30 156.666670
15.28 15.284880 6.650 90.250 153.906810
15.27 15.275850 6.60 91.20 151.146950
15.26 15.265910 6.60 90.366670 148.38710
15.25 15.255980 6.60 89.533330 140.59140
15.24 15.246050 6.60 88.70 132.79570
15.23 15.236120 6.60 89.40 125.0
15.22 15.226190 6.60 90.10 126.666670
15.21 15.216250 6.60 90.80 128.333330
15.20 15.206320 6.566670 90.966670 130.0
15.19 15.196390 6.533330 91.133330 137.777780
15.18 15.186460 6.50 91.30 145.555560
15.17 15.176520 6.50 90.90 153.333330
15.16 15.166590 6.50 90.50 146.666670
15.15 15.156660 6.50 90.10 140.0
15.14 15.146730 6.50 89.50 133.333330
15.13 15.136790 6.50 88.90 145.555560
15.12 15.126860 6.50 88.30 157.777780
15.11 15.116030 6.50 89.20 170.0
15.10 15.106090 6.50 90.10 158.888890
15.09 15.096160 6.50 91.0 147.777780
15.08 15.086230 6.466670 90.90 136.666670
15.07 15.07630 6.433330 90.80 136.666670
15.06 15.066370 6.40 90.70 136.666670
15.05 15.056430 6.40 91.033330 136.666670
15.04 15.04650 6.40 91.366670 125.555560
15.03 15.036570 6.40 91.70 114.444440
15.02 15.026640 6.40 90.70 103.333330
15.01 15.01670 6.40 89.70 110.0
15.00 15.006770 6.40 88.70 116.666670
14.99 14.996840 6.40 88.866670 123.333330
14.98 14.986910 6.40 89.033330 121.111110
14.97 14.976980 6.40 89.20 118.888890
14.96 14.967040 6.366670 90.166670 116.666670
14.95 14.957110 6.333330 91.133330 122.222220
14.94 14.947180 6.30 92.10 127.777780
14.93 14.937250 6.20 91.50 133.333330
14.92 14.927310 6.10 90.90 126.666670
