~VERSION INFORMATION SECTION
VERS. 2.0 : CWLS LAS-VERSION 2.0
WRAP. NO : One line per depth step
~WELL INFORMATION SECTION
# MNEM.UNIT VALUE/NAME DESCRIPTION
#-------- -------------- ---------------------
STRT.Metres 16 : Start
STOP.Metres 0.42 : Stop
STEP.Metres -0.01 : Step
NULL.  -999.25 :NULL VALUE
DATE. 2025-22-11 : DATE
~CURVE INFORMATION SECTION
DEPTH.Metres : 0 Depth
Depth. : 1 Depth
Incline.Deg : 2 Incline
Azimuth.Deg : 3 Azimuth
GR.CPS : 4 GR
~PARAMETER INFORMATION SECTION
~OTHER
#-------------------------------------------------
#Produced By: GeoVista Logger - Version 7.1.107.0
Natural Gamma Sonde - 6447
Verticality Sonde - 6292
#-------------------------------------------------
~ASCII LOG DATA
# ...
7.80 7.821220 4.30 101.0 134.166670
7.79 7.808580 4.30 101.10 136.250
7.78 7.799850 4.30 101.20 138.333330
7.77 7.791120 4.30 101.30 140.416670
7.76 7.782390 4.30 101.40 142.50
7.75 7.769750 4.30 101.50 144.583330
7.74 7.757110 4.30 101.150 146.666670
7.73 7.748380 4.30 100.80 146.250
7.72 7.739650 4.30 100.450 145.833330
7.71 7.730930 4.30 100.10 145.416670
7.70 7.72250 4.30 99.750 145.0
7.69 7.714070 4.30 99.40 144.583330
7.68 7.705640 4.30 99.050 144.166670
7.67 7.692550 4.30 98.70 143.750
7.66 7.679460 4.31250 98.68750 143.333330
7.65 7.670730 4.3250 98.6750 139.523810
7.64 7.6620 4.33750 98.66250 135.714290
7.63 7.653270 4.350 98.650 131.904760
7.62 7.640630 4.36250 98.63750 128.095240
7.61 7.627990 4.3750 98.6250 124.285710
7.60 7.619260 4.38750 98.61250 120.476190
7.59 7.610530 4.40 98.60 116.666670
7.58 7.601810 4.40 98.46250 122.50
7.57 7.588710 4.40 98.3250 128.333330
7.56 7.575620 4.40 98.18750 134.166670
7.55 7.567190 4.40 98.050 140.0
7.54 7.558770 4.40 97.91250 145.833330
7.53 7.550340 4.40 97.7750 151.666670
7.52 7.541610 4.40 97.63750 157.50
7.51 7.532880 4.40 97.50 163.333330
7.50 7.524150 4.385710 97.70 162.916670
7.49 7.511060 4.371430 97.90 162.50
7.48 7.497970 4.357140 98.10 162.083330
7.47 7.489240 4.342860 98.30 161.666670
7.46 7.480510 4.328570 98.50 161.250
7.45 7.471780 4.314290 98.70 160.833330
7.44 7.463050 4.30 98.90 160.416670
7.43 7.454330 4.30 98.90 160.0
7.42 7.44560 4.30 98.90 159.583330
7.41 7.432510 4.30 98.90 159.166670
7.40 7.419410 4.30 98.90 158.750
7.39 7.410680 4.30 98.90 158.333330
7.38 7.401960 4.30 98.90 157.916670
7.37 7.393230 4.30 98.90 157.50
7.36 7.380140 4.30 98.90 157.083330
7.35 7.367040 4.30 99.0 156.666670
7.34 7.358310 4.30 99.10 156.666670
7.33 7.349590 4.30 99.20 156.666670
7.32 7.340860 4.30 99.30 156.666670
7.31 7.332130 4.30 99.40 156.666670
7.30 7.32340 4.30 99.50 156.666670
7.29 7.314670 4.30 99.60 156.666670
7.28 7.301580 4.30 99.70 156.666670
7.27 7.288490 4.28750 99.66250 156.666670
7.26 7.279760 4.2750 99.6250 158.333330
7.25 7.271030 4.26250 99.58750 160.0
7.24 7.26230 4.250 99.550 161.666670
7.23 7.253270 4.23750 99.51250 163.333330
7.22 7.244240 4.2250 99.4750 165.0
7.21 7.235210 4.21250 99.43750 166.666670
7.20 7.222570 4.20 99.40 168.333330
7.19 7.209930 4.20 99.51250 170.0
7.18 7.20120 4.20 99.6250 172.50
7.17 7.192480 4.20 99.73750 175.0
7.16 7.183750 4.20 99.850 177.50
7.15 7.170650 4.20 99.96250 180.0
7.14 7.157560 4.20 100.0750 182.50
7.13 7.148830 4.20 100.18750 185.0
7.12 7.140110 4.20 100.30 187.50
7.11 7.131380 4.214290 100.30 190.0
7.10 7.122950 4.228570 100.30 187.619050
7.09 7.114520 4.242860 100.30 185.23810
7.08 7.106090 4.257140 100.30 182.857140
7.07 7.0930 4.271430 100.30 180.476190
7.06 7.079910 4.285710 100.30 178.095240
7.05 7.071180 4.30 100.30 175.714290
7.04 7.062450 4.30 100.650 173.333330
7.03 7.053720 4.30 101.0 170.833330
7.02 7.040630 4.30 101.350 168.333330
7.01 7.027540 4.30 101.70 165.833330
7.00 7.019110 4.30 102.050 163.333330
6.99 7.010680 4.30 102.40 160.833330
6.98 7.002260 4.30 102.750 158.333330
6.97 6.989160 4.30 103.10 155.833330
6.96 6.976070 4.28750 102.7750 153.333330
6.95 6.967640 4.2750 102.450 153.333330
6.94 6.959220 4.26250 102.1250 153.333330
6.93 6.950790 4.250 101.80 153.333330
6.92 6.938150 4.23750 101.4750 153.333330
6.91 6.925510 4.2250 101.150 153.333330
6.90 6.917080 4.21250 100.8250 153.333330
6.89 6.908650 4.20 100.50 153.333330
6.88 6.900230 4.20 100.23750 153.333330
6.87 6.89180 4.20 99.9750 157.083330
6.86 6.883370 4.20 99.71250 160.833330
6.85 6.874940 4.20 99.450 164.583330
6.84 6.86230 4.20 99.18750 168.333330
6.83 6.849660 4.20 98.9250 172.083330
6.82 6.841230 4.20 98.66250 175.833330
6.81 6.832810 4.20 98.40 179.583330
6.80 6.824380 4.193330 98.70 183.333330
6.79 6.811290 4.186670 99.0 177.142860
6.78 6.798190 4.180 99.30 170.952380
6.77 6.789470 4.173330 99.60 164.76190
6.76 6.780740 4.166670 99.90 158.571430
6.75 6.772010 4.160 100.20 152.380950
6.74 6.759370 4.153330 100.50 146.190480
6.73 6.746730 4.146670 100.80 140.0
6.72 6.7380 4.140 101.10 142.083330
6.71 6.729270 4.133330 101.40 144.166670
6.70 6.720540 4.126670 101.70 146.250
6.69 6.711810 4.120 102.0 148.333330
6.68 6.703090 4.113330 102.30 150.416670
6.67 6.694360 4.106670 102.60 152.50
6.66 6.681720 4.10 102.90 154.583330
6.65 6.669070 4.10 102.73750 156.666670
6.64 6.660350 4.10 102.5750 155.416670
6.63 6.651620 4.10 102.41250 154.166670
6.62 6.642890 4.10 102.250 152.916670
6.61 6.62980 4.10 102.08750 151.666670
6.60 6.61670 4.10 101.9250 150.416670
6.59 6.607980 4.10 101.76250 149.166670
6.58 6.599250 4.10 101.60 147.916670
6.57 6.590520 4.10 101.43750 146.666670
6.56 6.581790 4.10 101.2750 146.250
6.55 6.573060 4.10 101.11250 145.833330
6.54 6.564330 4.10 100.950 145.416670
6.53 6.551690 4.10 100.78750 145.0
6.52 6.539050 4.10 100.6250 144.583330
6.51 6.530320 4.10 100.46250 144.166670
6.50 6.52160 4.10 100.30 143.750
6.49 6.512870 4.10 100.514290 143.333330
6.48 6.499770 4.10 100.728570 141.948920
6.47 6.486680 4.10 100.942860 140.564520
6.46 6.477950 4.10 101.157140 139.180110
6.45 6.469220 4.10 101.371430 137.79570
6.44 6.46050 4.10 101.585710 136.411290
6.43 6.451770 4.10 101.80 135.026880
6.42 6.443040 4.08750 101.4750 133.642470
6.41 6.434310 4.0750 101.150 132.258060
6.40 6.421220 4.06250 100.8250 132.887860
6.39 6.408130 4.050 100.50 133.517670
6.38 6.39940 4.03750 100.1750 134.147470
6.37 6.390670 4.0250 99.850 134.777270
6.36 6.381940 4.01250 99.5250 135.407070
6.35 6.368850 4.0 99.20 136.036870
6.34 6.355760 4.01250 99.1250 136.666670
6.33 6.347330 4.0250 99.050 136.666670
6.32 6.33890 4.03750 98.9750 136.666670
6.31 6.330470 4.050 98.90 136.666670
6.30 6.321750 4.06250 98.8250 136.666670
6.29 6.313020 4.0750 98.750 136.666670
6.28 6.304290 4.08750 98.6750 136.666670
6.27 6.29120 4.10 98.60 136.666670
6.26 6.27810 4.08750 98.21250 136.666670
6.25 6.269380 4.0750 97.8250 130.416670
6.24 6.260650 4.06250 97.43750 124.166670
6.23 6.251920 4.050 97.050 117.916670
6.22 6.238830 4.03750 96.66250 111.666670
6.21 6.225730 4.0250 96.2750 105.416670
6.20 6.217310 4.01250 95.88750 99.166670
6.19 6.208880 4.0 95.50 92.916670
6.18 6.200450 4.0 95.9750 86.666670
6.17 6.191720 4.0 96.450 95.833330
6.16 6.182990 4.0 96.9250 105.0
6.15 6.174270 4.0 97.40 114.166670
6.14 6.161170 4.0 97.8750 123.333330
6.13 6.148080 4.0 98.350 132.50
6.12 6.139650 4.0 98.8250 141.666670
6.11 6.131230 4.0 99.30 150.833330
6.10 6.12280 4.014290 99.271430 160.0
6.09 6.109710 4.028570 99.242860 165.714290
6.08 6.096610 4.042860 99.214290 171.428570
6.07 6.087890 4.057140 99.185710 177.142860
6.06 6.079160 4.071430 99.157140 182.857140
6.05 6.070430 4.085710 99.128570 188.571430
6.04 6.06170 4.10 99.10 194.285710
6.03 6.052970 4.0750 99.41250 200.0
6.02 6.044240 4.050 99.7250 197.50
6.01 6.031150 4.0250 100.03750 195.0
6.00 6.018060 4.0 100.350 192.50
5.99 6.009630 3.9750 100.66250 190.0
5.98 6.00120 3.950 100.9750 187.50
5.97 5.992780 3.9250 101.28750 185.0
5.96 5.979680 3.90 101.60 182.50
5.95 5.966590 3.906250 101.443750 180.0
5.94 5.957860 3.91250 101.28750 174.545450
5.93 5.949130 3.918750 101.131250 169.090910
5.92 5.940410 3.9250 100.9750 163.636360
5.91 5.931680 3.931250 100.818750 158.181820
5.90 5.922950 3.93750 100.66250 152.727270
5.89 5.914220 3.943750 100.506250 147.272730
5.88 5.901580 3.950 100.350 141.818180
5.87 5.888940 3.956250 100.193750 136.363640
5.86 5.880210 3.96250 100.03750 141.68660
5.85 5.871480 3.968750 99.881250 147.009570
5.84 5.862750 3.9750 99.7250 152.332540
5.83 5.850110 3.981250 99.568750 157.65550
5.82 5.837470 3.98750 99.41250 162.978470
5.81 5.828740 3.993750 99.256250 168.301440
5.80 5.820020 4.0 99.10 173.62440
5.79 5.811290 4.0 98.986670 178.947370
5.78 5.798650 4.0 98.873330 186.24060
5.77 5.7860 4.0 98.760 193.533830
5.76 5.777580 4.0 98.646670 200.827070
5.75 5.769150 4.0 98.533330 208.12030
5.74 5.760720 4.0 98.420 215.413530
5.73 5.752290 4.0 98.306670 222.706770
5.72 5.743870 4.0 98.193330 230.0
5.71 5.735440 4.0 98.080 223.333330
