~VERSION INFORMATION SECTION
VERS. 2.0 : CWLS LAS-VERSION 2.0
WRAP. NO : One line per depth step
~WELL INFORMATION SECTION
# MNEM.UNIT VALUE/NAME DESCRIPTION
#-------- -------------- ---------------------
STRT.Metres 16 : Start
STOP.Metres 0.42 : Stop
STEP.Metres -0.01 : Step
NULL.  -999.25 :NULL VALUE
DATE. 2025-22-11 : DATE
~CURVE INFORMATION SECTION
DEPTH.Metres : 0 Depth
Depth. : 1 Depth
Incline.Deg : 2 Incline
Azimuth.Deg : 3 Azimuth
GR.CPS : 4 GR
~PARAMETER INFORMATION SECTION
~OTHER
#-------------------------------------------------
#Produced By: GeoVista Logger - Version 7.1.107.0
Natural Gamma Sonde - 6447
Verticality Sonde - 6292
#-------------------------------------------------
~ASCII LOG DATA
16.00 -999.25 -999.25 -999.25 -999.25
15.99 15.994580 -999.25 -999.25 -999.25
15.98 15.986460 -999.25 -999.25 -999.25
15.97 15.976520 -999.25 -999.25 -999.25
15.96 15.964790 -999.25 -999.25 -999.25
15.95 15.958010 -999.25 -999.25 -999.25
15.94 15.951240 -999.25 -999.25 -999.25
15.93 15.936790 -999.25 -999.25 -999.25
15.92 15.928670 -999.25 -999.25 -999.25
15.91 15.920540 -999.25 -999.25 -999.25
15.90 15.911510 -999.25 -999.25 -999.25
15.89 15.902480 -999.25 -999.25 -999.25
15.88 15.892550 -999.25 -999.25 -999.25
15.87 15.882620 -999.25 -999.25 -999.25
15.86 15.872230 -999.25 -999.25 -999.25
15.85 15.861850 -999.25 -999.25 -999.25
15.84 15.854630 -999.25 -999.25 -999.25
15.83 15.84740 -999.25 -999.25 -999.25
15.82 15.840180 -999.25 -999.25 -999.25
15.81 15.828440 -999.25 -999.25 -999.25
15.80 15.81670 -999.25 -999.25 -999.25
15.79 15.808880 -999.25 -999.25 -999.25
15.78 15.801050 -999.25 -999.25 -999.25
15.77 15.793230 -999.25 -999.25 -999.25
15.76 15.781490 -999.25 -999.25 -999.25
15.75 15.769750 -999.25 -999.25 -999.25
15.74 15.761320 -999.25 -999.25 -999.25
15.73 15.75290 -999.25 -999.25 -999.25
15.72 15.744470 -999.25 -999.25 -999.25
15.71 15.731830 6.70 88.304550 -999.25
15.70 15.719190 6.70 88.336360 -999.25
15.69 15.710460 6.70 88.368180 -999.25
15.68 15.701730 6.70 88.40 -999.25
15.67 15.6930 6.70 88.50 -999.25
15.66 15.680360 6.70 88.60 -999.25
15.65 15.667720 6.70 88.70 -999.25
15.64 15.658990 6.70 88.80 -999.25
15.63 15.650260 6.720 89.280 -999.25
15.62 15.641530 6.740 89.760 -999.25
15.61 15.628890 6.760 90.240 -999.25
15.60 15.616250 6.780 90.720 -999.25
15.59 15.608130 6.80 91.20 -999.25
15.58 15.60 6.785710 90.228570 -999.25
15.57 15.591870 6.771430 89.257140 -999.25
15.56 15.579230 6.757140 88.285710 -999.25
15.55 15.566590 6.742860 87.314290 -999.25
15.54 15.558160 6.728570 86.342860 -999.25
15.53 15.549740 6.714290 85.371430 -999.25
15.52 15.541310 6.70 84.40 -999.25
15.51 15.528670 6.70 85.557140 -999.25
15.50 15.516030 6.70 86.714290 -999.25
15.49 15.50760 6.70 87.871430 -999.25
15.48 15.499170 6.70 89.028570 -999.25
15.47 15.490740 6.70 90.185710 -999.25
15.46 15.47810 6.70 91.342860 -999.25
15.45 15.465460 6.70 92.50 -999.25
15.44 15.457040 6.70 92.50 -999.25
15.43 15.448610 6.70 92.50 -999.25
15.42 15.440180 6.70 92.50 -999.25
15.41 15.431750 6.70 92.50 -999.25
15.40 15.423330 6.70 92.50 -999.25
15.39 15.41490 6.70 92.50 -999.25
15.38 15.401810 6.70 92.50 -999.25
15.37 15.388710 6.70 92.50 -999.25
15.36 15.380290 6.70 91.328570 -999.25
15.35 15.371860 6.70 90.157140 -999.25
15.34 15.363430 6.70 88.985710 -999.25
15.33 15.350790 6.70 87.814290 -999.25
15.32 15.338150 6.70 86.642860 -999.25
15.31 15.329420 6.70 85.471430 -999.25
15.30 15.320690 6.70 84.30 -999.25
15.29 15.311960 6.6750 84.63750 -999.25
15.28 15.299320 6.650 84.9750 -999.25
15.27 15.286680 6.6250 85.31250 -999.25
15.26 15.278250 6.60 85.650 -999.25
15.25 15.269830 6.5750 85.98750 -999.25
15.24 15.26140 6.550 86.3250 -999.25
15.23 15.248760 6.5250 86.66250 -999.25
15.22 15.236120 6.50 87.0 -999.25
15.21 15.227690 6.50 87.457140 -999.25
15.20 15.219260 6.50 87.914290 -999.25
15.19 15.210840 6.50 88.371430 -999.25
15.18 15.198190 6.50 88.828570 -999.25
15.17 15.185550 6.50 89.285710 -999.25
15.16 15.177130 6.50 89.742860 -999.25
15.15 15.16870 6.50 90.20 -999.25
15.14 15.160270 6.50 90.550 -999.25
15.13 15.151540 6.50 90.90 146.456330
15.12 15.142810 6.50 91.250 144.894830
15.11 15.134090 6.50 91.60 143.333330
15.10 15.12190 6.50 91.950 146.666670
15.09 15.109710 6.50 92.30 150.0
15.08 15.100980 6.50 92.650 153.333330
15.07 15.092250 6.50 93.0 149.333330
15.06 15.083520 6.49130 92.817390 145.333330
15.05 15.070880 6.482610 92.634780 141.333330
15.04 15.058240 6.473910 92.452170 137.333330
15.03 15.049810 6.465220 92.269570 133.333330
15.02 15.041380 6.456520 92.086960 141.666670
15.01 15.032960 6.447830 91.904350 150.0
15.00 15.020320 6.439130 91.721740 158.333330
14.99 15.007670 6.430430 91.539130 166.666670
14.98 14.999250 6.421740 91.356520 175.0
14.97 14.990820 6.413040 91.173910 183.333330
14.96 14.982390 6.404350 90.99130 174.76190
14.95 14.96930 6.395650 90.80870 166.190480
14.94 14.956210 6.386960 90.626090 157.619050
14.93 14.947780 6.378260 90.443480 149.047620
14.92 14.939350 6.369570 90.260870 140.476190
14.91 14.930930 6.360870 90.078260 131.904760
14.90 14.918280 6.352170 89.895650 123.333330
14.89 14.905640 6.343480 89.713040 128.750
14.88 14.897220 6.334780 89.530430 134.166670
14.87 14.888790 6.326090 89.347830 139.583330
14.86 14.880360 6.317390 89.165220 145.0
14.85 14.871930 6.30870 88.982610 150.416670
14.84 14.863510 6.30 88.80 155.833330
14.83 14.855080 6.23750 88.60 161.250
14.82 14.842440 6.1750 88.40 166.666670
14.81 14.82980 6.11250 88.20 163.333330
14.80 14.821370 6.050 88.0 160.0
14.79 14.812940 5.98750 87.80 156.666670
14.78 14.804510 5.9250 87.60 153.333330
14.77 14.791870 5.86250 87.40 150.0
14.76 14.779230 5.80 87.20 146.666670
14.75 14.770810 5.828570 87.442860 143.333330
14.74 14.762380 5.857140 87.685710 140.0
14.73 14.753950 5.885710 87.928570 138.571430
14.72 14.740860 5.914290 88.171430 137.142860
14.71 14.727770 5.942860 88.414290 135.714290
14.70 14.719340 5.971430 88.657140 134.285710
14.69 14.710910 6.0 88.90 132.857140
14.68 14.702480 6.0 89.51250 131.428570
14.67 14.689390 6.0 90.1250 130.0
14.66 14.67630 6.0 90.73750 130.0
14.65 14.667870 6.0 91.350 130.0
14.64 14.659440 6.0 91.96250 130.0
14.63 14.651020 6.0 92.5750 130.0
14.62 14.642290 6.0 93.18750 130.0
14.61 14.633560 6.0 93.80 130.0
14.60 14.624830 6.014290 93.728570 130.0
14.59 14.611290 6.028570 93.657140 130.0
14.58 14.597740 6.042860 93.585710 130.416670
14.57 14.589010 6.057140 93.514290 130.833330
14.56 14.580290 6.071430 93.442860 131.250
14.55 14.571560 6.085710 93.371430 131.666670
14.54 14.562530 6.10 93.30 132.083330
14.53 14.55350 6.08750 93.63750 132.50
14.52 14.544470 6.0750 93.9750 132.916670
14.51 14.531380 6.06250 94.31250 133.333330
14.50 14.518280 6.050 94.650 129.523810
14.49 14.509560 6.03750 94.98750 125.714290
14.48 14.500830 6.0250 95.3250 121.904760
14.47 14.49210 6.01250 95.66250 118.095240
14.46 14.483370 6.0 96.0 114.285710
14.45 14.474640 6.01250 95.46250 110.476190
14.44 14.465910 6.0250 94.9250 106.666670
14.43 14.452820 6.03750 94.38750 111.666670
14.42 14.439730 6.050 93.850 116.666670
14.41 14.427090 6.06250 93.31250 121.666670
14.40 14.414450 6.0750 92.7750 126.666670
14.39 14.406920 6.08750 92.23750 131.666670
14.38 14.39940 6.10 91.70 136.666670
14.37 14.391870 6.08750 91.6750 141.666670
14.36 14.378780 6.0750 91.650 146.666670
14.35 14.365690 6.06250 91.6250 151.688310
14.34 14.357560 6.050 91.60 156.709960
14.33 14.349440 6.03750 91.5750 161.73160
14.32 14.341310 6.0250 91.550 166.753250
14.31 14.328670 6.01250 91.5250 171.774890
14.30 14.316030 6.0 91.50 176.796540
14.29 14.30760 5.98750 91.96250 181.818180
14.28 14.299170 5.9750 92.4250 180.681820
14.27 14.290740 5.96250 92.88750 179.545450
14.26 14.282020 5.950 93.350 178.409090
14.25 14.273290 5.93750 93.81250 177.272730
14.24 14.264560 5.9250 94.2750 176.136360
14.23 14.251920 5.91250 94.73750 175.0
14.22 14.239280 5.90 95.20 173.863640
14.21 14.230550 5.8750 94.68750 172.727270
14.20 14.221820 5.850 94.1750 170.215310
14.19 14.213090 5.8250 93.66250 167.703350
14.18 14.200450 5.80 93.150 165.191390
14.17 14.187810 5.7750 92.63750 162.679430
14.16 14.179080 5.750 92.1250 160.167460
14.15 14.170350 5.7250 91.61250 157.65550
14.14 14.161630 5.70 91.10 155.143540
14.13 14.148530 5.657140 91.542860 152.631580
14.12 14.135440 5.614290 91.985710 155.588970
14.11 14.127010 5.571430 92.428570 158.546370
14.10 14.118590 5.528570 92.871430 161.503760
14.09 14.110160 5.485710 93.314290 164.461150
14.08 14.101430 5.442860 93.757140 167.418550
14.07 14.09270 5.40 94.20 170.375940
14.06 14.083970 5.371430 93.871430 173.333330
14.05 14.071330 5.342860 93.542860 177.50
14.04 14.058690 5.314290 93.214290 181.666670
14.03 14.049960 5.285710 92.885710 185.833330
14.02 14.041230 5.257140 92.557140 190.0
