~VERSION INFORMATION SECTION
VERS. 2.0 : CWLS LAS-VERSION 2.0
WRAP. NO : One line per depth step
~WELL INFORMATION SECTION
# MNEM.UNIT VALUE/NAME DESCRIPTION
#-------- -------------- ---------------------
STRT.Metres 16 : Start
STOP.Metres 0.42 : Stop
STEP.Metres -0.01 : Step
NULL.  -999.25 :NULL VALUE
DATE. 2025-22-11 : DATE
~CURVE INFORMATION SECTION
DEPTH.Metres : 0 Depth
Depth. : 1 Depth
Incline.Deg : 2 Incline
Azimuth.Deg : 3 Azimuth
GR.CPS : 4 GR
~PARAMETER INFORMATION SECTION
~OTHER
#-------------------------------------------------
#Produced By: GeoVista Logger - Version 7.1.107.0
Natural Gamma Sonde - 6447
Verticality Sonde - 6292
#-------------------------------------------------
~ASCII LOG DATA
# ...
11.97 11.992780 4.957140 93.70 125.833330
11.96 11.980140 4.90 94.20 122.916670
11.95 11.967490 4.91250 94.38750 120.0
11.94 11.958770 4.9250 94.5750 126.250
11.93 11.950040 4.93750 94.76250 132.50
11.92 11.941310 4.950 94.950 138.750
11.91 11.932580 4.96250 95.13750 145.0
11.90 11.923850 4.9750 95.3250 151.250
11.89 11.915120 4.98750 95.51250 157.50
11.88 11.902030 5.0 95.70 163.750
11.87 11.888940 4.98750 95.20 170.0
11.86 11.880210 4.9750 94.70 165.795450
11.85 11.871480 4.96250 94.20 161.590910
11.84 11.862750 4.950 93.70 157.386360
11.83 11.854030 4.93750 93.20 153.181820
11.82 11.84530 4.9250 92.70 148.977270
11.81 11.836570 4.91250 92.20 144.772730
11.80 11.823020 4.90 91.70 140.568180
11.79 11.809480 4.9250 92.20 136.363640
11.78 11.800750 4.950 92.70 133.791870
11.77 11.792020 4.9750 93.20 131.22010
11.76 11.78330 5.0 93.70 128.648330
11.75 11.77020 5.0250 94.20 126.076560
11.74 11.757110 5.050 94.70 123.504780
11.73 11.748380 5.0750 95.20 120.933010
11.72 11.739650 5.10 95.70 118.361240
11.71 11.730930 5.10 95.20 115.789470
11.70 11.72250 5.10 94.70 121.152880
11.69 11.714070 5.10 94.20 126.516290
11.68 11.705640 5.10 93.70 131.87970
11.67 11.692550 5.10 93.20 137.243110
11.66 11.679460 5.10 92.70 142.606520
11.65 11.670730 5.10 92.20 147.969920
11.64 11.6620 5.10 92.1750 153.333330
11.63 11.653270 5.10 92.150 148.750
11.62 11.640180 5.10 92.1250 144.166670
11.61 11.627090 5.10 92.10 139.583330
11.60 11.618660 5.10 92.0750 135.0
11.59 11.610230 5.10 92.050 130.416670
11.58 11.601810 5.10 92.0250 125.833330
11.57 11.593080 5.10 92.0 121.250
11.56 11.584350 5.050 92.38750 116.666670
11.55 11.575620 5.0 92.7750 117.916670
11.54 11.562530 4.950 93.16250 119.166670
11.53 11.549440 4.90 93.550 120.416670
11.52 11.541010 4.850 93.93750 121.666670
11.51 11.532580 4.80 94.3250 122.916670
11.50 11.524150 4.750 94.71250 124.166670
11.49 11.511060 4.70 95.10 125.416670
11.48 11.497970 4.71250 94.60 126.666670
11.47 11.489540 4.7250 94.10 130.0
11.46 11.481110 4.73750 93.60 133.333330
11.45 11.472690 4.750 93.10 136.666670
11.44 11.459590 4.76250 92.60 140.0
11.43 11.44650 4.7750 92.10 143.333330
11.42 11.438070 4.78750 91.60 146.666670
11.41 11.429650 4.80 91.10 150.0
11.40 11.421220 4.81250 91.78750 153.333330
11.39 11.412490 4.8250 92.4750 154.76190
11.38 11.403760 4.83750 93.16250 156.190480
11.37 11.395030 4.850 93.850 157.619050
11.36 11.382390 4.86250 94.53750 159.047620
11.35 11.369750 4.8750 95.2250 160.476190
11.34 11.361020 4.88750 95.91250 161.904760
11.33 11.352290 4.90 96.60 163.333330
11.32 11.343570 4.850 96.51250 156.666670
11.31 11.330930 4.80 96.4250 150.0
11.30 11.318280 4.750 96.33750 143.333330
11.29 11.309860 4.70 96.250 136.666670
11.28 11.301430 4.650 96.16250 130.0
11.27 11.2930 4.60 96.0750 123.333330
11.26 11.279910 4.550 95.98750 116.666670
11.25 11.266820 4.50 95.90 110.0
11.24 11.258090 4.514290 95.857140 110.833330
11.23 11.249360 4.528570 95.814290 111.666670
11.22 11.240630 4.542860 95.771430 112.50
11.21 11.23220 4.557140 95.728570 113.333330
11.20 11.223780 4.571430 95.685710 114.166670
11.19 11.215350 4.585710 95.642860 115.0
11.18 11.202260 4.60 95.60 115.833330
11.17 11.189160 4.61250 95.9250 116.666670
11.16 11.180740 4.6250 96.250 124.583330
11.15 11.172310 4.63750 96.5750 132.50
11.14 11.163880 4.650 96.90 140.416670
11.13 11.150790 4.66250 97.2250 148.333330
11.12 11.13770 4.6750 97.550 156.250
11.11 11.128970 4.68750 97.8750 164.166670
11.10 11.120240 4.70 98.20 172.083330
11.09 11.111510 4.70 98.2250 180.0
11.08 11.102780 4.70 98.250 182.50
11.07 11.094060 4.70 98.2750 185.0
11.06 11.085330 4.70 98.30 187.50
11.05 11.072230 4.70 98.3250 190.0
11.04 11.059140 4.70 98.350 192.50
11.03 11.050410 4.70 98.3750 195.0
11.02 11.041690 4.70 98.40 197.50
11.01 11.032960 4.671430 98.40 200.0
11.00 11.019860 4.642860 98.40 196.666670
10.99 11.006770 4.614290 98.40 193.333330
10.98 10.998340 4.585710 98.40 190.0
10.97 10.989920 4.557140 98.40 186.666670
10.96 10.981490 4.528570 98.40 183.333330
10.95 10.972760 4.50 98.40 180.0
10.94 10.964030 4.4750 98.26250 176.666670
10.93 10.95530 4.450 98.1250 178.373660
10.92 10.942210 4.4250 97.98750 180.080650
10.91 10.929120 4.40 97.850 181.787630
10.90 10.920390 4.3750 97.71250 183.494620
10.89 10.911660 4.350 97.5750 185.201610
10.88 10.902930 4.3250 97.43750 186.90860
10.87 10.889840 4.30 97.30 188.615590
10.86 10.876750 4.30 97.56250 190.322580
10.85 10.868020 4.30 97.8250 185.282260
10.84 10.859290 4.30 98.08750 180.241940
10.83 10.850560 4.30 98.350 175.201610
10.82 10.841840 4.30 98.61250 170.161290
10.81 10.833110 4.30 98.8750 165.120970
10.80 10.824380 4.30 99.13750 160.080650
10.79 10.811740 4.30 99.40 155.040320
10.78 10.79910 4.33750 99.3750 150.0
10.77 10.790370 4.3750 99.350 157.50
10.76 10.781640 4.41250 99.3250 165.0
10.75 10.772910 4.450 99.30 172.50
10.74 10.759820 4.48750 99.2750 180.0
10.73 10.746730 4.5250 99.250 187.50
10.72 10.7380 4.56250 99.2250 195.0
10.71 10.729270 4.60 99.20 202.50
10.70 10.720540 4.60 99.30 210.0
10.69 10.712110 4.60 99.40 204.583330
10.68 10.703690 4.60 99.50 199.166670
10.67 10.695260 4.60 99.60 193.750
10.66 10.682170 4.60 99.70 188.333330
10.65 10.669070 4.60 99.80 182.916670
10.64 10.660350 4.60 99.90 177.50
10.63 10.651620 4.60 100.0 172.083330
10.62 10.642890 4.60 99.773330 166.666670
10.61 10.62980 4.60 99.546670 167.619050
10.60 10.61670 4.60 99.320 168.571430
10.59 10.607980 4.60 99.093330 169.523810
10.58 10.599250 4.60 98.866670 170.476190
10.57 10.590520 4.60 98.640 171.428570
10.56 10.582090 4.60 98.413330 172.380950
10.55 10.573660 4.60 98.186670 173.333330
10.54 10.565240 4.60 97.960 175.0
10.53 10.552140 4.60 97.733330 176.666670
10.52 10.539050 4.60 97.506670 178.333330
10.51 10.530620 4.60 97.280 180.0
10.50 10.52220 4.60 97.053330 181.666670
10.49 10.513770 4.60 96.826670 183.333330
10.48 10.500680 4.60 96.60 185.0
10.47 10.487580 4.60 97.33750 186.666670
10.46 10.479160 4.60 98.0750 182.50
10.45 10.470730 4.60 98.81250 178.333330
10.44 10.46230 4.60 99.550 174.166670
10.43 10.453570 4.60 100.28750 170.0
10.42 10.444850 4.60 101.0250 165.833330
10.41 10.436120 4.60 101.76250 161.666670
10.40 10.423020 4.60 102.50 157.50
10.39 10.409930 4.61250 102.06250 153.333330
10.38 10.40150 4.6250 101.6250 157.916670
10.37 10.393080 4.63750 101.18750 162.50
10.36 10.384650 4.650 100.750 167.083330
10.35 10.371560 4.66250 100.31250 171.666670
10.34 10.358470 4.6750 99.8750 176.250
10.33 10.350040 4.68750 99.43750 180.833330
10.32 10.341610 4.70 99.0 185.416670
10.31 10.333180 4.68750 99.36250 190.0
10.30 10.320090 4.6750 99.7250 186.190480
10.29 10.3070 4.66250 100.08750 182.380950
10.28 10.298270 4.650 100.450 178.571430
10.27 10.289540 4.63750 100.81250 174.76190
10.26 10.280810 4.6250 101.1750 170.952380
10.25 10.272390 4.61250 101.53750 167.142860
10.24 10.263960 4.60 101.90 163.333330
10.23 10.255530 4.614290 101.614290 168.750
10.22 10.241990 4.628570 101.328570 174.166670
10.21 10.228440 4.642860 101.042860 179.583330
10.20 10.219710 4.657140 100.757140 185.0
10.19 10.210990 4.671430 100.471430 190.416670
10.18 10.202260 4.685710 100.185710 195.833330
10.17 10.189160 4.70 99.90 201.250
10.16 10.176070 4.70 99.90 206.666670
10.15 10.167640 4.70 99.90 205.0
10.14 10.159220 4.70 99.90 203.333330
10.13 10.150790 4.70 99.90 201.666670
10.12 10.142060 4.70 99.90 200.0
10.11 10.133330 4.70 99.90 198.333330
10.10 10.12460 4.70 99.90 196.666670
10.09 10.111510 4.70 99.90 195.0
10.08 10.098420 4.70 99.81250 193.333330
10.07 10.089690 4.70 99.7250 186.250
10.06 10.080960 4.70 99.63750 179.166670
10.05 10.072230 4.70 99.550 172.083330
10.04 10.059590 4.70 99.46250 165.0
10.03 10.046950 4.70 99.3750 157.916670
10.02 10.038220 4.70 99.28750 150.833330
10.01 10.02950 4.70 99.20 143.750
10.00 10.020770 4.71250 98.81250 136.666670
9.99 10.012040 4.7250 98.4250 135.416670
9.98 10.003310 4.73750 98.03750 134.166670
9.97 9.994580 4.750 97.650 132.916670
9.96 9.981490 4.76250 97.26250 131.666670
9.95 9.96840 4.7750 96.8750 130.416670
9.94 9.959670 4.78750 96.48750 129.166670
