~VERSION INFORMATION SECTION
VERS. 2.0 : CWLS LAS-VERSION 2.0
WRAP. NO : One line per depth step
~WELL INFORMATION SECTION
# MNEM.UNIT VALUE/NAME DESCRIPTION
#-------- -------------- ---------------------
STRT.Metres 16 : Start
STOP.Metres 0.15 : Stop
STEP.Metres -0.01 : Step
NULL.  -999.25 :NULL VALUE
DATE. 2025-24-11 : DATE
~CURVE INFORMATION SECTION
DEPTH.Metres : 0 Depth
Depth. : 1 Depth
Incline.Deg : 2 Incline
Azimuth.Deg : 3 Azimuth
GR.CPS : 4 GR
~PARAMETER INFORMATION SECTION
~OTHER
#-------------------------------------------------
#Produced By: GeoVista Logger - Version 7.1.107.0
Natural Gamma Sonde - 6447
Verticality Sonde - 6292
#-------------------------------------------------
~ASCII LOG DATA
# ...
12.27 12.306090 4.507690 89.530770 125.128210
12.26 12.295490 4.584620 89.838460 123.589740
12.25 12.284880 4.661540 90.146150 122.051280
12.24 12.274270 4.738460 90.453850 120.512820
12.23 12.263660 4.815380 90.761540 118.974360
12.22 12.255170 4.892310 91.069230 117.43590
12.21 12.246680 4.969230 91.376920 115.897440
12.20 12.238190 5.046150 91.684620 114.358970
12.19 12.229710 5.123080 91.992310 112.820510
12.18 12.221220 5.20 92.30 111.282050
12.17 12.210840 5.20 92.215380 109.743590
12.16 12.200450 5.20 92.130770 108.205130
12.15 12.190070 5.20 92.046150 106.666670
12.14 12.179680 5.20 91.961540 108.888890
12.13 12.169070 5.20 91.876920 111.111110
12.12 12.158470 5.20 91.792310 113.333330
12.11 12.147860 5.20 91.707690 115.555560
12.10 12.137250 5.20 91.623080 117.777780
12.09 12.126640 5.20 91.538460 120.0
12.08 12.116030 5.20 91.453850 122.222220
12.07 12.105420 5.20 91.369230 124.444440
12.06 12.094810 5.20 91.284620 126.666670
12.05 12.086320 5.20 91.20 128.888890
12.04 12.077830 5.191670 91.191670 131.111110
12.03 12.069350 5.183330 91.183330 133.333330
12.02 12.060860 5.1750 91.1750 135.384620
12.01 12.052370 5.166670 91.166670 137.43590
12.00 12.041760 5.158330 91.158330 139.487180
11.99 12.031150 5.150 91.150 141.538460
11.98 12.020540 5.141670 91.141670 143.589740
11.97 12.009930 5.133330 91.133330 145.641030
11.96 11.999320 5.1250 91.1250 147.692310
11.95 11.988710 5.116670 91.116670 149.743590
11.94 11.97810 5.108330 91.108330 151.794870
11.93 11.967490 5.10 91.10 153.846150
11.92 11.956660 5.084620 91.061540 155.897440
11.91 11.945820 5.069230 91.023080 157.948720
11.90 11.934990 5.053850 90.984620 160.0
11.89 11.924150 5.038460 90.946150 158.974360
11.88 11.915670 5.023080 90.907690 157.948720
11.87 11.907180 5.007690 90.869230 156.923080
11.86 11.898690 4.992310 90.830770 155.897440
11.85 11.89020 4.976920 90.792310 154.871790
11.84 11.881720 4.961540 90.753850 153.846150
11.83 11.870880 4.946150 90.715380 152.820510
11.82 11.860050 4.930770 90.676920 151.794870
11.81 11.849210 4.915380 90.638460 150.769230
11.80 11.838370 4.90 90.60 149.743590
11.79 11.827770 4.892310 91.284620 148.717950
11.78 11.817160 4.884620 91.969230 147.692310
11.77 11.806550 4.876920 92.653850 146.666670
11.76 11.795940 4.869230 93.338460 145.897440
11.75 11.785330 4.861540 94.023080 145.128210
11.74 11.774720 4.853850 94.707690 144.358970
11.73 11.764110 4.846150 95.392310 143.589740
11.72 11.75350 4.838460 96.076920 142.820510
11.71 11.745010 4.830770 96.761540 142.051280
11.70 11.736520 4.823080 97.446150 141.282050
11.69 11.728040 4.815380 98.130770 140.512820
11.68 11.719550 4.807690 98.815380 139.743590
11.67 11.711060 4.80 99.50 138.974360
11.66 11.700450 4.80 99.392310 138.205130
11.65 11.689840 4.80 99.284620 137.43590
11.64 11.679230 4.80 99.176920 136.666670
11.63 11.668620 4.80 99.069230 139.230770
11.62 11.658010 4.80 98.961540 141.794870
11.61 11.64740 4.80 98.853850 144.358970
11.60 11.636790 4.80 98.746150 146.923080
11.59 11.626190 4.80 98.638460 149.487180
11.58 11.615580 4.80 98.530770 152.051280
11.57 11.604970 4.80 98.423080 154.615380
11.56 11.594360 4.80 98.315380 157.179490
11.55 11.583750 4.80 98.207690 159.743590
11.54 11.575440 4.80 98.10 162.307690
11.53 11.567130 4.783330 97.550 164.871790
11.52 11.558830 4.766670 97.0 167.43590
11.51 11.550520 4.750 96.450 170.0
11.50 11.542210 4.733330 95.90 168.888890
11.49 11.53160 4.716670 95.350 167.777780
11.48 11.520990 4.70 94.80 166.666670
11.47 11.510380 4.683330 94.250 165.555560
11.46 11.499770 4.666670 93.70 164.444440
11.45 11.489160 4.650 93.150 163.333330
11.44 11.478560 4.633330 92.60 162.222220
11.43 11.467950 4.616670 92.050 161.111110
11.42 11.457340 4.60 91.50 160.0
11.41 11.446950 4.630770 91.80 158.888890
11.40 11.436570 4.661540 92.10 157.777780
11.39 11.426190 4.692310 92.40 156.666670
11.38 11.41580 4.723080 92.70 156.077420
11.37 11.405190 4.753850 93.0 155.488170
11.36 11.394580 4.784620 93.30 154.898920
11.35 11.383970 4.815380 93.60 154.309680
11.34 11.373360 4.846150 93.90 153.720430
11.33 11.364880 4.876920 94.20 153.131180
11.32 11.356390 4.907690 94.50 152.541940
11.31 11.34790 4.938460 94.80 151.952690
11.30 11.339410 4.969230 95.10 151.363440
11.29 11.330930 5.0 95.40 150.774190
11.28 11.320320 4.961540 95.469230 150.184950
11.27 11.309710 4.923080 95.538460 149.59570
11.26 11.29910 4.884620 95.607690 149.006450
11.25 11.288490 4.846150 95.676920 148.41720
11.24 11.277880 4.807690 95.746150 147.827960
11.23 11.267270 4.769230 95.815380 147.238710
11.22 11.256660 4.730770 95.884620 146.649460
11.21 11.246050 4.692310 95.953850 146.060220
11.20 11.235670 4.653850 96.023080 145.470970
11.19 11.225280 4.615380 96.092310 144.881720
11.18 11.21490 4.576920 96.161540 144.292470
11.17 11.204510 4.538460 96.230770 143.703230
11.16 11.195850 4.50 96.30 143.113980
11.15 11.187180 4.450 96.0250 142.524730
11.14 11.178510 4.40 95.750 141.935480
11.13 11.169840 4.350 95.4750 139.735320
11.12 11.161170 4.30 95.20 137.535150
11.11 11.150560 4.250 94.9250 135.334990
11.10 11.139950 4.20 94.650 133.134820
11.09 11.129350 4.150 94.3750 130.934660
11.08 11.118740 4.10 94.10 128.734490
11.07 11.108130 4.050 93.8250 126.534330
11.06 11.097520 4.0 93.550 124.334160
11.05 11.086910 3.950 93.2750 122.1340
11.04 11.07630 3.90 93.0 119.933830
11.03 11.065690 3.923080 93.461540 117.733660
11.02 11.055080 3.946150 93.923080 115.53350
11.01 11.044470 3.969230 94.384620 113.333330
11.00 11.033860 3.992310 94.846150 118.205130
10.99 11.025370 4.015380 95.307690 123.076920
10.98 11.016880 4.038460 95.769230 127.948720
10.97 11.00840 4.061540 96.230770 132.820510
10.96 10.999910 4.084620 96.692310 137.692310
10.95 10.991420 4.107690 97.153850 142.56410
10.94 10.980590 4.130770 97.615380 147.43590
10.93 10.969750 4.153850 98.076920 152.307690
10.92 10.958920 4.176920 98.538460 157.179490
10.91 10.948080 4.20 99.0 162.051280
10.90 10.937470 4.146150 98.746150 166.923080
10.89 10.926860 4.092310 98.492310 171.794870
10.88 10.916250 4.038460 98.238460 176.666670
10.87 10.905640 3.984620 97.984620 174.358970
10.86 10.895030 3.930770 97.730770 172.051280
10.85 10.884420 3.876920 97.476920 169.743590
10.84 10.873810 3.823080 97.223080 167.43590
10.83 10.863210 3.769230 96.969230 165.128210
10.82 10.854720 3.715380 96.715380 162.820510
10.81 10.846230 3.661540 96.461540 160.512820
10.80 10.837740 3.607690 96.207690 158.205130
10.79 10.829260 3.553850 95.953850 155.897440
10.78 10.820770 3.50 95.70 153.589740
10.77 10.810160 3.515380 95.276920 151.282050
10.76 10.799550 3.530770 94.853850 148.974360
10.75 10.788940 3.546150 94.430770 146.666670
10.74 10.778330 3.561540 94.007690 149.722220
10.73 10.767720 3.576920 93.584620 152.777780
10.72 10.757110 3.592310 93.161540 155.833330
10.71 10.74650 3.607690 92.738460 158.888890
10.70 10.735890 3.623080 92.315380 161.944440
10.69 10.725280 3.638460 91.892310 165.0
10.68 10.714670 3.653850 91.469230 168.055560
10.67 10.704060 3.669230 91.046150 171.111110
10.66 10.693450 3.684620 90.623080 174.166670
10.65 10.684970 3.70 90.20 177.222220
10.64 10.676480 3.741670 91.191670 180.277780
10.63 10.667990 3.783330 92.183330 183.333330
10.62 10.65950 3.8250 93.1750 182.051280
10.61 10.651020 3.866670 94.166670 180.769230
10.60 10.640410 3.908330 95.158330 179.487180
10.59 10.62980 3.950 96.150 178.205130
10.58 10.619190 3.991670 97.141670 176.923080
10.57 10.608580 4.033330 98.133330 175.641030
10.56 10.597970 4.0750 99.1250 174.358970
10.55 10.587360 4.116670 100.116670 173.076920
10.54 10.576750 4.158330 101.108330 171.794870
10.53 10.566140 4.20 102.10 170.512820
10.52 10.555530 4.223080 101.684620 169.230770
10.51 10.544920 4.246150 101.269230 167.948720
10.50 10.534310 4.269230 100.853850 166.666670
10.49 10.52370 4.292310 100.438460 166.666670
10.48 10.51540 4.315380 100.023080 166.666670
10.47 10.507090 4.338460 99.607690 166.666670
10.46 10.498780 4.361540 99.192310 166.666670
10.45 10.490470 4.384620 98.776920 166.666670
10.44 10.482170 4.407690 98.361540 166.666670
