~VERSION INFORMATION SECTION
VERS. 2.0 : CWLS LAS-VERSION 2.0
WRAP. NO : One line per depth step
~WELL INFORMATION SECTION
# MNEM.UNIT VALUE/NAME DESCRIPTION
#-------- -------------- ---------------------
STRT.Metres 17 : Start
STOP.Metres 0.39 : Stop
STEP.Metres -0.01 : Step
NULL.  -999.25 :NULL VALUE
DATE. 2025-14-11 : DATE
~CURVE INFORMATION SECTION
DEPTH.Metres : 0 Depth
Depth. : 1 Depth
Incline.Deg : 2 Incline
Azimuth.Deg : 3 Azimuth
GR.CPS : 4 GR
~PARAMETER INFORMATION SECTION
~OTHER
#-------------------------------------------------
#Produced By: GeoVista Logger - Version 7.1.107.0
Natural Gamma Sonde - 6447
Verticality Sonde - 6292
#-------------------------------------------------
~ASCII LOG DATA
# ...
4.45 4.452370 3.50 91.40 178.888890
4.44 4.442440 3.466670 91.90 191.111110
4.43 4.433410 3.433330 92.40 203.333330
4.42 4.423480 3.40 92.90 181.111110
4.41 4.413540 3.40 93.133330 158.888890
4.40 4.403610 3.40 93.366670 136.666670
4.39 4.394580 3.40 93.60 137.777780
4.38 4.384650 3.40 93.0 138.888890
4.37 4.374720 3.40 92.40 140.0
4.36 4.365690 3.40 91.80 135.555560
4.35 4.355760 3.366670 93.30 131.111110
4.34 4.345820 3.333330 94.80 126.666670
4.33 4.336790 3.30 96.30 148.333330
4.32 4.326860 3.333330 94.833330 170.0
4.31 4.316930 3.366670 93.366670 163.333330
4.30 4.30790 3.40 91.90 156.666670
4.29 4.297970 3.366670 92.60 150.0
4.28 4.288040 3.333330 93.30 151.111110
4.27 4.279010 3.30 94.0 152.222220
4.26 4.269070 3.30 93.30 153.333330
4.25 4.254630 3.30 92.60 150.0
4.24 4.240180 3.266670 93.0 146.666670
4.23 4.230250 3.233330 93.40 143.333330
4.22 4.221220 3.20 93.80 154.695340
4.21 4.211290 3.233330 93.50 166.057350
4.20 4.201350 3.266670 93.20 177.419350
4.19 4.192330 3.30 92.90 164.946240
4.18 4.182390 3.266670 92.60 152.473120
4.17 4.172460 3.233330 92.30 140.0
4.16 4.162530 3.20 92.0 137.777780
4.15 4.15350 3.20 92.366670 135.555560
4.14 4.143570 3.20 92.733330 133.333330
4.13 4.133630 3.20 93.10 141.111110
4.12 4.12460 3.20 91.90 148.888890
4.11 4.114670 3.20 90.70 156.666670
4.10 4.104740 3.20 89.50 166.666670
4.09 4.095710 3.166670 90.833330 176.666670
4.08 4.085780 3.133330 92.166670 186.666670
4.07 4.075850 3.10 93.50 151.111110
4.06 4.065910 3.133330 92.833330 115.555560
4.05 4.056880 3.166670 92.166670 80.0
4.04 4.046950 3.20 91.50 88.333330
4.03 4.037020 3.20 90.833330 96.666670
4.02 4.027090 3.20 90.166670 105.0
4.01 4.018060 3.20 89.50 104.166670
4.00 4.008130 3.166670 91.233330 103.333330
3.99 3.998190 3.133330 92.966670 105.555560
3.98 3.989160 3.10 94.70 107.777780
3.97 3.979230 3.10 93.60 110.0
3.96 3.96930 3.10 92.50 130.0
3.95 3.954850 3.10 91.60 150.0
3.94 3.940410 3.10 90.70 170.0
3.93 3.930470 3.10 89.80 161.111110
3.92 3.920540 3.066670 91.80 152.222220
3.91 3.911510 3.033330 93.80 143.333330
3.90 3.901580 3.0 95.80 158.888890
3.89 3.891650 3.033330 92.70 174.444440
3.88 3.881720 3.066670 89.60 190.0
3.87 3.871780 3.10 86.50 168.888890
3.86 3.861850 3.133330 89.166670 147.777780
3.85 3.851920 3.166670 91.833330 126.666670
3.84 3.841990 3.20 94.50 133.333330
3.83 3.832050 3.20 91.733330 140.0
3.82 3.822120 3.20 88.966670 146.666670
3.81 3.812190 3.20 86.20 143.333330
3.80 3.801350 3.233330 86.466670 140.0
3.79 3.791420 3.266670 86.733330 136.666670
3.78 3.781490 3.30 87.0 144.444440
3.77 3.771560 3.266670 88.533330 152.222220
3.76 3.761630 3.233330 90.066670 160.0
3.75 3.751690 3.20 91.60 144.444440
3.74 3.741760 3.20 90.20 128.888890
3.73 3.731830 3.20 88.80 113.333330
3.72 3.72190 3.20 87.40 131.111110
3.71 3.711960 3.166670 88.50 148.888890
3.70 3.702030 3.133330 89.60 166.666670
3.69 3.69210 3.10 90.70 156.666670
3.68 3.682170 3.133330 89.90 146.666670
3.67 3.672230 3.166670 89.10 136.666670
3.66 3.66140 3.20 88.30 153.81720
3.65 3.651470 3.10 90.450 170.967740
3.64 3.641530 3.0 92.60 169.534050
3.63 3.63160 3.033330 91.133330 168.100360
3.62 3.621670 3.066670 89.666670 166.666670
3.61 3.611740 3.10 88.20 160.0
3.60 3.601810 3.066670 89.10 153.333330
3.59 3.591870 3.033330 90.0 146.666670
3.58 3.581940 3.0 90.90 142.222220
3.57 3.572010 2.966670 90.633330 137.777780
3.56 3.561170 2.933330 90.366670 133.333330
3.55 3.551240 2.90 90.10 142.222220
3.54 3.541310 2.933330 89.533330 151.111110
3.53 3.532280 2.966670 88.966670 160.0
3.52 3.522350 3.0 88.40 165.555560
3.51 3.512420 2.966670 88.933330 171.111110
3.50 3.502480 2.933330 89.466670 176.666670
3.49 3.492550 2.90 90.0 174.444440
3.48 3.482620 2.866670 89.433330 172.222220
3.47 3.473590 2.833330 88.866670 170.0
3.46 3.463660 2.80 88.30 180.0
3.45 3.453720 2.80 86.60 190.0
3.44 3.44470 2.80 84.90 200.0
3.43 3.434760 2.80 83.20 194.444440
3.42 3.424830 2.766670 85.633330 188.888890
3.41 3.41580 2.733330 88.066670 183.333330
3.40 3.405870 2.70 90.50 186.666670
3.39 3.395940 2.733330 88.366670 190.0
3.38 3.3860 2.766670 86.233330 193.333330
3.37 3.376070 2.80 84.10 196.666670
3.36 3.367040 2.80 85.133330 200.0
3.35 3.357110 2.80 86.166670 195.555560
3.34 3.347180 2.80 87.20 191.111110
3.33 3.337250 2.766670 87.533330 186.666670
3.32 3.327310 2.733330 87.866670 183.333330
3.31 3.317380 2.70 88.20 180.0
3.30 3.307450 2.733330 87.0 176.666670
3.29 3.297520 2.766670 85.80 184.444440
3.28 3.287580 2.80 84.60 192.222220
3.27 3.277650 2.733330 85.90 200.0
3.26 3.268620 2.666670 87.20 190.0
3.25 3.258690 2.60 88.50 180.0
3.24 3.248760 2.633330 86.733330 170.0
3.23 3.238830 2.666670 84.966670 172.222220
3.22 3.228890 2.70 83.20 174.444440
3.21 3.218960 2.70 84.566670 176.666670
3.20 3.209030 2.70 85.933330 171.111110
3.19 3.19910 2.70 87.30 165.555560
3.18 3.189160 2.733330 84.833330 160.0
3.17 3.174720 2.766670 82.366670 164.444440
3.16 3.160270 2.80 79.90 168.888890
3.15 3.150340 2.766670 81.933330 173.333330
3.14 3.140410 2.733330 83.966670 173.333330
3.13 3.130470 2.70 86.0 173.333330
3.12 3.120540 2.666670 84.733330 173.333330
3.11 3.110610 2.633330 83.466670 181.146950
3.10 3.100680 2.60 82.20 188.960570
3.09 3.090740 2.633330 81.833330 196.774190
3.08 3.080810 2.666670 81.466670 165.053760
3.07 3.070880 2.70 81.10 133.333330
3.06 3.060950 2.666670 82.833330 135.555560
3.05 3.051020 2.633330 84.566670 137.777780
3.04 3.041080 2.60 86.30 140.0
3.03 3.031150 2.60 85.10 141.111110
3.02 3.021220 2.60 83.90 142.222220
3.01 3.011290 2.60 82.70 143.333330
3.00 3.001350 2.633330 83.066670 148.888890
2.99 2.992330 2.666670 83.433330 154.444440
2.98 2.982390 2.70 83.80 160.0
2.97 2.971560 2.70 83.366670 157.777780
2.96 2.961630 2.70 82.933330 155.555560
2.95 2.951690 2.70 82.50 153.333330
2.94 2.941760 2.70 83.466670 171.111110
2.93 2.931830 2.70 84.433330 188.888890
2.92 2.92190 2.70 85.40 206.666670
2.91 2.911960 2.733330 85.133330 185.555560
2.90 2.902030 2.766670 84.866670 164.444440
2.89 2.89210 2.80 84.60 143.333330
2.88 2.882170 2.760 86.080 154.444440
2.87 2.872230 2.720 87.560 165.555560
2.86 2.86230 2.680 89.040 176.666670
2.85 2.852370 2.640 90.520 181.111110
2.84 2.842440 2.60 92.0 185.555560
2.83 2.832510 2.60 90.90 190.0
2.82 2.822570 2.60 89.80 193.333330
2.81 2.812640 2.60 88.70 196.666670
2.80 2.802710 2.60 87.60 200.0
2.79 2.792780 2.60 86.50 184.444440
2.78 2.782840 2.60 85.40 168.888890
2.77 2.772010 2.60 85.666670 153.333330
2.76 2.762080 2.60 85.933330 155.555560
2.75 2.752140 2.60 86.20 157.777780
2.74 2.742210 2.60 85.866670 160.0
2.73 2.732280 2.60 85.533330 153.333330
2.72 2.722350 2.60 85.20 146.666670
2.71 2.712420 2.60 85.866670 140.0
2.70 2.702480 2.60 86.533330 140.0
2.69 2.691650 2.60 87.20 140.0
2.68 2.681720 2.466670 84.40 140.0
2.67 2.670880 2.333330 81.60 151.111110
2.66 2.660950 2.20 78.80 162.222220
2.65 2.651020 2.266670 80.866670 173.333330
2.64 2.640180 2.333330 82.933330 166.666670
2.63 2.630250 2.40 85.0 160.0
2.62 2.625280 2.416670 84.516670 153.333330
2.61 2.620320 2.433330 84.033330 166.666670
2.60 2.604970 2.450 83.550 180.0
2.59 2.591420 2.466670 83.066670 193.333330
2.58 2.581490 2.483330 82.583330 186.666670
2.57 2.571560 2.50 82.10 180.0
2.56 2.561630 2.50 81.10 173.333330
2.55 2.551690 2.50 80.10 169.3190
2.54 2.541760 2.50 79.10 165.304660
2.53 2.531830 2.50 80.333330 161.290320
2.52 2.52280 2.50 81.566670 160.860220
2.51 2.512870 2.50 82.80 160.430110
2.50 2.502930 2.50 82.233330 160.0
2.49 2.4930 2.50 81.666670 170.0
2.48 2.483070 2.50 81.10 180.0
2.47 2.473140 2.50 81.566670 190.0
2.46 2.463210 2.50 82.033330 177.777780
2.45 2.453270 2.50 82.50 165.555560
2.44 2.443340 2.50 82.066670 153.333330
2.43 2.433410 2.50 81.633330 166.666670
2.42 2.423480 2.50 81.20 180.0
2.41 2.413540 2.50 81.016670 193.333330
2.40 2.403610 2.50 80.833330 187.777780
2.39 2.393680 2.50 80.650 182.222220
2.38 2.383750 2.50 80.466670 176.666670
2.37 2.373810 2.50 80.283330 180.0
2.36 2.363880 2.50 80.10 183.333330
2.35 2.353950 2.533330 81.50 186.666670
