~VERSION INFORMATION SECTION
VERS. 2.0 : CWLS LAS-VERSION 2.0
WRAP. NO : One line per depth step
~WELL INFORMATION SECTION
# MNEM.UNIT VALUE/NAME DESCRIPTION
#-------- -------------- ---------------------
STRT.Metres 16 : Start
STOP.Metres 0.47 : Stop
STEP.Metres -0.01 : Step
NULL.  -999.25 :NULL VALUE
DATE. 2025-18-11 : DATE
~CURVE INFORMATION SECTION
DEPTH.Metres : 0 Depth
Depth. : 1 Depth
Incline.Deg : 2 Incline
Azimuth.Deg : 3 Azimuth
GR.CPS : 4 GR
~PARAMETER INFORMATION SECTION
~OTHER
#-------------------------------------------------
#Produced By: GeoVista Logger - Version 7.1.107.0
Natural Gamma Sonde - 6447
Verticality Sonde - 6292
#-------------------------------------------------
~ASCII LOG DATA
# ...
7.37 7.381490 4.30 99.70 176.666670
7.36 7.373360 4.30 99.6250 173.333330
7.35 7.364790 4.30 99.550 170.0
7.34 7.356210 4.30 99.4750 174.0
7.33 7.339950 4.30 99.40 178.0
7.32 7.331380 4.30 99.560 182.0
7.31 7.32280 4.30 99.720 186.0
7.30 7.314670 4.30 99.880 190.0
7.29 7.306550 4.30 100.040 188.0
7.28 7.289390 4.30 100.20 186.0
7.27 7.281260 4.30 100.460 184.0
7.26 7.273140 4.30 100.720 182.0
7.25 7.264560 4.30 100.980 180.0
7.24 7.255980 4.30 101.240 170.0
7.23 7.239730 4.30 101.50 160.0
7.22 7.231150 4.30 101.260 150.0
7.21 7.222570 4.30 101.020 140.0
7.20 7.206320 4.30 100.780 130.0
7.19 7.198190 4.30 100.540 136.666670
7.18 7.190070 4.30 100.30 143.333330
7.17 7.181940 4.30 100.120 150.0
7.16 7.173810 4.30 99.940 156.666670
7.15 7.157560 4.30 99.760 163.333330
7.14 7.149440 4.30 99.580 157.177420
7.13 7.141310 4.30 99.40 151.021510
7.12 7.132730 4.280 100.040 144.865590
7.11 7.124150 4.260 100.680 138.709680
7.10 7.10790 4.240 101.320 138.967740
7.09 7.099770 4.220 101.960 139.225810
7.08 7.091650 4.20 102.60 139.483870
7.07 7.083520 4.220 102.160 139.741940
7.06 7.07540 4.240 101.720 140.0
7.05 7.059140 4.260 101.280 152.0
7.04 7.050560 4.280 100.840 164.0
7.03 7.041990 4.30 100.40 176.0
7.02 7.033860 4.280 100.0 188.0
7.01 7.025730 4.260 99.60 200.0
7.00 7.009480 4.240 99.20 184.666670
6.99 7.001350 4.220 98.80 169.333330
6.98 6.993230 4.20 98.40 154.0
6.97 6.976980 4.20 99.380 138.666670
6.96 6.968850 4.20 100.360 123.333330
6.95 6.960720 4.20 101.340 132.666670
6.94 6.953050 4.20 102.320 142.0
6.93 6.945370 4.20 103.30 151.333330
6.92 6.929120 4.20 103.320 160.666670
6.91 6.920990 4.20 103.340 170.0
6.90 6.912870 4.20 103.360 161.333330
6.89 6.897520 4.20 103.380 152.666670
6.88 6.889390 4.20 103.40 144.0
6.87 6.881260 4.180 102.660 135.333330
6.86 6.873140 4.160 101.920 126.666670
6.85 6.865010 4.140 101.180 137.333330
6.84 6.848760 4.120 100.440 148.0
6.83 6.840630 4.10 99.70 158.666670
6.82 6.832510 4.10 100.380 169.333330
6.81 6.824380 4.10 101.060 180.0
6.80 6.816250 4.10 101.740 173.333330
6.79 6.80 4.10 102.420 166.666670
6.78 6.791870 4.10 103.10 160.0
6.77 6.783750 4.10 102.340 153.333330
6.76 6.767490 4.10 101.580 146.666670
6.75 6.759370 4.10 100.820 138.0
6.74 6.751240 4.10 100.060 129.333330
6.73 6.743120 4.10 99.30 120.666670
6.72 6.734990 4.080 99.720 112.0
6.71 6.717830 4.060 100.140 103.333330
6.70 6.709710 4.040 100.560 118.666670
6.69 6.701580 4.020 100.980 134.0
6.68 6.693450 4.0 101.40 149.333330
6.67 6.685330 4.020 101.20 164.666670
6.66 6.669070 4.040 101.0 180.0
6.65 6.660950 4.060 100.80 173.333330
6.64 6.652820 4.080 100.60 166.666670
6.63 6.644240 4.10 100.40 160.0
6.62 6.635670 4.0750 100.9750 153.333330
6.61 6.619410 4.050 101.550 146.666670
6.60 6.611290 4.0250 102.1250 148.0
6.59 6.603160 4.0 102.70 149.333330
6.58 6.594580 4.020 102.120 150.666670
6.57 6.5860 4.040 101.540 152.0
6.56 6.569750 4.060 100.960 153.333330
6.55 6.561630 4.080 100.380 151.666670
6.54 6.55350 4.10 99.80 150.0
6.53 6.537250 4.080 100.140 148.333330
6.52 6.529120 4.060 100.480 146.666670
6.51 6.520990 4.040 100.820 133.333330
6.50 6.512420 4.020 101.160 120.0
6.49 6.503840 4.0 101.50 106.666670
6.48 6.487580 4.0 100.940 93.333330
6.47 6.479460 4.0 100.380 80.0
6.46 6.471330 4.0 99.820 91.111110
6.45 6.462750 4.0 99.260 102.222220
6.44 6.454180 4.0 98.70 113.333330
6.43 6.437920 4.0 98.90 124.444440
6.42 6.42980 4.0 99.10 135.555560
6.41 6.421670 4.0 99.30 146.666670
6.40 6.413090 4.0 99.50 145.833330
6.39 6.404510 4.0 99.70 145.0
6.38 6.388260 4.0 99.540 144.166670
6.37 6.380140 4.0 99.380 143.333330
6.36 6.372010 4.0 99.220 156.0
6.35 6.363430 4.0 99.060 168.666670
6.34 6.354850 4.0 98.90 181.333330
6.33 6.33860 4.0 98.320 194.0
6.32 6.330470 4.0 97.740 206.666670
6.31 6.322350 4.0 97.160 188.666670
6.30 6.314220 4.0 96.580 170.666670
6.29 6.306090 4.0 96.0 152.666670
6.28 6.288940 4.0 96.80 134.666670
6.27 6.280810 4.0 97.60 116.666670
6.26 6.272690 4.0 98.40 126.666670
6.25 6.256430 4.0 99.20 136.666670
6.24 6.248310 4.0 100.0 146.666670
6.23 6.240180 4.0 99.920 156.666670
6.22 6.232050 4.0 99.840 166.666670
6.21 6.223930 4.0 99.760 172.688170
6.20 6.207670 4.0 99.680 178.709680
6.19 6.19910 4.0 99.60 184.731180
6.18 6.190520 4.0 99.440 190.752690
6.17 6.182390 4.0 99.280 196.774190
6.16 6.174270 4.0 99.120 191.419350
6.15 6.158010 4.0 98.960 186.064520
6.14 6.149890 4.0 98.80 180.709680
6.13 6.141760 4.0 98.480 175.354840
6.12 6.133180 4.0 98.160 170.0
6.11 6.12460 4.0 97.840 170.0
6.10 6.108350 4.0 97.520 170.0
6.09 6.100230 4.0 97.20 170.0
6.08 6.09210 4.0 97.90 170.0
6.07 6.083970 4.0 98.60 170.0
6.06 6.075850 4.0 99.30 171.333330
6.05 6.059590 4.0 100.0 172.666670
6.04 6.051470 4.0 100.70 174.0
6.03 6.043340 4.0 99.740 175.333330
6.02 6.027090 4.0 98.780 176.666670
6.01 6.018960 4.0 97.820 172.666670
6.00 6.010840 4.0 96.860 168.666670
5.99 6.002260 4.0 95.90 164.666670
5.98 5.993680 4.0 97.1750 160.666670
5.97 5.977430 4.0 98.450 156.666670
5.96 5.96930 4.0 99.7250 164.166670
5.95 5.961170 4.0 101.0 171.666670
5.94 5.953050 4.0 100.60 179.166670
5.93 5.944920 4.0 100.20 186.666670
5.92 5.927770 4.0 99.80 182.0
5.91 5.919640 4.0 99.40 177.333330
5.90 5.911510 4.0 99.0 172.666670
5.89 5.903390 4.0 99.220 168.0
5.88 5.895260 4.0 99.440 163.333330
5.87 5.879010 4.0 99.660 170.0
5.86 5.870880 4.0 99.880 176.666670
5.85 5.862750 4.0 100.10 183.333330
5.84 5.84650 4.0 100.280 190.0
5.83 5.838370 4.0 100.460 196.666670
5.82 5.830250 4.0 100.640 200.666670
5.81 5.822120 4.0 100.820 204.666670
5.80 5.8140 4.0 101.0 208.666670
5.79 5.798650 4.0 99.960 212.666670
5.78 5.790520 4.0 98.920 216.666670
5.77 5.782390 4.0 97.880 212.0
5.76 5.774270 4.0 96.840 207.333330
5.75 5.766140 4.0 95.80 202.666670
5.74 5.749890 4.0 96.620 198.0
5.73 5.741760 4.0 97.440 193.333330
5.72 5.733630 4.0 98.260 185.333330
5.71 5.716480 4.0 99.080 177.333330
5.70 5.708350 4.0 99.90 169.333330
5.69 5.700230 4.0 99.20 161.333330
5.68 5.69210 4.0 98.50 153.333330
5.67 5.683970 4.0 97.80 155.333330
5.66 5.667720 4.0 97.10 157.333330
5.65 5.659590 4.0 96.40 159.333330
5.64 5.651470 4.0 96.140 161.333330
5.63 5.642890 4.0 95.880 163.333330
5.62 5.634310 4.0 95.620 164.666670
5.61 5.618060 4.0 95.360 166.0
5.60 5.609930 4.0 95.10 167.333330
5.59 5.601810 4.0 95.480 168.666670
5.58 5.593680 4.0 95.860 170.0
5.57 5.585550 4.0 96.240 178.0
5.56 5.56840 4.0 96.620 186.0
5.55 5.560270 4.0 97.0 194.0
5.54 5.552140 3.980 96.860 202.0
5.53 5.543570 3.960 96.720 210.0
5.52 5.534990 3.940 96.580 204.0
5.51 5.518740 3.920 96.440 198.0
5.50 5.510610 3.90 96.30 192.0
5.49 5.502480 3.90 96.9750 186.0
5.48 5.493910 3.90 97.650 180.0
5.47 5.485330 3.90 98.3250 175.333330
5.46 5.469070 3.90 99.0 170.666670
5.45 5.460950 3.90 97.860 166.0
5.44 5.452820 3.90 96.720 161.333330
5.43 5.436570 3.90 95.580 156.666670
5.42 5.428440 3.90 94.440 157.333330
5.41 5.420320 3.90 93.30 158.0
5.40 5.411740 3.880 94.520 158.666670
5.39 5.403160 3.860 95.740 159.333330
5.38 5.386910 3.840 96.960 160.0
5.37 5.378780 3.820 98.180 162.666670
5.36 5.370650 3.80 99.40 165.333330
5.35 5.362530 3.80 98.90 168.0
5.34 5.35440 3.80 98.40 170.666670
5.33 5.338150 3.80 97.90 173.333330
5.32 5.330020 3.80 97.40 175.333330
5.31 5.32190 3.80 96.90 177.333330
5.30 5.313770 3.80 96.40 179.333330
5.29 5.305640 3.80 95.90 181.333330
5.28 5.289390 3.80 95.40 183.333330
5.27 5.281260 3.80 94.90 185.376340
5.26 5.273140 3.80 94.40 187.419350
5.25 5.256880 3.80 94.620 189.462370
5.24 5.248760 3.80 94.840 191.505380
5.23 5.240630 3.80 95.060 193.548390
5.22 5.232050 3.80 95.280 191.827960
5.21 5.223480 3.80 95.50 190.107530
5.20 5.207220 3.80 95.80 188.38710
5.19 5.19910 3.80 96.10 186.666670
5.18 5.190970 3.80 96.40 178.0
5.17 5.182840 3.80 96.70 169.333330
5.16 5.174720 3.80 97.0 160.666670
5.15 5.158470 3.80 96.920 152.0
5.14 5.150340 3.80 96.840 143.333330
5.13 5.142210 3.80 96.760 148.0
5.12 5.134090 3.80 96.680 152.666670
5.11 5.125960 3.80 96.60 157.333330
5.10 5.109710 3.760 96.80 162.0
5.09 5.101130 3.720 97.0 166.666670
