~VERSION INFORMATION SECTION
VERS. 2.0 : CWLS LAS-VERSION 2.0
WRAP. NO : One line per depth step
~WELL INFORMATION SECTION
# MNEM.UNIT VALUE/NAME DESCRIPTION
#-------- -------------- ---------------------
STRT.Metres 17 : Start
STOP.Metres 0.39 : Stop
STEP.Metres -0.01 : Step
NULL.  -999.25 :NULL VALUE
DATE. 2025-14-11 : DATE
~CURVE INFORMATION SECTION
DEPTH.Metres : 0 Depth
Depth. : 1 Depth
Incline.Deg : 2 Incline
Azimuth.Deg : 3 Azimuth
GR.CPS : 4 GR
~PARAMETER INFORMATION SECTION
~OTHER
#-------------------------------------------------
#Produced By: GeoVista Logger - Version 7.1.107.0
Natural Gamma Sonde - 6447
Verticality Sonde - 6292
#-------------------------------------------------
~ASCII LOG DATA
# ...
6.60 6.605870 4.10 101.90 158.888890
6.59 6.595940 4.10 100.766670 161.111110
6.58 6.586910 4.10 99.633330 163.333330
6.57 6.576980 4.10 98.50 156.666670
6.56 6.567040 4.10 99.133330 150.0
6.55 6.557110 4.10 99.766670 143.333330
6.54 6.547180 4.10 100.40 144.76190
6.53 6.537250 4.066670 100.433330 146.190480
6.52 6.528220 4.033330 100.466670 147.619050
6.51 6.518280 4.0 100.50 118.253970
6.50 6.508350 4.033330 99.533330 88.888890
6.49 6.498420 4.066670 98.566670 111.481480
6.48 6.488490 4.10 97.60 134.074070
6.47 6.479460 4.050 98.70 156.666670
6.46 6.469530 4.0 99.80 162.222220
6.45 6.459590 4.0 99.733330 167.777780
6.44 6.445150 4.0 99.666670 173.333330
6.43 6.43070 4.0 99.60 161.58730
6.42 6.420770 4.0 99.166670 149.841270
6.41 6.410840 4.0 98.733330 138.095240
6.40 6.401810 4.0 98.30 135.396830
6.39 6.391870 4.0 98.366670 132.698410
6.38 6.381940 4.0 98.433330 130.0
6.37 6.372010 4.0 98.50 137.777780
6.36 6.362080 4.0 99.0 145.555560
6.35 6.352140 4.0 99.50 153.333330
6.34 6.342210 4.0 100.0 163.333330
6.33 6.333180 4.0 99.266670 173.333330
6.32 6.323250 4.0 98.533330 183.333330
6.31 6.313320 4.0 97.80 164.444440
6.30 6.303390 4.0 98.233330 145.555560
6.29 6.293450 4.0 98.666670 126.666670
6.28 6.284420 4.0 99.10 133.333330
6.27 6.274490 4.0 98.90 140.0
6.26 6.264560 4.0 98.70 146.666670
6.25 6.254630 4.0 98.50 151.111110
6.24 6.24470 4.0 98.033330 155.555560
6.23 6.235670 4.0 97.566670 160.0
6.22 6.225730 4.0 97.10 145.555560
6.21 6.21580 4.0 97.166670 131.111110
6.20 6.205870 4.0 97.233330 116.666670
6.19 6.196840 4.0 97.30 131.111110
6.18 6.186910 4.0 96.933330 145.555560
6.17 6.176980 4.0 96.566670 160.0
6.16 6.167950 4.0 96.20 147.777780
6.15 6.158010 4.0 97.80 135.555560
6.14 6.148080 4.0 99.40 123.333330
6.13 6.139050 4.0 98.433330 148.333330
6.12 6.129120 4.0 97.466670 173.333330
6.11 6.119190 4.0 96.50 171.111110
6.10 6.104740 3.966670 97.333330 168.888890
6.09 6.090290 3.933330 98.166670 166.666670
6.08 6.080360 3.90 99.0 162.222220
6.07 6.070430 3.90 98.266670 157.777780
6.06 6.06140 3.90 97.533330 153.333330
6.05 6.051470 3.90 96.80 177.777780
6.04 6.041530 3.933330 97.466670 202.222220
6.03 6.03160 3.966670 98.133330 226.666670
6.02 6.022570 4.0 98.80 220.0
6.01 6.012640 3.966670 99.10 213.333330
6.00 6.002710 3.933330 99.40 206.666670
5.99 5.992780 3.90 99.70 202.857140
5.98 5.983750 3.933330 99.266670 199.047620
5.97 5.973810 3.966670 98.833330 195.23810
5.96 5.963880 4.0 98.40 193.121690
5.95 5.954850 4.0 99.066670 191.005290
5.94 5.944920 4.0 99.733330 188.888890
5.93 5.934990 4.0 100.40 191.005290
5.92 5.925960 4.0 100.066670 193.121690
5.91 5.916030 4.0 99.733330 195.23810
5.90 5.906090 4.0 99.40 147.619050
5.89 5.897070 4.0 99.366670 100.0
5.88 5.887130 4.0 99.333330 140.860220
5.87 5.87720 4.0 99.30 181.720430
5.86 5.867270 4.0 99.366670 222.580650
5.85 5.857340 4.0 99.433330 212.831540
5.84 5.84740 4.0 99.50 203.082440
5.83 5.838370 4.0 99.433330 193.333330
5.82 5.828440 4.0 99.366670 186.666670
5.81 5.818510 4.0 99.30 180.0
5.80 5.809480 4.0 98.30 173.333330
5.79 5.799550 4.0 97.30 165.555560
5.78 5.78510 4.0 98.20 157.777780
5.77 5.770650 4.0 99.10 150.0
5.76 5.760720 4.0 100.0 161.111110
5.75 5.751690 4.0 99.70 172.222220
5.74 5.741760 4.0 99.40 183.333330
5.73 5.732730 4.0 99.10 185.555560
5.72 5.72370 4.0 98.50 187.777780
5.71 5.713770 4.0 97.90 190.0
5.70 5.703840 4.0 97.30 202.222220
5.69 5.694810 3.966670 97.733330 214.444440
5.68 5.684880 3.933330 98.166670 226.666670
5.67 5.675850 3.90 98.60 214.444440
5.66 5.665910 3.933330 98.20 202.222220
5.65 5.655980 3.966670 97.80 190.0
5.64 5.646050 4.0 97.40 177.777780
5.63 5.637020 4.0 97.533330 165.555560
5.62 5.627090 4.0 97.666670 153.333330
5.61 5.617160 4.0 97.80 175.0
5.60 5.607220 3.966670 97.60 196.666670
5.59 5.598190 3.933330 97.40 186.666670
5.58 5.588260 3.90 97.20 176.666670
5.57 5.578330 3.90 97.50 166.666670
5.56 5.56840 3.90 97.80 157.777780
5.55 5.558470 3.90 98.10 148.888890
5.54 5.549440 3.90 98.366670 140.0
5.53 5.53950 3.90 98.633330 151.111110
5.52 5.529570 3.90 98.90 162.222220
5.51 5.515120 3.90 98.366670 173.333330
5.50 5.500680 3.90 97.833330 175.555560
5.49 5.490740 3.90 97.30 177.777780
5.48 5.480810 3.90 96.90 180.0
5.47 5.470880 3.90 96.50 183.333330
5.46 5.460950 3.90 96.50 186.666670
5.45 5.451020 3.90 96.50 190.0
5.44 5.441990 3.90 96.50 175.555560
5.43 5.432050 3.90 96.066670 161.111110
5.42 5.422120 3.90 95.633330 146.666670
5.41 5.412190 3.90 95.20 148.888890
5.40 5.402260 3.90 95.50 151.111110
5.39 5.393230 3.90 95.80 153.333330
5.38 5.38330 3.90 96.10 156.666670
5.37 5.373360 3.90 96.633330 160.0
5.36 5.363430 3.90 97.166670 163.333330
5.35 5.35440 3.90 97.70 164.444440
5.34 5.344470 3.90 95.10 165.555560
5.33 5.334540 3.90 92.50 166.666670
5.32 5.32460 3.90 89.90 159.498210
5.31 5.315580 3.866670 92.433330 152.329750
5.30 5.305640 3.833330 94.966670 145.161290
5.29 5.295710 3.80 97.50 157.88530
5.28 5.285780 3.80 96.866670 170.609320
5.27 5.276750 3.80 96.233330 183.333330
5.26 5.266820 3.80 95.60 182.222220
5.25 5.257790 3.80 95.033330 181.111110
5.24 5.247860 3.80 94.466670 180.0
5.23 5.237920 3.80 93.90 183.333330
5.22 5.228890 3.80 95.40 186.666670
5.21 5.218960 3.80 96.90 187.777780
5.20 5.209030 3.80 97.0 188.888890
5.19 5.195030 3.80 97.10 190.0
5.18 5.180140 3.80 97.20 167.777780
5.17 5.171110 3.80 96.866670 145.555560
5.16 5.161170 3.80 96.533330 123.333330
5.15 5.151240 3.80 96.20 140.0
5.14 5.142210 3.80 96.266670 156.666670
5.13 5.132280 3.80 96.333330 173.333330
5.12 5.122350 3.80 96.40 180.0
5.11 5.113320 3.766670 96.866670 186.666670
5.10 5.103390 3.733330 97.333330 193.333330
5.09 5.093450 3.70 97.80 208.888890
5.08 5.083520 3.70 95.966670 224.444440
5.07 5.074490 3.70 94.133330 240.0
5.06 5.064560 3.70 92.30 213.333330
5.05 5.054630 3.70 92.466670 186.666670
5.04 5.04560 3.70 92.633330 160.0
5.03 5.035670 3.70 92.80 163.333330
5.02 5.025730 3.70 94.033330 166.666670
5.01 5.01580 3.70 95.266670 170.0
5.00 5.006770 3.70 96.50 162.222220
4.99 4.996840 3.666670 95.10 154.444440
4.98 4.986910 3.633330 93.70 146.666670
4.97 4.976980 3.60 92.30 145.555560
4.96 4.967950 3.60 93.533330 144.444440
4.95 4.958010 3.60 94.766670 143.333330
4.94 4.948080 3.60 96.0 165.0
4.93 4.938150 3.633330 94.533330 186.666670
4.92 4.928220 3.666670 93.066670 183.333330
4.91 4.919190 3.70 91.60 180.0
4.90 4.909260 3.650 92.850 176.666670
4.89 4.899320 3.60 94.10 180.0
4.88 4.889390 3.60 94.0 183.333330
4.87 4.874940 3.60 93.90 186.666670
4.86 4.86050 3.60 93.80 186.666670
4.85 4.850560 3.633330 93.966670 186.666670
4.84 4.840630 3.666670 94.133330 186.666670
4.83 4.83160 3.70 94.30 178.888890
4.82 4.821670 3.70 93.366670 171.111110
4.81 4.811740 3.70 92.433330 163.333330
4.80 4.801810 3.70 91.50 164.444440
4.79 4.792780 3.666670 92.50 165.555560
4.78 4.782840 3.633330 93.50 166.666670
4.77 4.772910 3.60 94.50 171.326160
4.76 4.762980 3.60 94.166670 175.985660
4.75 4.753050 3.60 93.833330 180.645160
4.74 4.743120 3.60 93.50 179.3190
4.73 4.733180 3.633330 94.40 177.992830
4.72 4.723250 3.666670 95.30 176.666670
4.71 4.713320 3.70 96.20 171.111110
4.70 4.703390 3.683330 96.083330 165.555560
4.69 4.693450 3.666670 95.966670 160.0
4.68 4.683520 3.650 95.850 160.0
4.67 4.674490 3.633330 95.733330 160.0
4.66 4.664560 3.616670 95.616670 166.666670
4.65 4.654630 3.60 95.50 173.333330
4.64 4.64560 3.566670 95.0 180.0
4.63 4.635670 3.533330 94.50 157.777780
4.62 4.625730 3.50 94.0 135.555560
4.61 4.61670 3.533330 93.733330 113.333330
4.60 4.606770 3.566670 93.466670 136.666670
4.59 4.597740 3.60 93.20 160.0
4.58 4.587810 3.550 93.950 183.333330
4.57 4.578780 3.50 94.70 177.777780
4.56 4.568850 3.50 93.933330 172.222220
4.55 4.558920 3.50 93.166670 166.666670
4.54 4.548980 3.50 92.40 164.444440
4.53 4.534990 3.50 92.566670 162.222220
4.52 4.520090 3.50 92.733330 160.0
4.51 4.511060 3.50 92.90 166.666670
4.50 4.501130 3.50 92.133330 173.333330
4.49 4.49120 3.50 91.366670 180.0
4.48 4.482170 3.50 90.60 175.555560
4.47 4.472230 3.50 90.866670 171.111110
4.46 4.46230 3.50 91.133330 166.666670
