~VERSION INFORMATION SECTION
VERS. 2.0 : CWLS LAS-VERSION 2.0
WRAP. NO : One line per depth step
~WELL INFORMATION SECTION
# MNEM.UNIT VALUE/NAME DESCRIPTION
#-------- -------------- ---------------------
STRT.Metres 16 : Start
STOP.Metres 0.15 : Stop
STEP.Metres -0.01 : Step
NULL.  -999.25 :NULL VALUE
DATE. 2025-24-11 : DATE
~CURVE INFORMATION SECTION
DEPTH.Metres : 0 Depth
Depth. : 1 Depth
Incline.Deg : 2 Incline
Azimuth.Deg : 3 Azimuth
GR.CPS : 4 GR
~PARAMETER INFORMATION SECTION
~OTHER
#-------------------------------------------------
#Produced By: GeoVista Logger - Version 7.1.107.0
Natural Gamma Sonde - 6447
Verticality Sonde - 6292
#-------------------------------------------------
~ASCII LOG DATA
# ...
14.10 14.137250 5.892310 96.584620 153.076920
14.09 14.126640 5.90 96.60 155.384620
14.08 14.116030 5.858330 95.558330 157.692310
14.07 14.105420 5.816670 94.516670 160.0
14.06 14.094810 5.7750 93.4750 161.111110
14.05 14.086320 5.733330 92.433330 162.222220
14.04 14.077830 5.691670 91.391670 163.333330
14.03 14.069350 5.650 90.350 164.444440
14.02 14.060860 5.608330 89.308330 165.555560
14.01 14.052370 5.566670 88.266670 166.666670
14.00 14.041760 5.5250 87.2250 167.777780
13.99 14.031150 5.483330 86.183330 168.888890
13.98 14.020540 5.441670 85.141670 170.0
13.97 14.009930 5.40 84.10 171.111110
13.96 13.999320 5.369230 85.107690 172.222220
13.95 13.988710 5.338460 86.115380 173.333330
13.94 13.97810 5.307690 87.123080 172.56410
13.93 13.967490 5.276920 88.130770 171.794870
13.92 13.956880 5.246150 89.138460 171.025640
13.91 13.946280 5.215380 90.146150 170.256410
13.90 13.935670 5.184620 91.153850 169.487180
13.89 13.925060 5.153850 92.161540 168.717950
13.88 13.916390 5.123080 93.169230 167.948720
13.87 13.907720 5.092310 94.176920 167.179490
13.86 13.899050 5.061540 95.184620 166.410260
13.85 13.890380 5.030770 96.192310 165.641030
13.84 13.881720 5.0 97.20 164.871790
13.83 13.870880 5.0 96.233330 164.102560
13.82 13.860050 5.0 95.266670 163.333330
13.81 13.849210 5.0 94.30 162.496160
13.80 13.838370 5.0 93.333330 161.658990
13.79 13.827540 5.0 92.366670 160.821810
13.78 13.81670 5.0 91.40 159.984640
13.77 13.805870 5.0 90.433330 159.147470
13.76 13.795030 5.0 89.466670 158.310290
13.75 13.786370 5.0 88.50 157.473120
13.74 13.77770 5.0 87.533330 156.635940
13.73 13.769030 5.0 86.566670 155.798770
13.72 13.760360 5.0 85.60 154.96160
13.71 13.751690 5.038460 85.269230 154.124420
13.70 13.740860 5.076920 84.938460 153.287250
13.69 13.730020 5.115380 84.607690 152.450080
13.68 13.719190 5.153850 84.276920 151.61290
13.67 13.708350 5.192310 83.946150 152.589610
13.66 13.697290 5.230770 83.615380 153.566310
13.65 13.686230 5.269230 83.284620 154.543010
13.64 13.675170 5.307690 82.953850 155.519710
13.63 13.664110 5.346150 82.623080 156.496420
13.62 13.655440 5.384620 82.292310 157.473120
13.61 13.646770 5.423080 81.961540 158.449820
13.60 13.63810 5.461540 81.630770 159.426520
13.59 13.629440 5.50 81.30 160.403230
13.58 13.620770 5.515380 82.146150 161.379930
13.57 13.609930 5.530770 82.992310 162.356630
13.56 13.59910 5.546150 83.838460 163.333330
13.55 13.588260 5.561540 84.684620 160.512820
13.54 13.577430 5.576920 85.530770 157.692310
13.53 13.566590 5.592310 86.376920 154.871790
13.52 13.555760 5.607690 87.223080 152.051280
13.51 13.544920 5.623080 88.069230 149.230770
13.50 13.534090 5.638460 88.915380 146.410260
13.49 13.525420 5.653850 89.761540 143.589740
13.48 13.516750 5.669230 90.607690 140.769230
13.47 13.508080 5.684620 91.453850 137.948720
13.46 13.499410 5.70 92.30 135.128210
13.45 13.490740 5.676920 92.307690 132.307690
13.44 13.480360 5.653850 92.315380 129.487180
13.43 13.469980 5.630770 92.323080 126.666670
13.42 13.459590 5.607690 92.330770 126.923080
13.41 13.449210 5.584620 92.338460 127.179490
13.40 13.43860 5.561540 92.346150 127.43590
13.39 13.427990 5.538460 92.353850 127.692310
13.38 13.417380 5.515380 92.361540 127.948720
13.37 13.406770 5.492310 92.369230 128.205130
13.36 13.396390 5.469230 92.376920 128.461540
13.35 13.3860 5.446150 92.384620 128.717950
13.34 13.375620 5.423080 92.392310 128.974360
13.33 13.365240 5.40 92.40 129.230770
13.32 13.354630 5.423080 92.276920 129.487180
13.31 13.344020 5.446150 92.153850 129.743590
13.30 13.333410 5.469230 92.030770 130.0
13.29 13.32280 5.492310 91.907690 131.944440
13.28 13.314490 5.515380 91.784620 133.888890
13.27 13.306190 5.538460 91.661540 135.833330
13.26 13.297880 5.561540 91.538460 137.777780
13.25 13.289570 5.584620 91.415380 139.722220
13.24 13.281260 5.607690 91.292310 141.666670
13.23 13.270650 5.630770 91.169230 143.611110
13.22 13.260050 5.653850 91.046150 145.555560
13.21 13.249440 5.676920 90.923080 147.50
13.20 13.238830 5.70 90.80 149.444440
13.19 13.228440 5.684620 90.969230 151.388890
13.18 13.218060 5.669230 91.138460 153.333330
13.17 13.207670 5.653850 91.307690 152.051280
13.16 13.197290 5.638460 91.476920 150.769230
13.15 13.186680 5.623080 91.646150 149.487180
13.14 13.176070 5.607690 91.815380 148.205130
13.13 13.165460 5.592310 91.984620 146.923080
13.12 13.154850 5.576920 92.153850 145.641030
13.11 13.144470 5.561540 92.323080 144.358970
13.10 13.134090 5.546150 92.492310 143.076920
13.09 13.12370 5.530770 92.661540 141.794870
13.08 13.113320 5.515380 92.830770 140.512820
13.07 13.104830 5.50 93.0 139.230770
13.06 13.096340 5.484620 92.653850 137.948720
13.05 13.087860 5.469230 92.307690 136.666670
13.04 13.079370 5.453850 91.961540 133.076920
13.03 13.070880 5.438460 91.615380 129.487180
13.02 13.060270 5.423080 91.269230 125.897440
13.01 13.049660 5.407690 90.923080 122.307690
13.00 13.039050 5.392310 90.576920 118.717950
12.99 13.028440 5.376920 90.230770 115.128210
12.98 13.017830 5.361540 89.884620 111.538460
12.97 13.007220 5.346150 89.538460 107.948720
12.96 12.996610 5.330770 89.192310 104.358970
12.95 12.9860 5.315380 88.846150 100.769230
12.94 12.975170 5.30 88.50 97.179490
12.93 12.964330 5.308330 88.3750 93.589740
12.92 12.95350 5.316670 88.250 90.0
12.91 12.942660 5.3250 88.1250 94.615380
12.90 12.934180 5.333330 88.0 99.230770
12.89 12.925690 5.341670 87.8750 103.846150
12.88 12.91720 5.350 87.750 108.461540
12.87 12.908710 5.358330 87.6250 113.076920
12.86 12.900230 5.366670 87.50 117.692310
12.85 12.889620 5.3750 87.3750 122.307690
12.84 12.879010 5.383330 87.250 126.923080
12.83 12.86840 5.391670 87.1250 131.538460
12.82 12.857790 5.40 87.0 136.153850
12.81 12.846950 5.40 87.061540 140.769230
12.80 12.836120 5.40 87.123080 145.384620
12.79 12.825280 5.40 87.184620 150.0
12.78 12.814450 5.40 87.246150 150.256410
12.77 12.805780 5.40 87.307690 150.512820
12.76 12.797110 5.40 87.369230 150.769230
12.75 12.788440 5.40 87.430770 151.025640
12.74 12.779770 5.40 87.492310 151.282050
12.73 12.771110 5.40 87.553850 151.538460
12.72 12.76050 5.40 87.615380 151.794870
12.71 12.749890 5.40 87.676920 152.051280
12.70 12.739280 5.40 87.738460 152.307690
12.69 12.728670 5.40 87.80 152.56410
12.68 12.717830 5.407690 87.692310 152.820510
12.67 12.7070 5.415380 87.584620 153.076920
12.66 12.696160 5.423080 87.476920 153.333330
12.65 12.685330 5.430770 87.369230 151.794870
12.64 12.674720 5.438460 87.261540 150.256410
12.63 12.664110 5.446150 87.153850 148.717950
12.62 12.65350 5.453850 87.046150 147.179490
12.61 12.642890 5.461540 86.938460 145.641030
12.60 12.63440 5.469230 86.830770 144.102560
12.59 12.625910 5.476920 86.723080 142.56410
12.58 12.617430 5.484620 86.615380 141.025640
12.57 12.608940 5.492310 86.507690 139.487180
12.56 12.600450 5.50 86.40 137.948720
12.55 12.589840 5.453850 86.707690 136.410260
12.54 12.579230 5.407690 87.015380 134.871790
12.53 12.568620 5.361540 87.323080 133.333330
12.52 12.558010 5.315380 87.630770 130.833330
12.51 12.547630 5.269230 87.938460 128.333330
12.50 12.537250 5.223080 88.246150 125.833330
12.49 12.526860 5.176920 88.553850 123.333330
12.48 12.516480 5.130770 88.861540 120.833330
12.47 12.505870 5.084620 89.169230 118.333330
12.46 12.495260 5.038460 89.476920 115.833330
12.45 12.484650 4.992310 89.784620 113.333330
12.44 12.474040 4.946150 90.092310 110.833330
12.43 12.465550 4.90 90.40 108.333330
12.42 12.457070 4.841670 90.2250 105.833330
12.41 12.448580 4.783330 90.050 103.333330
12.40 12.440090 4.7250 89.8750 105.128210
12.39 12.43160 4.666670 89.70 106.923080
12.38 12.420990 4.608330 89.5250 108.717950
12.37 12.410380 4.550 89.350 110.512820
12.36 12.399770 4.491670 89.1750 112.307690
12.35 12.389160 4.433330 89.0 114.102560
12.34 12.378780 4.3750 88.8250 115.897440
12.33 12.36840 4.316670 88.650 117.692310
12.32 12.358010 4.258330 88.4750 119.487180
12.31 12.347630 4.20 88.30 121.282050
12.30 12.337250 4.276920 88.607690 123.076920
12.29 12.326860 4.353850 88.915380 124.871790
12.28 12.316480 4.430770 89.223080 126.666670
