~VERSION INFORMATION SECTION
VERS. 2.0 : CWLS LAS-VERSION 2.0
WRAP. NO : One line per depth step
~WELL INFORMATION SECTION
# MNEM.UNIT VALUE/NAME DESCRIPTION
#-------- -------------- ---------------------
STRT.Metres 17 : Start
STOP.Metres 0.39 : Stop
STEP.Metres -0.01 : Step
NULL.  -999.25 :NULL VALUE
DATE. 2025-14-11 : DATE
~CURVE INFORMATION SECTION
DEPTH.Metres : 0 Depth
Depth. : 1 Depth
Incline.Deg : 2 Incline
Azimuth.Deg : 3 Azimuth
GR.CPS : 4 GR
~PARAMETER INFORMATION SECTION
~OTHER
#-------------------------------------------------
#Produced By: GeoVista Logger - Version 7.1.107.0
Natural Gamma Sonde - 6447
Verticality Sonde - 6292
#-------------------------------------------------
~ASCII LOG DATA
# ...
14.91 14.917380 6.0 90.30 120.0
14.90 14.907450 6.10 88.80 113.333330
14.89 14.897520 6.20 87.30 111.111110
14.88 14.887580 6.30 85.80 108.888890
14.87 14.876750 6.30 87.433330 106.666670
14.86 14.866820 6.30 89.066670 118.888890
14.85 14.856880 6.30 90.70 131.111110
14.84 14.846950 6.30 90.733330 143.333330
14.83 14.837020 6.30 90.766670 143.333330
14.82 14.827090 6.30 90.80 143.333330
14.81 14.817160 6.30 89.30 143.333330
14.80 14.807220 6.30 87.80 131.666670
14.79 14.797290 6.30 86.30 120.0
14.78 14.787360 6.30 87.350 120.952380
14.77 14.777430 6.30 88.40 121.904760
14.76 14.767490 6.30 89.450 122.857140
14.75 14.757560 6.30 90.50 123.809520
14.74 14.747630 6.30 91.550 119.576720
14.73 14.736790 6.30 92.60 115.343920
14.72 14.726860 6.266670 91.533330 111.111110
14.71 14.716930 6.233330 90.466670 106.332140
14.70 14.7070 6.20 89.40 101.553170
14.69 14.697070 6.20 91.90 96.774190
14.68 14.687130 6.20 94.40 146.720430
14.67 14.67720 6.20 96.90 196.666670
14.66 14.667270 6.20 96.40 170.0
14.65 14.657340 6.20 95.90 143.333330
14.64 14.64650 6.20 95.40 116.666670
14.63 14.636570 6.20 93.466670 112.222220
14.62 14.626640 6.20 91.533330 107.777780
14.61 14.61670 6.20 89.60 103.333330
14.60 14.606770 6.20 89.966670 115.555560
14.59 14.596840 6.20 90.333330 127.777780
14.58 14.586910 6.20 90.70 140.0
14.57 14.576070 6.166670 92.80 142.222220
14.56 14.566140 6.133330 94.90 144.444440
14.55 14.556210 6.10 97.0 146.666670
14.54 14.545370 6.10 96.10 136.666670
14.53 14.535440 6.10 95.20 126.666670
14.52 14.525510 6.10 94.30 116.666670
14.51 14.514670 6.10 92.90 126.666670
14.50 14.504740 6.10 91.50 136.666670
14.49 14.494810 6.10 90.10 146.666670
14.48 14.484880 6.133330 91.80 147.777780
14.47 14.474040 6.166670 93.50 148.888890
14.46 14.464110 6.20 95.20 150.0
14.45 14.454180 6.166670 94.233330 143.333330
14.44 14.444240 6.133330 93.266670 136.666670
14.43 14.434310 6.10 92.30 130.0
14.42 14.424380 6.10 92.10 131.111110
14.41 14.414450 6.10 91.90 132.222220
14.40 14.404510 6.10 91.70 133.333330
14.39 14.394580 6.133330 92.033330 133.333330
14.38 14.383750 6.166670 92.366670 133.333330
14.37 14.373810 6.20 92.70 133.333330
14.36 14.363880 6.166670 92.866670 145.555560
14.35 14.353950 6.133330 93.033330 157.777780
14.34 14.344020 6.10 93.20 170.0
14.33 14.334090 6.0 93.533330 152.222220
14.32 14.324150 5.90 93.866670 134.444440
14.31 14.314220 5.80 94.20 116.666670
14.30 14.304290 5.90 93.533330 122.222220
14.29 14.294360 6.0 92.866670 127.777780
14.28 14.284420 6.10 92.20 133.333330
14.27 14.27540 6.066670 93.433330 153.333330
14.26 14.265460 6.033330 94.666670 173.333330
14.25 14.255530 6.0 95.90 193.333330
14.24 14.24560 6.0 95.333330 166.984130
14.23 14.235670 6.0 94.766670 140.634920
14.22 14.225730 6.0 94.20 114.285710
14.21 14.21580 6.0 94.40 113.227510
14.20 14.205870 6.0 94.60 112.169310
14.19 14.195940 6.0 94.80 111.111110
14.18 14.1860 5.966670 93.70 120.740740
14.17 14.173810 5.933330 92.60 130.370370
14.16 14.162530 5.90 91.50 140.0
14.15 14.15260 5.90 92.20 146.666670
14.14 14.142660 5.90 92.90 153.333330
14.13 14.132730 5.90 93.60 160.0
14.12 14.12370 5.866670 93.70 163.333330
14.11 14.113770 5.833330 93.80 166.666670
14.10 14.103840 5.80 93.90 170.0
14.09 14.093910 5.80 93.733330 163.333330
14.08 14.083970 5.80 93.566670 156.666670
14.07 14.074940 5.80 93.40 150.0
14.06 14.065010 5.80 93.433330 151.111110
14.05 14.055080 5.80 93.466670 152.222220
14.04 14.045150 5.80 93.50 153.333330
14.03 14.035210 5.80 93.533330 162.222220
14.02 14.026190 5.80 93.566670 171.111110
14.01 14.016250 5.80 93.60 180.0
14.00 14.006320 5.80 93.633330 163.333330
13.99 13.996390 5.80 93.666670 146.666670
13.98 13.986460 5.80 93.70 130.0
13.97 13.976520 5.80 93.80 127.777780
13.96 13.967490 5.80 93.90 125.555560
13.95 13.957560 5.80 94.0 123.333330
13.94 13.947630 5.80 93.566670 134.444440
13.93 13.93770 5.80 93.133330 145.555560
13.92 13.927770 5.80 92.70 156.666670
13.91 13.917830 5.80 92.766670 151.111110
13.90 13.90790 5.80 92.833330 145.555560
13.89 13.898870 5.80 92.90 140.0
13.88 13.888940 5.80 92.10 140.0
13.87 13.879010 5.80 91.30 140.0
13.86 13.869070 5.833330 91.70 140.0
13.85 13.859140 5.866670 92.10 141.111110
13.84 13.849210 5.90 92.50 142.222220
13.83 13.839280 5.90 92.666670 143.333330
13.82 13.829350 5.90 92.833330 145.555560
13.81 13.819410 5.90 93.0 147.777780
13.80 13.809480 5.866670 92.70 150.0
13.79 13.799550 5.833330 92.40 147.777780
13.78 13.789620 5.80 92.10 145.555560
13.77 13.779680 5.833330 92.266670 143.333330
13.76 13.769750 5.866670 92.433330 148.888890
13.75 13.759820 5.90 92.60 154.444440
13.74 13.749890 5.866670 92.566670 160.0
13.73 13.734990 5.833330 92.533330 158.888890
13.72 13.720090 5.80 92.50 157.777780
13.71 13.711060 5.80 91.70 156.666670
13.70 13.701130 5.80 90.90 158.888890
13.69 13.69120 5.80 90.10 161.111110
13.68 13.681260 5.833330 90.566670 163.333330
13.67 13.671330 5.866670 91.033330 156.666670
13.66 13.66140 5.90 91.50 150.0
13.65 13.652370 5.90 91.733330 143.333330
13.64 13.642440 5.90 91.966670 146.666670
13.63 13.632510 5.90 92.20 150.0
13.62 13.622570 5.866670 92.533330 153.333330
13.61 13.612640 5.833330 92.866670 143.333330
13.60 13.602710 5.80 93.20 133.333330
13.59 13.592780 5.80 92.866670 123.333330
13.58 13.582840 5.80 92.533330 138.13620
13.57 13.572910 5.80 92.20 152.939070
13.56 13.562980 5.80 92.466670 167.741940
13.55 13.553950 5.80 92.733330 156.27240
13.54 13.544020 5.80 93.0 144.802870
13.53 13.534090 5.766670 92.666670 133.333330
13.52 13.524150 5.733330 92.333330 136.666670
13.51 13.514220 5.70 92.0 140.0
13.50 13.504290 5.70 92.433330 143.333330
13.49 13.494360 5.70 92.866670 163.333330
13.48 13.484420 5.70 93.30 183.333330
13.47 13.474490 5.70 92.70 203.333330
13.46 13.464560 5.70 92.10 174.444440
13.45 13.453720 5.70 92.60 145.555560
13.44 13.443790 5.70 93.10 116.666670
13.43 13.433860 5.70 93.60 117.777780
13.42 13.423930 5.70 93.30 118.888890
13.41 13.4140 5.70 93.0 120.0
13.40 13.403160 5.70 92.70 110.303030
13.39 13.393230 5.70 92.80 100.606060
13.38 13.38420 5.70 92.90 90.909090
13.37 13.375170 5.70 93.0 106.22010
13.36 13.365240 5.70 93.266670 121.53110
13.35 13.356210 5.70 93.533330 136.842110
13.34 13.346280 5.70 93.80 146.783630
13.33 13.336340 5.666670 92.80 156.725150
13.32 13.326410 5.633330 91.80 166.666670
13.31 13.317380 5.60 90.80 175.0
13.30 13.307450 5.633330 91.40 183.333330
13.29 13.297520 5.666670 92.0 168.888890
13.28 13.287580 5.70 92.60 154.444440
13.27 13.278560 5.70 92.266670 140.0
13.26 13.268620 5.70 91.933330 144.444440
13.25 13.258690 5.70 91.60 148.888890
13.24 13.248760 5.70 91.50 153.333330
13.23 13.239730 5.70 91.40 145.555560
13.22 13.22980 5.70 91.30 137.777780
13.21 13.219860 5.666670 91.60 130.0
13.20 13.205420 5.633330 91.90 126.666670
13.19 13.190970 5.60 92.20 123.333330
13.18 13.181040 5.60 91.833330 120.0
13.17 13.171110 5.60 91.466670 122.222220
13.16 13.162080 5.60 91.10 124.444440
13.15 13.152140 5.60 90.066670 126.666670
13.14 13.142210 5.60 89.033330 126.666670
13.13 13.133180 5.60 88.0 126.666670
13.12 13.123250 5.60 89.733330 126.666670
13.11 13.113320 5.60 91.466670 137.777780
13.10 13.104290 5.60 93.20 148.888890
13.09 13.094360 5.60 92.733330 160.0
13.08 13.084420 5.60 92.266670 163.333330
13.07 13.074490 5.60 91.80 166.666670
13.06 13.065460 5.60 91.033330 170.0
13.05 13.055530 5.60 90.266670 157.777780
13.04 13.04560 5.60 89.50 145.555560
13.03 13.035670 5.60 89.766670 133.333330
13.02 13.025730 5.60 90.033330 131.899640
13.01 13.01670 5.60 90.30 130.465950
13.00 13.006770 5.60 90.833330 129.032260
12.99 12.996840 5.60 91.366670 144.910390
12.98 12.986910 5.60 91.90 160.788530
12.97 12.977880 5.60 91.90 176.666670
12.96 12.967950 5.60 91.90 158.888890
12.95 12.958010 5.60 91.90 141.111110
12.94 12.948080 5.60 92.050 123.333330
12.93 12.938150 5.60 92.20 136.666670
12.92 12.929120 5.60 92.766670 150.0
12.91 12.919190 5.60 93.333330 143.333330
12.90 12.909260 5.60 93.90 136.666670
12.89 12.899320 5.633330 92.70 130.0
12.88 12.889390 5.666670 91.50 120.0
