~VERSION INFORMATION SECTION
VERS. 2.0 : CWLS LAS-VERSION 2.0
WRAP. NO : One line per depth step
~WELL INFORMATION SECTION
# MNEM.UNIT VALUE/NAME DESCRIPTION
#-------- -------------- ---------------------
STRT.Metres 16 : Start
STOP.Metres 0.42 : Stop
STEP.Metres -0.01 : Step
NULL.  -999.25 :NULL VALUE
DATE. 2025-22-11 : DATE
~CURVE INFORMATION SECTION
DEPTH.Metres : 0 Depth
Depth. : 1 Depth
Incline.Deg : 2 Incline
Azimuth.Deg : 3 Azimuth
GR.CPS : 4 GR
~PARAMETER INFORMATION SECTION
~OTHER
#-------------------------------------------------
#Produced By: GeoVista Logger - Version 7.1.107.0
Natural Gamma Sonde - 6447
Verticality Sonde - 6292
#-------------------------------------------------
~ASCII LOG DATA
# ...
9.93 9.950940 4.80 96.10 127.916670
9.92 9.942210 4.80 96.442860 126.666670
9.91 9.929570 4.80 96.785710 129.350650
9.90 9.916930 4.80 97.128570 132.034630
9.89 9.90820 4.80 97.471430 134.718610
9.88 9.899470 4.80 97.814290 137.40260
9.87 9.890740 4.80 98.157140 140.086580
9.86 9.87810 4.80 98.50 142.770560
9.85 9.865460 4.78750 98.6750 145.454550
9.84 9.857040 4.7750 98.850 154.246410
9.83 9.848610 4.76250 99.0250 163.038280
9.82 9.840180 4.750 99.20 171.830140
9.81 9.831450 4.73750 99.3750 180.622010
9.80 9.822720 4.7250 99.550 189.413880
9.79 9.8140 4.71250 99.7250 198.205740
9.78 9.801350 4.70 99.90 206.997610
9.77 9.788710 4.70 99.834780 215.789470
9.76 9.779980 4.70 99.769570 212.565790
9.75 9.771260 4.70 99.704350 209.342110
9.74 9.762530 4.70 99.639130 206.118420
9.73 9.749440 4.70 99.573910 202.894740
9.72 9.736340 4.70 99.50870 199.671050
9.71 9.727920 4.70 99.443480 196.447370
9.70 9.719490 4.70 99.378260 193.223680
9.69 9.711060 4.70 99.313040 190.0
9.68 9.702330 4.70 99.247830 192.50
9.67 9.69360 4.70 99.182610 195.0
9.66 9.684880 4.70 99.117390 197.50
9.65 9.671780 4.70 99.052170 200.0
9.64 9.658690 4.70 98.986960 202.50
9.63 9.650260 4.70 98.921740 205.0
9.62 9.641840 4.70 98.856520 207.50
9.61 9.633410 4.70 98.79130 210.0
9.60 9.620320 4.70 98.726090 198.095240
9.59 9.607220 4.70 98.660870 186.190480
9.58 9.59850 4.70 98.595650 174.285710
9.57 9.589770 4.70 98.530430 162.380950
9.56 9.581040 4.70 98.465220 150.476190
9.55 9.572310 4.70 98.40 138.571430
9.54 9.563580 4.66250 98.5750 126.666670
9.53 9.554850 4.6250 98.750 127.916670
9.52 9.541760 4.58750 98.9250 129.166670
9.51 9.528670 4.550 99.10 130.416670
9.50 9.519940 4.51250 99.2750 131.666670
9.49 9.511210 4.4750 99.450 132.916670
9.48 9.502480 4.43750 99.6250 134.166670
9.47 9.489390 4.40 99.80 135.416670
9.46 9.47630 4.41250 99.51250 136.666670
9.45 9.467570 4.4250 99.2250 142.970430
9.44 9.458840 4.43750 98.93750 149.274190
9.43 9.450110 4.450 98.650 155.577960
9.42 9.441380 4.46250 98.36250 161.881720
9.41 9.432660 4.4750 98.0750 168.185480
9.40 9.423930 4.48750 97.78750 174.489250
9.39 9.411290 4.50 97.50 180.793010
9.38 9.398650 4.50 98.10 187.096770
9.37 9.389620 4.50 98.70 179.959680
9.36 9.380590 4.50 99.30 172.822580
9.35 9.371560 4.50 99.90 165.685480
9.34 9.362830 4.50 100.50 158.548390
9.33 9.35410 4.50 101.10 151.411290
9.32 9.345370 4.50 101.70 144.274190
9.31 9.332280 4.50 102.30 137.13710
9.30 9.319190 4.50 102.03750 130.0
9.29 9.310460 4.50 101.7750 132.50
9.28 9.301730 4.50 101.51250 135.0
9.27 9.2930 4.50 101.250 137.50
9.26 9.279910 4.50 100.98750 140.0
9.25 9.266820 4.50 100.7250 142.50
9.24 9.258090 4.50 100.46250 145.0
9.23 9.249360 4.50 100.20 147.50
9.22 9.240630 4.485710 100.042860 150.0
9.21 9.23190 4.471430 99.885710 155.23810
9.20 9.223180 4.457140 99.728570 160.476190
9.19 9.214450 4.442860 99.571430 165.714290
9.18 9.20090 4.428570 99.414290 170.952380
9.17 9.187360 4.414290 99.257140 176.190480
9.16 9.178930 4.40 99.10 181.428570
9.15 9.17050 4.38750 99.46250 186.666670
9.14 9.162080 4.3750 99.8250 185.416670
9.13 9.153050 4.36250 100.18750 184.166670
9.12 9.144020 4.350 100.550 182.916670
9.11 9.134990 4.33750 100.91250 181.666670
9.10 9.12190 4.3250 101.2750 180.416670
9.09 9.10880 4.31250 101.63750 179.166670
9.08 9.100080 4.30 102.0 177.916670
9.07 9.091350 4.31250 101.7750 176.666670
9.06 9.082620 4.3250 101.550 165.833330
9.05 9.069980 4.33750 101.3250 155.0
9.04 9.057340 4.350 101.10 144.166670
9.03 9.048610 4.36250 100.8750 133.333330
9.02 9.039880 4.3750 100.650 122.50
9.01 9.031150 4.38750 100.4250 111.666670
9.00 9.022420 4.40 100.20 100.833330
8.99 9.013690 4.40 100.40 90.0
8.98 9.004970 4.40 100.60 91.250
8.97 8.991870 4.40 100.80 92.50
8.96 8.978780 4.40 101.0 93.750
8.95 8.970050 4.40 101.20 95.0
8.94 8.961320 4.40 101.40 96.250
8.93 8.95260 4.40 101.60 97.50
8.92 8.939950 4.40 101.80 98.750
8.91 8.927310 4.38750 101.9250 100.0
8.90 8.918590 4.3750 102.050 105.714290
8.89 8.909860 4.36250 102.1750 111.428570
8.88 8.901130 4.350 102.30 117.142860
8.87 8.89240 4.33750 102.4250 122.857140
8.86 8.883670 4.3250 102.550 128.571430
8.85 8.874940 4.31250 102.6750 134.285710
8.84 8.86230 4.30 102.80 140.0
8.83 8.849660 4.30 102.68750 148.750
8.82 8.840930 4.30 102.5750 157.50
8.81 8.83220 4.30 102.46250 166.250
8.80 8.823480 4.30 102.350 175.0
8.79 8.810380 4.30 102.23750 183.750
8.78 8.797290 4.30 102.1250 192.50
8.77 8.788860 4.30 102.01250 201.250
8.76 8.780440 4.30 101.90 210.0
8.75 8.772010 4.30 101.793330 207.50
8.74 8.758920 4.30 101.686670 205.0
8.73 8.745820 4.30 101.580 202.50
8.72 8.73740 4.30 101.473330 200.0
8.71 8.728970 4.30 101.366670 197.50
8.70 8.720540 4.30 101.260 195.0
8.69 8.711810 4.30 101.153330 192.50
8.68 8.703090 4.30 101.046670 190.0
8.67 8.694360 4.30 100.940 182.916670
8.66 8.681260 4.30 100.833330 175.833330
8.65 8.668170 4.30 100.726670 168.750
8.64 8.659740 4.30 100.620 161.666670
8.63 8.651320 4.30 100.513330 154.583330
8.62 8.642890 4.30 100.406670 147.50
8.61 8.62980 4.30 100.30 140.416670
8.60 8.61670 4.30 99.750 133.333330
8.59 8.607980 4.30 99.20 136.666670
8.58 8.599250 4.30 98.650 140.0
8.57 8.590520 4.30 98.10 143.333330
8.56 8.582090 4.30 97.550 146.666670
8.55 8.573660 4.30 97.0 150.0
8.54 8.565240 4.30 96.450 153.333330
8.53 8.552140 4.30 95.90 156.666670
8.52 8.539050 4.30 96.30 160.0
8.51 8.530320 4.30 96.70 151.666670
8.50 8.52160 4.30 97.10 143.333330
8.49 8.512870 4.30 97.50 135.0
8.48 8.499770 4.30 97.90 126.666670
8.47 8.486680 4.30 98.30 118.333330
8.46 8.477950 4.30 98.70 110.0
8.45 8.469220 4.30 99.10 101.666670
8.44 8.46050 4.30 99.81250 93.333330
8.43 8.451770 4.30 100.5250 99.523810
8.42 8.443040 4.30 101.23750 105.714290
8.41 8.434310 4.30 101.950 111.904760
8.40 8.420770 4.30 102.66250 118.095240
8.39 8.407220 4.30 103.3750 124.285710
8.38 8.39850 4.30 104.08750 130.476190
8.37 8.389770 4.30 104.80 136.666670
8.36 8.381040 4.285710 104.114290 137.083330
8.35 8.372310 4.271430 103.428570 137.50
8.34 8.363580 4.257140 102.742860 137.916670
8.33 8.354850 4.242860 102.057140 138.333330
8.32 8.341760 4.228570 101.371430 138.750
8.31 8.328670 4.214290 100.685710 139.166670
8.30 8.319940 4.20 100.0 139.583330
8.29 8.311210 4.21250 99.7750 140.0
8.28 8.302480 4.2250 99.550 140.416670
8.27 8.289390 4.23750 99.3250 140.833330
8.26 8.27630 4.250 99.10 141.250
8.25 8.267570 4.26250 98.8750 141.666670
8.24 8.258840 4.2750 98.650 142.083330
8.23 8.250110 4.28750 98.4250 142.50
8.22 8.241380 4.30 98.20 142.916670
8.21 8.232660 4.30 98.93750 143.333330
8.20 8.223930 4.30 99.6750 143.333330
8.19 8.210380 4.30 100.41250 143.333330
8.18 8.196840 4.30 101.150 143.333330
8.17 8.188110 4.30 101.88750 143.333330
8.16 8.179380 4.30 102.6250 143.333330
8.15 8.170650 4.30 103.36250 143.333330
8.14 8.161930 4.30 104.10 143.333330
8.13 8.15320 4.30 103.76250 143.333330
8.12 8.144470 4.30 103.4250 144.166670
8.11 8.131380 4.30 103.08750 145.0
8.10 8.118280 4.30 102.750 145.833330
8.09 8.109560 4.30 102.41250 146.666670
8.08 8.100830 4.30 102.0750 147.50
8.07 8.09210 4.30 101.73750 148.333330
8.06 8.079010 4.30 101.40 149.166670
8.05 8.065910 4.30 101.51250 150.0
8.04 8.057490 4.30 101.6250 141.558440
8.03 8.049060 4.30 101.73750 133.116880
8.02 8.040630 4.30 101.850 124.675320
8.01 8.03190 4.30 101.96250 116.233770
8.00 8.023180 4.30 102.0750 107.792210
7.99 8.014450 4.30 102.18750 99.350650
7.98 8.001810 4.30 102.30 90.909090
7.97 7.989160 4.30 102.33750 93.295450
7.96 7.980440 4.30 102.3750 95.681820
7.95 7.971710 4.30 102.41250 98.068180
7.94 7.962980 4.30 102.450 100.454550
7.93 7.949890 4.30 102.48750 102.840910
7.92 7.936790 4.30 102.5250 105.227270
7.91 7.928370 4.30 102.56250 107.613640
7.90 7.919940 4.30 102.60 110.0
7.89 7.911510 4.30 102.3750 112.50
7.88 7.898420 4.30 102.150 115.0
7.87 7.885330 4.30 101.9250 117.50
7.86 7.87690 4.30 101.70 120.0
7.85 7.868470 4.30 101.4750 122.50
7.84 7.860050 4.30 101.250 125.0
7.83 7.851320 4.30 101.0250 127.50
7.82 7.842590 4.30 100.80 130.0
7.81 7.833860 4.30 100.90 132.083330
