~VERSION INFORMATION SECTION
VERS. 2.0 : CWLS LAS-VERSION 2.0
WRAP. NO : One line per depth step
~WELL INFORMATION SECTION
# MNEM.UNIT VALUE/NAME DESCRIPTION
#-------- -------------- ---------------------
STRT.Metres 15 : Start
STOP.Metres 0.36 : Stop
STEP.Metres -0.01 : Step
NULL.  -999.25 :NULL VALUE
DATE. 2025-36-11 : DATE
~CURVE INFORMATION SECTION
DEPTH.Metres : 0 Depth
Depth. : 1 Depth
Incline.Deg : 2 Incline
Azimuth.Deg : 3 Azimuth
GR.CPS : 4 GR
~PARAMETER INFORMATION SECTION
~OTHER
#-------------------------------------------------
#Produced By: GeoVista Logger - Version 7.1.107.0
Natural Gamma Sonde - 6447
Verticality Sonde - 6292
#-------------------------------------------------
~ASCII LOG DATA
# ...
4.60 4.623020 4.0 77.6750 191.818180
4.59 4.6140 4.0 78.41250 197.727270
4.58 4.604970 4.0 79.150 203.636360
4.57 4.595940 4.0 79.88750 209.545450
4.56 4.582840 4.0 80.6250 215.454550
4.55 4.569750 4.0 81.36250 221.363640
4.54 4.560720 4.0 82.10 227.272730
4.53 4.551690 3.93750 81.73750 210.705740
4.52 4.542660 3.8750 81.3750 194.138760
4.51 4.533630 3.81250 81.01250 177.571770
4.50 4.52460 3.750 80.650 161.004780
4.49 4.515580 3.68750 80.28750 144.43780
4.48 4.502030 3.6250 79.9250 127.870810
4.47 4.488490 3.56250 79.56250 111.303830
4.46 4.479760 3.50 79.20 94.736840
4.45 4.471030 3.5250 78.48750 99.978070
4.44 4.46230 3.550 77.7750 105.21930
4.43 4.453570 3.5750 77.06250 110.460530
4.42 4.444850 3.60 76.350 115.701750
4.41 4.436120 3.6250 75.63750 120.942980
4.40 4.422570 3.650 74.9250 126.184210
4.39 4.409030 3.6750 74.21250 131.425440
4.38 4.40030 3.70 73.50 136.666670
4.37 4.391570 3.68750 73.81250 135.0
4.36 4.382840 3.6750 74.1250 133.333330
4.35 4.373810 3.66250 74.43750 131.666670
4.34 4.364790 3.650 74.750 130.0
4.33 4.355760 3.63750 75.06250 128.333330
4.32 4.342660 3.6250 75.3750 126.666670
4.31 4.329570 3.61250 75.68750 125.0
4.30 4.320540 3.60 76.0 123.333330
4.29 4.311510 3.60 76.26250 123.809520
4.28 4.302480 3.60 76.5250 124.285710
4.27 4.293450 3.60 76.78750 124.76190
4.26 4.284420 3.60 77.050 125.23810
4.25 4.27540 3.60 77.31250 125.714290
4.24 4.26230 3.60 77.5750 126.190480
4.23 4.249210 3.60 77.83750 126.666670
4.22 4.240180 3.60 78.10 135.416670
4.21 4.231150 3.61250 77.81250 144.166670
4.20 4.222120 3.6250 77.5250 152.916670
4.19 4.213390 3.63750 77.23750 161.666670
4.18 4.204670 3.650 76.950 170.416670
4.17 4.195940 3.66250 76.66250 179.166670
4.16 4.182390 3.6750 76.3750 187.916670
4.15 4.168850 3.68750 76.08750 196.666670
4.14 4.160120 3.70 75.80 188.750
4.13 4.151390 3.6750 76.03750 180.833330
4.12 4.142660 3.650 76.2750 172.916670
4.11 4.133630 3.6250 76.51250 165.0
4.10 4.12460 3.60 76.750 157.083330
4.09 4.115580 3.5750 76.98750 149.166670
4.08 4.102030 3.550 77.2250 141.250
4.07 4.088490 3.5250 77.46250 133.333330
4.06 4.079760 3.50 77.70 131.944440
4.05 4.071030 3.50 78.10 130.555560
4.04 4.06230 3.50 78.50 129.166670
4.03 4.053270 3.50 78.90 127.777780
4.02 4.044240 3.50 79.30 126.388890
4.01 4.035210 3.50 79.70 125.0
4.00 4.021670 3.50 80.10 123.611110
3.99 4.008130 3.50 80.50 122.222220
3.98 3.99910 3.50 80.90 124.861110
3.97 3.990070 3.4750 79.61250 127.50
3.96 3.981040 3.450 78.3250 130.138890
3.95 3.972010 3.4250 77.03750 132.777780
3.94 3.962980 3.40 75.750 135.416670
3.93 3.953950 3.3750 74.46250 138.055560
3.92 3.944920 3.350 73.1750 140.694440
3.91 3.935890 3.3250 71.88750 143.333330
3.90 3.926860 3.30 70.60 144.166670
3.89 3.913320 3.2750 71.08750 145.0
3.88 3.899770 3.250 71.5750 145.833330
3.87 3.890740 3.2250 72.06250 146.666670
3.86 3.881720 3.20 72.550 147.50
3.85 3.872690 3.1750 73.03750 148.333330
3.84 3.863660 3.150 73.5250 149.166670
3.83 3.854630 3.1250 74.01250 150.0
3.82 3.84560 3.10 74.50 154.63710
3.81 3.832050 3.0750 74.7750 159.274190
3.80 3.818510 3.050 75.050 163.911290
3.79 3.809480 3.0250 75.3250 168.548390
3.78 3.800450 3.0 75.60 173.185480
3.77 3.791420 2.9750 75.8750 177.822580
3.76 3.782390 2.950 76.150 182.459680
3.75 3.773360 2.9250 76.4250 187.096770
3.74 3.764330 2.90 76.70 182.459680
3.73 3.75530 2.96250 77.56250 177.822580
3.72 3.746280 3.0250 78.4250 173.185480
3.71 3.737250 3.08750 79.28750 168.548390
3.70 3.723250 3.150 80.150 163.911290
3.69 3.709260 3.21250 81.01250 159.274190
3.68 3.700230 3.2750 81.8750 154.63710
3.67 3.69120 3.33750 82.73750 150.0
3.66 3.682170 3.40 83.60 162.50
3.65 3.672840 3.4250 81.90 175.0
3.64 3.663510 3.450 80.20 187.50
3.63 3.654180 3.4750 78.50 200.0
3.62 3.645150 3.50 76.80 212.50
3.61 3.636120 3.5250 75.10 225.0
3.60 3.627090 3.550 73.40 237.50
3.59 3.613540 3.5750 71.70 250.0
3.58 3.60 3.60 70.0 241.666670
3.57 3.591270 3.56250 71.70 233.333330
3.56 3.582540 3.5250 73.40 225.0
3.55 3.573810 3.48750 75.10 216.666670
3.54 3.560720 3.450 76.80 208.333330
3.53 3.547630 3.41250 78.50 200.0
3.52 3.53890 3.3750 80.20 191.666670
3.51 3.530170 3.33750 81.90 183.333330
3.50 3.521440 3.30 83.60 181.666670
3.49 3.512720 3.322220 82.566670 180.0
3.48 3.503990 3.344440 81.533330 178.333330
3.47 3.495260 3.366670 80.50 176.666670
3.46 3.482170 3.388890 79.466670 175.0
3.45 3.469070 3.411110 78.433330 173.333330
3.44 3.460350 3.433330 77.40 171.666670
3.43 3.451620 3.455560 76.366670 170.0
3.42 3.442890 3.477780 75.333330 172.083330
3.41 3.434160 3.50 74.30 174.166670
3.40 3.425430 3.4250 73.91250 176.250
3.39 3.41670 3.350 73.5250 178.333330
3.38 3.403160 3.2750 73.13750 180.416670
3.37 3.389620 3.20 72.750 182.50
3.36 3.380890 3.1250 72.36250 184.583330
3.35 3.372160 3.050 71.9750 186.666670
3.34 3.363430 2.9750 71.58750 180.416670
3.33 3.349890 2.90 71.20 174.166670
3.32 3.336340 2.904170 71.0 167.916670
3.31 3.327610 2.908330 70.80 161.666670
3.30 3.318890 2.91250 70.60 155.416670
3.29 3.310160 2.916670 70.40 149.166670
3.28 3.301130 2.920830 70.20 142.916670
3.27 3.29210 2.9250 70.0 136.666670
3.26 3.283070 2.929170 69.80 140.0
3.25 3.274340 2.933330 69.60 143.333330
3.24 3.265610 2.93750 69.40 146.666670
3.23 3.256880 2.941670 69.20 150.0
3.22 3.243340 2.945830 69.0 153.333330
3.21 3.22980 2.950 68.80 156.666670
3.20 3.221070 2.954170 68.60 160.0
3.19 3.212340 2.958330 68.40 163.333330
3.18 3.203610 2.96250 68.20 157.50
3.17 3.194580 2.966670 68.0 151.666670
3.16 3.185550 2.970830 67.80 145.833330
3.15 3.176520 2.9750 67.60 140.0
3.14 3.162980 2.979170 67.40 134.166670
3.13 3.149440 2.983330 67.20 128.333330
3.12 3.140710 2.98750 67.0 122.50
3.11 3.131980 2.991670 66.80 116.666670
3.10 3.123250 2.995830 66.60 124.583330
3.09 3.114220 3.0 66.40 132.50
3.08 3.105190 3.026670 66.733330 140.416670
3.07 3.096160 3.053330 67.066670 148.333330
3.06 3.082620 3.080 67.40 156.250
3.05 3.069070 3.106670 67.733330 164.166670
3.04 3.060050 3.133330 68.066670 172.083330
3.03 3.051020 3.160 68.40 180.0
3.02 3.041990 3.186670 68.733330 176.29630
3.01 3.033260 3.213330 69.066670 172.592590
3.00 3.024530 3.240 69.40 168.888890
2.99 3.01580 3.266670 69.733330 165.185190
2.98 3.001810 3.293330 70.066670 161.481480
2.97 2.987810 3.320 70.40 157.777780
2.96 2.979080 3.346670 70.733330 154.074070
2.95 2.970350 3.373330 71.066670 150.370370
2.94 2.961630 3.40 71.40 146.666670
2.93 2.95260 3.344440 71.411110 146.666670
2.92 2.943570 3.288890 71.422220 146.666670
2.91 2.934540 3.233330 71.433330 146.666670
2.90 2.920990 3.177780 71.444440 146.666670
2.89 2.907450 3.122220 71.455560 146.666670
2.88 2.898420 3.066670 71.466670 146.666670
2.87 2.889390 3.011110 71.477780 146.666670
2.86 2.880360 2.955560 71.488890 146.666670
2.85 2.871330 2.90 71.50 150.0
2.84 2.86230 2.93750 72.98750 153.333330
2.83 2.853270 2.9750 74.4750 156.666670
2.82 2.844240 3.01250 75.96250 160.0
2.81 2.835210 3.050 77.450 163.333330
2.80 2.826190 3.08750 78.93750 166.666670
2.79 2.812640 3.1250 80.4250 170.0
2.78 2.79910 3.16250 81.91250 173.333330
2.77 2.790070 3.20 83.40 169.583330
2.76 2.781040 3.1750 82.38750 165.833330
2.75 2.772010 3.150 81.3750 162.083330
2.74 2.762980 3.1250 80.36250 158.333330
2.73 2.753950 3.10 79.350 154.583330
2.72 2.744920 3.0750 78.33750 150.833330
2.71 2.731380 3.050 77.3250 147.083330
2.70 2.717830 3.0250 76.31250 143.333330
2.69 2.70910 3.0 75.30 147.083330
2.68 2.700380 2.9750 74.9750 150.833330
2.67 2.691650 2.950 74.650 154.583330
2.66 2.682620 2.9250 74.3250 158.333330
2.65 2.673590 2.90 74.0 162.083330
2.64 2.664560 2.8750 73.6750 165.833330
2.63 2.651470 2.850 73.350 169.583330
2.62 2.638370 2.8250 73.0250 173.333330
2.61 2.629350 2.80 72.70 168.712120
2.60 2.620320 2.8250 72.9250 164.090910
2.59 2.611290 2.850 73.150 159.46970
2.58 2.602260 2.8750 73.3750 154.848480
2.57 2.593230 2.90 73.60 150.227270
2.56 2.58420 2.9250 73.8250 145.606060
2.55 2.571110 2.950 74.050 140.984850
2.54 2.558010 2.9750 74.2750 136.363640
2.53 2.548680 3.0 74.50 138.636360
2.52 2.539350 3.01250 75.10 140.909090
