~VERSION INFORMATION SECTION
VERS. 2.0 : CWLS LAS-VERSION 2.0
WRAP. NO : One line per depth step
~WELL INFORMATION SECTION
# MNEM.UNIT VALUE/NAME DESCRIPTION
#-------- -------------- ---------------------
STRT.Metres 15 : Start
STOP.Metres 0.45 : Stop
STEP.Metres -0.01 : Step
NULL.  -999.25 :NULL VALUE
DATE. 2025-33-11 : DATE
~CURVE INFORMATION SECTION
DEPTH.Metres : 0 Depth
Depth. : 1 Depth
Incline.Deg : 2 Incline
Azimuth.Deg : 3 Azimuth
GR.CPS : 4 GR
~PARAMETER INFORMATION SECTION
~OTHER
#-------------------------------------------------
#Produced By: GeoVista Logger - Version 7.1.107.0
Natural Gamma Sonde - 6447
Verticality Sonde - 6292
#-------------------------------------------------
~ASCII LOG DATA
# ...
6.17 6.178780 4.20 80.80 192.0
6.16 6.17020 4.20 80.30 190.666670
6.15 6.161630 4.220 81.340 189.333330
6.14 6.15350 4.240 82.380 188.0
6.13 6.145370 4.260 83.420 186.666670
6.12 6.129120 4.280 84.460 185.0
6.11 6.120990 4.30 85.50 183.333330
6.10 6.112870 4.30 84.260 181.666670
6.09 6.096610 4.30 83.020 180.0
6.08 6.088490 4.30 81.780 173.333330
6.07 6.080360 4.30 80.540 166.666670
6.06 6.072230 4.30 79.30 160.0
6.05 6.064110 4.30 79.30 153.333330
6.04 6.047860 4.30 79.30 146.666670
6.03 6.039730 4.30 79.30 150.666670
6.02 6.03160 4.30 79.30 154.666670
6.01 6.023480 4.30 79.30 158.666670
6.00 6.015350 4.320 79.980 162.666670
5.99 5.99910 4.340 80.660 166.666670
5.98 5.990520 4.360 81.340 186.666670
5.97 5.981940 4.380 82.020 206.666670
5.96 5.973810 4.40 82.70 226.666670
5.95 5.965690 4.40 82.350 246.666670
5.94 5.949440 4.40 82.0 266.666670
5.93 5.941310 4.40 81.650 240.0
5.92 5.933180 4.40 81.30 213.333330
5.91 5.92460 4.380 80.580 186.666670
5.90 5.916030 4.360 79.860 160.0
5.89 5.899770 4.340 79.140 133.333330
5.88 5.891650 4.320 78.420 136.666670
5.87 5.883520 4.30 77.70 140.0
5.86 5.867270 4.30 77.840 143.333330
5.85 5.859590 4.30 77.980 146.666670
5.84 5.851920 4.30 78.120 150.0
5.83 5.843790 4.30 78.260 155.333330
5.82 5.835670 4.30 78.40 160.666670
5.81 5.819410 4.30 78.540 166.0
5.80 5.811290 4.30 78.680 171.333330
5.79 5.803160 4.30 78.820 176.666670
5.78 5.787810 4.30 78.960 169.333330
5.77 5.779680 4.30 79.10 162.0
5.76 5.771560 4.30 79.240 154.666670
5.75 5.763430 4.30 79.380 147.333330
5.74 5.75530 4.30 79.520 140.0
5.73 5.739050 4.30 79.660 150.833330
5.72 5.730930 4.30 79.80 161.666670
5.71 5.72280 4.320 79.820 172.50
5.70 5.714670 4.340 79.840 183.333330
5.69 5.706550 4.360 79.860 177.333330
5.68 5.689390 4.380 79.880 171.333330
5.67 5.681260 4.40 79.90 165.333330
5.66 5.673140 4.40 79.740 159.333330
5.65 5.656880 4.40 79.580 153.333330
5.64 5.648760 4.40 79.420 152.666670
5.63 5.640630 4.40 79.260 152.0
5.62 5.632510 4.40 79.10 151.333330
5.61 5.624380 4.40 78.940 150.666670
5.60 5.608130 4.40 78.780 150.0
5.59 5.599550 4.40 78.620 140.666670
5.58 5.590970 4.40 78.460 131.333330
5.57 5.582840 4.40 78.30 122.0
5.56 5.574720 4.380 78.760 112.666670
5.55 5.558470 4.360 79.220 103.333330
5.54 5.549890 4.340 79.680 107.827960
5.53 5.541310 4.320 80.140 112.322580
5.52 5.533180 4.30 80.60 116.81720
5.51 5.525060 4.250 81.60 121.311830
5.50 5.50880 4.20 82.60 125.806450
5.49 5.500680 4.150 83.60 124.645160
5.48 5.492550 4.10 84.60 123.483870
5.47 5.484420 4.10 84.360 122.322580
5.46 5.47630 4.10 84.120 121.161290
5.45 5.459140 4.10 83.880 120.0
5.44 5.451020 4.10 83.640 122.0
5.43 5.442890 4.10 83.40 124.0
5.42 5.426640 4.120 82.020 126.0
5.41 5.418510 4.140 80.640 128.0
5.40 5.410380 4.160 79.260 130.0
5.39 5.402260 4.180 77.880 131.333330
5.38 5.394130 4.20 76.50 132.666670
5.37 5.378780 4.160 77.560 134.0
5.36 5.370650 4.120 78.620 135.333330
5.35 5.362530 4.080 79.680 136.666670
5.34 5.346280 4.040 80.740 140.0
5.33 5.338150 4.0 81.80 143.333330
5.32 5.330020 4.020 81.60 146.666670
5.31 5.32190 4.040 81.40 150.0
5.30 5.313770 4.060 81.20 153.333330
5.29 5.297520 4.080 81.0 164.0
5.28 5.289390 4.10 80.80 174.666670
5.27 5.281260 4.040 80.240 185.333330
5.26 5.273140 3.980 79.680 196.0
5.25 5.265010 3.920 79.120 206.666670
5.24 5.248760 3.860 78.560 194.166670
5.23 5.240630 3.80 78.0 181.666670
5.22 5.232510 3.860 76.720 169.166670
5.21 5.224380 3.920 75.440 156.666670
5.20 5.216250 3.980 74.160 148.96970
5.19 5.20 4.040 72.880 141.272730
5.18 5.191870 4.10 71.60 133.575760
5.17 5.183750 4.060 74.280 125.878790
5.16 5.167490 4.020 76.960 118.181820
5.15 5.159370 3.980 79.640 118.181820
5.14 5.151240 3.940 82.320 118.181820
5.13 5.143120 3.90 85.0 118.181820
5.12 5.134990 3.920 83.840 118.181820
5.11 5.118740 3.940 82.680 118.181820
5.10 5.110610 3.960 81.520 133.492820
5.09 5.102480 3.980 80.360 148.803830
5.08 5.094360 4.0 79.20 164.114830
5.07 5.086230 3.950 78.10 179.425840
5.06 5.069980 3.90 77.0 194.736840
5.05 5.061850 3.850 75.90 180.551380
5.04 5.053720 3.80 74.80 166.365910
5.03 5.037470 3.820 75.740 152.180450
5.02 5.028890 3.840 76.680 137.994990
5.01 5.020320 3.860 77.620 123.809520
5.00 5.012190 3.880 78.560 122.683980
4.99 5.004060 3.90 79.50 121.558440
4.98 4.987810 3.880 79.080 120.43290
4.97 4.979680 3.860 78.660 119.307360
4.96 4.971560 3.840 78.240 118.181820
4.95 4.963430 3.820 77.820 128.229670
4.94 4.95530 3.80 77.40 138.277510
4.93 4.939050 3.820 77.140 148.325360
4.92 4.930930 3.840 76.880 158.373210
4.91 4.92280 3.860 76.620 168.421050
4.90 4.914670 3.880 76.360 164.736840
4.89 4.906550 3.90 76.10 161.052630
4.88 4.889390 3.880 76.740 157.368420
4.87 4.881260 3.860 77.380 153.684210
4.86 4.873140 3.840 78.020 150.0
4.85 4.864560 3.820 78.660 151.333330
4.84 4.855980 3.80 79.30 152.666670
4.83 4.839730 3.780 79.20 154.0
4.82 4.831150 3.760 79.10 155.333330
4.81 4.822570 3.740 79.0 156.666670
4.80 4.814450 3.720 78.90 145.833330
4.79 4.806320 3.70 78.80 135.0
4.78 4.789160 3.740 78.880 124.166670
4.77 4.781040 3.780 78.960 113.333330
4.76 4.772910 3.820 79.040 120.0
4.75 4.764330 3.860 79.120 126.666670
4.74 4.755760 3.90 79.20 133.333330
4.73 4.73950 3.820 78.260 140.0
4.72 4.731380 3.740 77.320 146.666670
4.71 4.723250 3.660 76.380 146.0
4.70 4.715120 3.580 75.440 145.333330
4.69 4.7070 3.50 74.50 144.666670
4.68 4.689840 3.520 75.30 144.0
4.67 4.681720 3.540 76.10 143.333330
4.66 4.673590 3.560 76.90 149.333330
4.65 4.657340 3.580 77.70 155.333330
4.64 4.648760 3.60 78.50 161.333330
4.63 4.640180 3.620 78.720 167.333330
4.62 4.632050 3.640 78.940 173.333330
4.61 4.623930 3.660 79.160 172.215050
4.60 4.607670 3.680 79.380 171.096770
4.59 4.59910 3.70 79.60 169.978490
4.58 4.590520 3.680 78.30 168.860220
4.57 4.582390 3.660 77.0 167.741940
4.56 4.574270 3.640 75.70 168.193550
4.55 4.557110 3.620 74.40 168.645160
4.54 4.548980 3.60 73.10 169.096770
4.53 4.540860 3.680 73.660 169.548390
4.52 4.532280 3.760 74.220 170.0
4.51 4.52370 3.840 74.780 164.0
4.50 4.507450 3.920 75.340 158.0
4.49 4.498870 4.0 75.90 152.0
4.48 4.490290 3.90 76.40 146.0
4.47 4.482170 3.80 76.90 140.0
4.46 4.474040 3.70 77.40 139.333330
4.45 4.457790 3.60 77.90 138.666670
4.44 4.449660 3.50 78.40 138.0
4.43 4.441530 3.60 77.20 137.333330
4.42 4.432960 3.70 76.0 136.666670
4.41 4.424380 3.80 74.80 137.333330
4.40 4.408130 3.90 73.60 138.0
4.39 4.40 3.860 74.640 138.666670
4.38 4.391870 3.820 75.680 139.333330
4.37 4.38330 3.780 76.720 140.0
4.36 4.374720 3.740 77.760 138.333330
4.35 4.358470 3.70 78.80 136.666670
4.34 4.350340 3.720 78.140 135.0
4.33 4.342210 3.740 77.480 133.333330
4.32 4.333630 3.760 76.820 136.0
4.31 4.325060 3.780 76.160 138.666670
4.30 4.30880 3.80 75.50 141.333330
4.29 4.300680 3.80 76.020 144.0
4.28 4.292550 3.80 76.540 146.666670
4.27 4.283970 3.80 77.060 150.0
4.26 4.27540 3.80 77.580 153.333330
4.25 4.259140 3.80 78.10 156.666670
4.24 4.251020 3.80 78.30 160.0
4.23 4.242890 3.80 78.50 163.333330
4.22 4.234310 3.80 78.70 163.333330
4.21 4.225730 3.80 78.90 163.333330
4.20 4.209480 3.80 79.10 163.333330
4.19 4.20090 3.780 78.840 163.333330
4.18 4.192330 3.760 78.580 163.333330
4.17 4.18420 3.740 78.320 167.333330
4.16 4.176070 3.720 78.060 171.333330
4.15 4.158920 3.70 77.80 175.333330
4.14 4.150790 3.720 77.880 179.333330
4.13 4.142660 3.740 77.960 183.333330
4.12 4.134540 3.760 78.040 180.0
4.11 4.126410 3.780 78.120 176.666670
4.10 4.109260 3.80 78.20 173.333330
4.09 4.101130 3.780 78.220 170.0
4.08 4.0930 3.760 78.240 166.666670
4.07 4.084420 3.740 78.260 165.333330
4.06 4.075850 3.720 78.280 164.0
4.05 4.059590 3.70 78.30 162.666670
4.04 4.051020 3.70 78.350 161.333330
4.03 4.042440 3.70 78.40 160.0
4.02 4.034310 3.70 78.450 156.666670
4.01 4.026190 3.70 78.50 153.333330
4.00 4.009030 3.70 78.550 150.0
3.99 4.00090 3.70 78.60 146.666670
3.98 3.992780 3.70 78.650 143.333330
3.97 3.98420 3.70 78.70 140.0
3.96 3.975620 3.70 78.750 136.666670
3.95 3.959370 3.70 78.80 133.333330
3.94 3.950790 3.680 77.980 130.0
3.93 3.942210 3.660 77.160 126.666670
