~VERSION INFORMATION SECTION
VERS. 2.0 : CWLS LAS-VERSION 2.0
WRAP. NO : One line per depth step
~WELL INFORMATION SECTION
# MNEM.UNIT VALUE/NAME DESCRIPTION
#-------- -------------- ---------------------
STRT.Metres 15 : Start
STOP.Metres 0.45 : Stop
STEP.Metres -0.01 : Step
NULL.  -999.25 :NULL VALUE
DATE. 2025-33-11 : DATE
~CURVE INFORMATION SECTION
DEPTH.Metres : 0 Depth
Depth. : 1 Depth
Incline.Deg : 2 Incline
Azimuth.Deg : 3 Azimuth
GR.CPS : 4 GR
~PARAMETER INFORMATION SECTION
~OTHER
#-------------------------------------------------
#Produced By: GeoVista Logger - Version 7.1.107.0
Natural Gamma Sonde - 6447
Verticality Sonde - 6292
#-------------------------------------------------
~ASCII LOG DATA
# ...
8.43 8.446050 4.20 87.940 126.666670
8.42 8.428890 4.20 88.420 140.0
8.41 8.420770 4.20 88.90 153.333330
8.40 8.412640 4.20 88.840 166.666670
8.39 8.396390 4.20 88.780 180.0
8.38 8.388260 4.20 88.720 178.666670
8.37 8.380140 4.20 88.660 177.333330
8.36 8.371560 4.20 88.60 176.0
8.35 8.362980 4.180 87.880 174.666670
8.34 8.346730 4.160 87.160 173.333330
8.33 8.33860 4.140 86.440 167.053760
8.32 8.330470 4.120 85.720 160.774190
8.31 8.322350 4.10 85.0 154.494620
8.30 8.314220 4.1250 85.6250 148.215050
8.29 8.297970 4.150 86.250 141.935480
8.28 8.289390 4.1750 86.8750 148.215050
8.27 8.280810 4.20 87.50 154.494620
8.26 8.272690 4.180 87.660 160.774190
8.25 8.264560 4.160 87.820 167.053760
8.24 8.24740 4.140 87.980 173.333330
8.23 8.239280 4.120 88.140 166.0
8.22 8.231150 4.10 88.30 158.666670
8.21 8.222570 4.10 88.080 151.333330
8.20 8.2140 4.10 87.860 144.0
8.19 8.197740 4.10 87.640 136.666670
8.18 8.189620 4.10 87.420 138.0
8.17 8.181490 4.10 87.20 139.333330
8.16 8.172910 4.10 87.160 140.666670
8.15 8.164330 4.10 87.120 142.0
8.14 8.148080 4.10 87.080 143.333330
8.13 8.139950 4.10 87.040 134.0
8.12 8.131830 4.10 87.0 124.666670
8.11 8.115580 4.10 87.760 115.333330
8.10 8.10790 4.10 88.520 106.0
8.09 8.100230 4.10 89.280 96.666670
8.08 8.09210 4.10 90.040 107.333330
8.07 8.083970 4.10 90.80 118.0
8.06 8.067720 4.10 89.840 128.666670
8.05 8.060050 4.10 88.880 139.333330
8.04 8.052370 4.10 87.920 150.0
8.03 8.044240 4.10 86.960 159.166670
8.02 8.036120 4.10 86.0 168.333330
8.01 8.019860 4.10 86.060 177.50
8.00 8.012190 4.10 86.120 186.666670
7.99 8.004510 4.10 86.180 184.0
7.98 7.988260 4.10 86.240 181.333330
7.97 7.980140 4.10 86.30 178.666670
7.96 7.972010 4.10 86.460 176.0
7.95 7.963880 4.10 86.620 173.333330
7.94 7.955760 4.10 86.780 162.303030
7.93 7.93950 4.10 86.940 151.272730
7.92 7.931380 4.10 87.10 140.242420
7.91 7.923250 4.080 87.260 129.212120
7.90 7.9070 4.060 87.420 118.181820
7.89 7.898870 4.040 87.580 116.650720
7.88 7.890740 4.020 87.740 115.119620
7.87 7.883070 4.0 87.90 113.588520
7.86 7.87540 4.0 87.640 112.057420
7.85 7.859140 4.0 87.380 110.526320
7.84 7.851020 4.0 87.120 113.754390
7.83 7.842890 4.0 86.860 116.982460
7.82 7.826640 4.0 86.60 120.210530
7.81 7.818510 4.0 86.960 123.43860
7.80 7.810380 4.0 87.320 126.666670
7.79 7.802260 4.0 87.680 123.333330
7.78 7.794130 4.0 88.040 120.0
7.77 7.777880 4.0 88.40 116.666670
7.76 7.769750 4.0 87.8250 113.333330
7.75 7.761630 4.0 87.250 110.0
7.74 7.75350 4.0 86.6750 109.333330
7.73 7.745370 4.0 86.10 108.666670
7.72 7.729120 4.020 86.660 108.0
7.71 7.720990 4.040 87.220 107.333330
7.70 7.712870 4.060 87.780 106.666670
7.69 7.696610 4.080 88.340 104.0
7.68 7.688490 4.10 88.90 101.333330
7.67 7.680360 4.080 88.040 98.666670
7.66 7.672230 4.060 87.180 96.0
7.65 7.664110 4.040 86.320 93.333330
7.64 7.647860 4.020 85.460 104.0
7.63 7.639730 4.0 84.60 114.666670
7.62 7.63160 4.020 84.640 125.333330
7.61 7.623480 4.040 84.680 136.0
7.60 7.615350 4.060 84.720 146.666670
7.59 7.59910 4.080 84.760 146.0
7.58 7.590970 4.10 84.80 145.333330
7.57 7.582840 4.10 84.940 144.666670
7.56 7.574270 4.10 85.080 144.0
7.55 7.565690 4.10 85.220 143.333330
7.54 7.549440 4.10 85.360 144.166670
7.53 7.541310 4.10 85.50 145.0
7.52 7.533180 4.10 85.260 145.833330
7.51 7.525060 4.10 85.020 146.666670
7.50 7.516930 4.10 84.780 137.333330
7.49 7.499770 4.10 84.540 128.0
7.48 7.491650 4.10 84.30 118.666670
7.47 7.483520 4.10 84.480 109.333330
7.46 7.467270 4.10 84.660 100.0
7.45 7.459140 4.10 84.840 108.666670
7.44 7.451020 4.10 85.020 117.333330
7.43 7.442890 4.10 85.20 126.0
7.42 7.434760 4.10 85.40 134.666670
7.41 7.417610 4.10 85.60 143.333330
7.40 7.409480 4.10 85.80 141.763440
7.39 7.401350 4.10 86.0 140.193550
7.38 7.393230 4.10 85.720 138.623660
7.37 7.38510 4.10 85.440 137.053760
7.36 7.367950 4.10 85.160 135.483870
7.35 7.359820 4.10 84.880 128.38710
7.34 7.351690 4.10 84.60 121.290320
7.33 7.343570 4.120 84.720 114.193550
7.32 7.335440 4.140 84.840 107.096770
7.31 7.319190 4.160 84.960 100.0
7.30 7.310610 4.180 85.080 114.666670
7.29 7.302030 4.20 85.20 129.333330
7.28 7.293910 4.20 84.820 144.0
7.27 7.285780 4.20 84.440 158.666670
7.26 7.269530 4.20 84.060 173.333330
7.25 7.260950 4.20 83.680 165.333330
7.24 7.252370 4.20 83.30 157.333330
7.23 7.244240 4.20 83.280 149.333330
7.22 7.236120 4.20 83.260 141.333330
7.21 7.219860 4.20 83.240 133.333330
7.20 7.211740 4.20 83.220 135.333330
7.19 7.203610 4.20 83.20 137.333330
7.18 7.187360 4.220 83.960 139.333330
7.17 7.179230 4.240 84.720 141.333330
7.16 7.171110 4.260 85.480 143.333330
7.15 7.162980 4.280 86.240 138.666670
7.14 7.154850 4.30 87.0 134.0
7.13 7.13860 4.280 86.920 129.333330
7.12 7.130470 4.260 86.840 124.666670
7.11 7.122350 4.240 86.760 120.0
7.10 7.114220 4.220 86.680 109.166670
7.09 7.106090 4.20 86.60 98.333330
7.08 7.088940 4.220 85.340 87.50
7.07 7.080810 4.240 84.080 76.666670
7.06 7.072690 4.260 82.820 92.0
7.05 7.056430 4.280 81.560 107.333330
7.04 7.048310 4.30 80.30 122.666670
7.03 7.040180 4.30 81.260 138.0
7.02 7.032050 4.30 82.220 153.333330
7.01 7.023930 4.30 83.180 147.333330
7.00 7.007670 4.30 84.140 141.333330
6.99 6.999550 4.30 85.10 135.333330
6.98 6.991420 4.30 85.420 129.333330
6.97 6.983750 4.30 85.740 123.333330
6.96 6.976070 4.30 86.060 126.0
6.95 6.959820 4.30 86.380 128.666670
6.94 6.952140 4.30 86.70 131.333330
6.93 6.944470 4.30 85.760 134.0
6.92 6.928220 4.30 84.820 136.666670
6.91 6.920540 4.30 83.880 133.333330
6.90 6.912870 4.30 82.940 130.0
6.89 6.896610 4.30 82.0 126.666670
6.88 6.888490 4.30 82.680 123.333330
6.87 6.880360 4.30 83.360 120.0
6.86 6.872230 4.30 84.040 131.333330
6.85 6.864110 4.30 84.720 142.666670
6.84 6.847860 4.30 85.40 154.0
6.83 6.839730 4.30 85.920 165.333330
6.82 6.83160 4.30 86.440 176.666670
6.81 6.823480 4.30 86.960 172.0
6.80 6.815350 4.30 87.480 167.333330
6.79 6.79910 4.30 88.0 162.666670
6.78 6.790970 4.30 86.750 158.0
6.77 6.782840 4.30 85.50 153.333330
6.76 6.766590 4.30 84.250 154.0
6.75 6.758470 4.30 83.0 154.666670
6.74 6.750340 4.30 82.940 155.333330
6.73 6.742210 4.30 82.880 156.0
6.72 6.734090 4.30 82.820 156.666670
6.71 6.717830 4.30 82.760 158.666670
6.70 6.709710 4.30 82.70 160.666670
6.69 6.701580 4.30 83.320 162.666670
6.68 6.693450 4.30 83.940 164.666670
6.67 6.685330 4.30 84.560 166.666670
6.66 6.669070 4.30 85.180 161.666670
6.65 6.66050 4.30 85.80 156.666670
6.64 6.651920 4.280 85.720 151.666670
6.63 6.643790 4.260 85.640 146.666670
6.62 6.635670 4.240 85.560 152.666670
6.61 6.619410 4.220 85.480 158.666670
6.60 6.611290 4.20 85.40 164.666670
6.59 6.603160 4.220 85.180 170.666670
6.58 6.586910 4.240 84.960 176.666670
6.57 6.578780 4.260 84.740 177.333330
6.56 6.570650 4.280 84.520 178.0
6.55 6.562530 4.30 84.30 178.666670
6.54 6.55440 4.30 84.640 179.333330
6.53 6.537250 4.30 84.980 180.0
6.52 6.529120 4.30 85.320 184.0
6.51 6.520990 4.30 85.660 188.0
6.50 6.512870 4.30 86.0 192.0
6.49 6.504740 4.30 85.40 196.0
6.48 6.488490 4.30 84.80 200.0
6.47 6.480360 4.30 84.20 194.193550
6.46 6.472230 4.30 83.60 188.38710
6.45 6.463660 4.30 83.90 182.580650
6.44 6.455080 4.30 84.20 176.774190
6.43 6.438830 4.30 84.50 170.967740
6.42 6.43070 4.30 84.80 179.440860
6.41 6.422570 4.30 85.10 187.913980
6.40 6.406320 4.260 84.720 196.38710
6.39 6.398190 4.220 84.340 204.860220
6.38 6.390070 4.180 83.960 213.333330
6.37 6.381940 4.140 83.580 214.666670
6.36 6.373810 4.10 83.20 216.0
6.35 6.356660 4.120 82.720 217.333330
6.34 6.348530 4.140 82.240 218.666670
6.33 6.340410 4.160 81.760 220.0
6.32 6.332280 4.180 81.280 216.0
6.31 6.324150 4.20 80.80 212.0
6.30 6.30790 4.20 81.980 208.0
6.29 6.299770 4.20 83.160 204.0
6.28 6.291650 4.20 84.340 200.0
6.27 6.283520 4.20 85.520 201.333330
6.26 6.27540 4.20 86.70 202.666670
6.25 6.259140 4.20 85.920 204.0
6.24 6.251470 4.20 85.140 205.333330
6.23 6.243790 4.20 84.360 206.666670
6.22 6.226640 4.20 83.580 204.0
6.21 6.218960 4.20 82.80 201.333330
6.20 6.211290 4.20 82.30 198.666670
6.19 6.203160 4.20 81.80 196.0
6.18 6.195030 4.20 81.30 193.333330
