~VERSION INFORMATION SECTION
VERS. 2.0 : CWLS LAS-VERSION 2.0
WRAP. NO : One line per depth step
~WELL INFORMATION SECTION
# MNEM.UNIT VALUE/NAME DESCRIPTION
#-------- -------------- ---------------------
STRT.Metres 16 : Start
STOP.Metres 0.37 : Stop
STEP.Metres -0.01 : Step
NULL.  -999.25 :NULL VALUE
DATE. 2025-28-11 : DATE
~CURVE INFORMATION SECTION
DEPTH.Metres : 0 Depth
Depth. : 1 Depth
Incline.Deg : 2 Incline
Azimuth.Deg : 3 Azimuth
GR.CPS : 4 GR
~PARAMETER INFORMATION SECTION
~OTHER
#-------------------------------------------------
#Produced By: GeoVista Logger - Version 7.1.107.0
Natural Gamma Sonde - 6447
Verticality Sonde - 6292
#-------------------------------------------------
~ASCII LOG DATA
# ...
13.91 13.915120 5.80 88.20 145.555560
13.90 13.9070 5.80 87.0 154.444440
13.89 13.897970 5.80 85.80 163.333330
13.88 13.884880 5.80 85.266670 163.333330
13.87 13.871780 5.80 84.733330 163.333330
13.86 13.863660 5.80 84.20 163.333330
13.85 13.854630 5.750 87.30 156.666670
13.84 13.84650 5.70 90.40 150.0
13.83 13.837470 5.70 90.10 139.682540
13.82 13.828440 5.70 89.80 129.365080
13.81 13.815350 5.70 89.50 119.047620
13.80 13.802260 5.666670 88.933330 114.523810
13.79 13.793230 5.633330 88.366670 110.0
13.78 13.78510 5.60 87.80 126.666670
13.77 13.776070 5.650 87.550 143.333330
13.76 13.767040 5.70 87.30 160.0
13.75 13.758920 5.70 87.70 148.888890
13.74 13.745370 5.70 88.10 137.777780
13.73 13.732730 5.70 88.50 126.666670
13.72 13.72370 5.650 89.250 155.0
13.71 13.715580 5.60 90.0 183.333330
13.70 13.706550 5.60 88.60 180.0
13.69 13.698420 5.60 87.20 176.666670
13.68 13.685330 5.60 85.80 173.333330
13.67 13.672230 5.60 86.433330 168.333330
13.66 13.663210 5.60 87.066670 163.333330
13.65 13.655080 5.60 87.70 152.222220
13.64 13.646050 5.550 87.60 141.111110
13.63 13.637920 5.50 87.50 130.0
13.62 13.628890 5.50 86.70 132.222220
13.61 13.61580 5.50 85.90 134.444440
13.60 13.602710 5.50 85.10 136.666670
13.59 13.593680 5.450 86.60 151.111110
13.58 13.585550 5.40 88.10 165.555560
13.57 13.576520 5.40 87.50 180.0
13.56 13.56840 5.40 86.90 150.0
13.55 13.554850 5.40 86.30 120.0
13.54 13.542210 5.40 86.866670 140.0
13.53 13.533180 5.40 87.433330 160.0
13.52 13.525060 5.40 88.0 180.0
13.51 13.516030 5.350 87.10 165.555560
13.50 13.50790 5.30 86.20 151.111110
13.49 13.498870 5.333330 86.833330 136.666670
13.48 13.485780 5.366670 87.466670 161.666670
13.47 13.472690 5.40 88.10 186.666670
13.46 13.464560 5.350 88.90 177.777780
13.45 13.455530 5.30 89.70 168.888890
13.44 13.44650 5.30 88.50 160.0
13.43 13.438370 5.30 87.30 161.666670
13.42 13.424830 5.30 86.10 163.333330
13.41 13.411290 5.30 86.066670 163.333330
13.40 13.403160 5.30 86.033330 163.333330
13.39 13.394130 5.30 86.0 163.333330
13.38 13.38510 5.30 87.450 143.333330
13.37 13.376070 5.30 88.90 123.333330
13.36 13.367040 5.30 88.266670 142.222220
13.35 13.358010 5.30 87.633330 161.111110
13.34 13.348980 5.30 87.0 180.0
13.33 13.335890 5.30 87.350 159.354840
13.32 13.32460 5.30 87.70 138.709680
13.31 13.316480 5.30 87.733330 144.139780
13.30 13.307450 5.30 87.766670 149.569890
13.29 13.294810 5.30 87.80 155.0
13.28 13.282170 5.30 87.866670 153.333330
13.27 13.273140 5.30 87.933330 151.666670
13.26 13.265010 5.30 88.0 150.0
13.25 13.255980 5.250 87.40 156.666670
13.24 13.247860 5.20 86.80 163.333330
13.23 13.234760 5.20 86.933330 155.555560
13.22 13.221670 5.20 87.066670 147.777780
13.21 13.213540 5.20 87.20 140.0
13.20 13.204510 5.20 87.80 141.666670
13.19 13.196390 5.20 88.40 143.333330
13.18 13.188260 5.20 88.0 148.888890
13.17 13.175170 5.20 87.60 154.444440
13.16 13.162080 5.20 87.20 160.0
13.15 13.153950 5.20 86.766670 145.0
13.14 13.144920 5.20 86.333330 130.0
13.13 13.136790 5.20 85.90 157.777780
13.12 13.127770 5.20 86.40 185.555560
13.11 13.115120 5.20 86.90 213.333330
13.10 13.102480 5.20 87.233330 183.333330
13.09 13.093450 5.20 87.566670 153.333330
13.08 13.085330 5.20 87.90 123.333330
13.07 13.07630 5.20 87.366670 151.666670
13.06 13.068170 5.20 86.833330 180.0
13.05 13.055080 5.20 86.30 166.666670
13.04 13.041990 5.20 87.150 153.333330
13.03 13.033860 5.20 88.0 140.0
13.02 13.024830 5.20 87.80 148.333330
13.01 13.01670 5.20 87.60 156.666670
13.00 13.007670 5.20 87.40 161.111110
12.99 12.995030 5.20 87.050 165.555560
12.98 12.982390 5.20 86.70 170.0
12.97 12.973360 5.20 86.80 162.222220
12.96 12.964330 5.20 86.90 154.444440
12.95 12.956210 5.20 87.0 146.666670
12.94 12.947180 5.20 87.150 165.0
12.93 12.934540 5.20 87.30 183.333330
12.92 12.920990 5.20 87.433330 168.888890
12.91 12.912870 5.20 87.566670 154.444440
12.90 12.903840 5.20 87.70 140.0
12.89 12.894810 5.20 87.050 156.666670
12.88 12.886680 5.20 86.40 173.333330
12.87 12.877650 5.20 86.566670 174.444440
12.86 12.868620 5.20 86.733330 175.555560
12.85 12.855530 5.20 86.90 176.666670
12.84 12.842440 5.166670 86.733330 170.465950
12.83 12.833410 5.133330 86.566670 164.265230
12.82 12.825280 5.10 86.40 158.064520
12.81 12.816250 5.150 86.750 147.365590
12.80 12.808130 5.20 87.10 136.666670
12.79 12.794580 5.166670 87.033330 154.444440
12.78 12.781940 5.133330 86.966670 172.222220
12.77 12.772910 5.10 86.90 190.0
12.76 12.764790 5.050 86.050 170.0
12.75 12.755760 5.0 85.20 150.0
12.74 12.747630 5.0 85.433330 144.444440
12.73 12.73860 5.0 85.666670 138.888890
12.72 12.725060 5.0 85.90 133.333330
12.71 12.712420 5.0 85.950 120.0
12.70 12.703390 5.0 86.0 106.666670
12.69 12.694360 5.0 86.0 93.333330
12.68 12.685330 5.0 86.0 110.0
12.67 12.67720 5.0 86.0 126.666670
12.66 12.668170 5.0 85.733330 128.888890
12.65 12.655080 5.0 85.466670 131.111110
12.64 12.641990 5.0 85.20 133.333330
12.63 12.632960 5.050 85.30 138.333330
12.62 12.624830 5.10 85.40 143.333330
12.61 12.61580 5.10 85.433330 135.555560
12.60 12.607670 5.10 85.466670 127.777780
12.59 12.594580 5.10 85.50 120.0
12.58 12.581490 5.10 85.30 125.555560
12.57 12.572460 5.10 85.10 131.111110
12.56 12.564330 5.10 84.90 136.666670
12.55 12.55530 5.150 83.80 151.666670
12.54 12.547180 5.20 82.70 166.666670
12.53 12.534090 5.20 83.433330 151.111110
12.52 12.52190 5.20 84.166670 135.555560
12.51 12.512870 5.20 84.90 120.0
12.50 12.504740 5.250 84.750 132.222220
12.49 12.495710 5.30 84.60 144.444440
12.48 12.487580 5.30 83.70 156.666670
12.47 12.474490 5.30 82.80 153.333330
12.46 12.46140 5.30 81.90 150.0
12.45 12.453270 5.266670 83.066670 154.444440
12.44 12.444240 5.233330 84.233330 158.888890
12.43 12.436120 5.20 85.40 163.333330
12.42 12.427990 5.20 85.60 143.333330
12.41 12.41490 5.20 85.80 123.333330
12.40 12.401810 5.20 84.233330 128.888890
12.39 12.393680 5.20 82.666670 134.444440
12.38 12.384650 5.20 81.10 140.0
12.37 12.376520 5.20 81.250 148.333330
12.36 12.367490 5.20 81.40 156.666670
12.35 12.354850 5.166670 83.70 148.530470
12.34 12.342210 5.133330 86.0 140.394270
12.33 12.333180 5.10 88.30 132.258060
12.32 12.325060 5.10 87.70 132.616490
12.31 12.316030 5.10 87.10 132.974910
12.30 12.30790 5.10 86.50 133.333330
12.29 12.294810 5.10 84.60 133.333330
12.28 12.282620 5.10 82.70 133.333330
12.27 12.273590 5.10 83.80 137.777780
12.26 12.265460 5.10 84.90 142.222220
12.25 12.256430 5.10 86.0 146.666670
12.24 12.248310 5.10 85.050 136.666670
12.23 12.235210 5.10 84.10 126.666670
12.22 12.222120 5.10 83.833330 131.111110
12.21 12.2140 5.10 83.566670 135.555560
12.20 12.204970 5.10 83.30 140.0
12.19 12.196840 5.10 84.70 148.333330
12.18 12.187810 5.10 86.10 156.666670
12.17 12.175170 5.10 85.966670 160.0
12.16 12.162530 5.10 85.833330 163.333330
12.15 12.15440 5.10 85.70 166.666670
12.14 12.145370 5.066670 85.533330 153.333330
12.13 12.136340 5.033330 85.366670 140.0
12.12 12.128220 5.0 85.20 148.888890
12.11 12.115120 5.0 85.750 157.777780
12.10 12.102930 5.0 86.30 166.666670
12.09 12.093910 5.0 86.033330 166.666670
12.08 12.084880 5.0 85.766670 166.666670
12.07 12.076750 5.0 85.50 166.666670
12.06 12.068620 5.0 85.0 170.0
12.05 12.055530 5.0 84.50 173.333330
12.04 12.042440 5.0 85.033330 172.222220
12.03 12.034310 5.0 85.566670 171.111110
12.02 12.025280 5.0 86.10 170.0
12.01 12.017160 5.0 87.0 164.444440
12.00 12.008130 5.0 87.90 158.888890
11.99 11.995030 5.0 86.666670 153.333330
11.98 11.981940 5.0 85.433330 161.666670
11.97 11.973810 5.0 84.20 170.0
11.96 11.964790 5.0 84.60 166.666670
11.95 11.955760 5.0 85.0 163.333330
11.94 11.947630 5.0 85.40 160.0
11.93 11.934540 5.0 86.40 155.0
11.92 11.921440 5.0 87.40 150.0
11.91 11.913320 5.0 86.833330 152.222220
11.90 11.904290 5.0 86.266670 154.444440
11.89 11.895260 5.0 85.70 156.666670
11.88 11.887130 5.0 85.40 171.111110
11.87 11.87810 5.0 85.10 185.555560
11.86 11.865460 5.0 85.066670 200.0
11.85 11.851920 5.0 85.033330 187.096770
11.84 11.843790 5.0 85.0 174.193550
11.83 11.834760 5.0 86.050 177.240140
11.82 11.826640 5.0 87.10 180.286740
