~VERSION INFORMATION SECTION
VERS. 2.0 : CWLS LAS-VERSION 2.0
WRAP. NO : One line per depth step
~WELL INFORMATION SECTION
# MNEM.UNIT VALUE/NAME DESCRIPTION
#-------- -------------- ---------------------
STRT.Metres 15 : Start
STOP.Metres 0.36 : Stop
STEP.Metres -0.01 : Step
NULL.  -999.25 :NULL VALUE
DATE. 2025-36-11 : DATE
~CURVE INFORMATION SECTION
DEPTH.Metres : 0 Depth
Depth. : 1 Depth
Incline.Deg : 2 Incline
Azimuth.Deg : 3 Azimuth
GR.CPS : 4 GR
~PARAMETER INFORMATION SECTION
~OTHER
#-------------------------------------------------
#Produced By: GeoVista Logger - Version 7.1.107.0
Natural Gamma Sonde - 6447
Verticality Sonde - 6292
#-------------------------------------------------
~ASCII LOG DATA
# ...
10.94 10.962080 4.7250 88.28750 136.666670
10.93 10.948980 4.750 87.8750 139.166670
10.92 10.939950 4.7750 87.46250 141.666670
10.91 10.930930 4.80 87.050 144.166670
10.90 10.92190 4.8250 86.63750 146.666670
10.89 10.913170 4.850 86.2250 149.166670
10.88 10.904440 4.8750 85.81250 151.666670
10.87 10.895710 4.90 85.40 154.166670
10.86 10.882170 4.90 85.9750 156.666670
10.85 10.868620 4.90 86.550 155.714290
10.84 10.859890 4.90 87.1250 154.76190
10.83 10.851170 4.90 87.70 153.809520
10.82 10.842440 4.90 88.2750 152.857140
10.81 10.833710 4.90 88.850 151.904760
10.80 10.824980 4.90 89.4250 150.952380
10.79 10.816250 4.90 90.0 150.0
10.78 10.802710 4.90 90.056250 148.333330
10.77 10.789160 4.90 90.11250 146.666670
10.76 10.780440 4.90 90.168750 145.0
10.75 10.771710 4.90 90.2250 143.333330
10.74 10.762980 4.90 90.281250 141.666670
10.73 10.749890 4.90 90.33750 140.0
10.72 10.736790 4.90 90.393750 138.333330
10.71 10.728070 4.90 90.450 136.666670
10.70 10.719340 4.90 90.506250 137.50
10.69 10.710610 4.90 90.56250 138.333330
10.68 10.701880 4.90 90.618750 139.166670
10.67 10.693150 4.90 90.6750 140.0
10.66 10.684420 4.90 90.731250 140.833330
10.65 10.670880 4.90 90.78750 141.666670
10.64 10.657340 4.90 90.843750 142.50
10.63 10.648610 4.90 90.90 143.333330
10.62 10.639880 4.80 89.9250 145.833330
10.61 10.631150 4.70 88.950 148.333330
10.60 10.622420 4.60 87.9750 150.833330
10.59 10.613690 4.50 87.0 153.333330
10.58 10.604970 4.40 86.0250 155.833330
10.57 10.591870 4.30 85.050 158.333330
10.56 10.578780 4.20 84.0750 160.833330
10.55 10.569750 4.10 83.10 163.333330
10.54 10.560720 4.143750 83.606250 158.750
10.53 10.551690 4.18750 84.11250 154.166670
10.52 10.542960 4.231250 84.618750 149.583330
10.51 10.534240 4.2750 85.1250 145.0
10.50 10.525510 4.318750 85.631250 140.416670
10.49 10.512420 4.36250 86.13750 135.833330
10.48 10.499320 4.406250 86.643750 131.250
10.47 10.490290 4.450 87.150 126.666670
10.46 10.481260 4.493750 87.656250 133.750
10.45 10.472230 4.53750 88.16250 140.833330
10.44 10.463510 4.581250 88.668750 147.916670
10.43 10.454780 4.6250 89.1750 155.0
10.42 10.446050 4.668750 89.681250 162.083330
10.41 10.432510 4.71250 90.18750 169.166670
10.40 10.418960 4.756250 90.693750 176.250
10.39 10.410230 4.80 91.20 183.333330
10.38 10.40150 4.78750 90.3250 181.845240
10.37 10.392780 4.7750 89.450 180.357140
10.36 10.379680 4.76250 88.5750 178.869050
10.35 10.366590 4.750 87.70 177.380950
10.34 10.357860 4.73750 86.8250 175.892860
10.33 10.349130 4.7250 85.950 174.404760
10.32 10.340410 4.71250 85.0750 172.916670
10.31 10.331380 4.70 84.20 171.428570
10.30 10.322350 4.693750 84.218750 161.111110
10.29 10.313320 4.68750 84.23750 150.793650
10.28 10.300230 4.681250 84.256250 140.476190
10.27 10.287130 4.6750 84.2750 130.158730
10.26 10.27810 4.668750 84.293750 119.841270
10.25 10.269070 4.66250 84.31250 109.523810
10.24 10.260050 4.656250 84.331250 99.206350
10.23 10.251320 4.650 84.350 88.888890
10.22 10.242590 4.643750 84.368750 96.944440
10.21 10.233860 4.63750 84.38750 105.0
10.20 10.220770 4.631250 84.406250 113.055560
10.19 10.207670 4.6250 84.4250 121.111110
10.18 10.198650 4.618750 84.443750 129.166670
10.17 10.189620 4.61250 84.46250 137.222220
10.16 10.180590 4.606250 84.481250 145.277780
10.15 10.171860 4.60 84.50 153.333330
10.14 10.163130 4.60 84.704170 152.916670
10.13 10.15440 4.60 84.908330 152.50
10.12 10.141310 4.60 85.11250 152.083330
10.11 10.128220 4.60 85.316670 151.666670
10.10 10.119190 4.60 85.520830 151.250
10.09 10.110160 4.60 85.7250 150.833330
10.08 10.101130 4.60 85.929170 150.416670
10.07 10.09210 4.60 86.133330 150.0
10.06 10.083070 4.60 86.33750 147.159090
10.05 10.074040 4.60 86.541670 144.318180
10.04 10.060950 4.60 86.745830 141.477270
10.03 10.047860 4.60 86.950 138.636360
10.02 10.039130 4.60 87.154170 135.795450
10.01 10.03040 4.60 87.358330 132.954550
10.00 10.021670 4.60 87.56250 130.113640
9.99 10.012640 4.60 87.766670 127.272730
9.98 10.003610 4.60 87.970830 131.758370
9.97 9.994580 4.60 88.1750 136.244020
9.96 9.981490 4.60 88.379170 140.729670
9.95 9.96840 4.60 88.583330 145.215310
9.94 9.959670 4.60 88.78750 149.700960
9.93 9.950940 4.60 88.991670 154.18660
9.92 9.942210 4.60 89.195830 158.672250
9.91 9.933180 4.60 89.40 163.157890
9.90 9.924150 4.5750 89.1750 159.849620
9.89 9.915120 4.550 88.950 156.541350
9.88 9.902030 4.5250 88.7250 153.233080
9.87 9.888940 4.50 88.50 149.924810
9.86 9.880510 4.4750 88.2750 146.616540
9.85 9.872080 4.450 88.050 143.308270
9.84 9.863660 4.4250 87.8250 140.0
9.83 9.850560 4.40 87.60 147.50
9.82 9.837470 4.3750 87.4250 155.0
9.81 9.828740 4.350 87.250 162.50
9.80 9.820020 4.3250 87.0750 170.0
9.79 9.811290 4.30 86.90 177.50
9.78 9.802560 4.2750 86.7250 185.0
9.77 9.793830 4.250 86.550 192.50
9.76 9.78510 4.2250 86.3750 200.0
9.75 9.771560 4.20 86.20 191.935480
9.74 9.758010 4.150 86.46250 183.870970
9.73 9.749590 4.10 86.7250 175.806450
9.72 9.741160 4.050 86.98750 167.741940
9.71 9.732730 4.0 87.250 159.677420
9.70 9.7240 3.950 87.51250 151.61290
9.69 9.715270 3.90 87.7750 143.548390
9.68 9.706550 3.850 88.03750 135.483870
9.67 9.6930 3.80 88.30 141.881720
9.66 9.679460 3.8750 87.81250 148.279570
9.65 9.670730 3.950 87.3250 154.677420
9.64 9.6620 4.0250 86.83750 161.075270
9.63 9.653270 4.10 86.350 167.473120
9.62 9.640180 4.1750 85.86250 173.870970
9.61 9.627090 4.250 85.3750 180.268820
9.60 9.618360 4.3250 84.88750 186.666670
9.59 9.609630 4.40 84.40 182.083330
9.58 9.60090 4.40 85.157140 177.50
9.57 9.592170 4.40 85.914290 172.916670
9.56 9.583450 4.40 86.671430 168.333330
9.55 9.574720 4.40 87.428570 163.750
9.54 9.561630 4.40 88.185710 159.166670
9.53 9.548530 4.40 88.942860 154.583330
9.52 9.53950 4.40 89.70 150.0
9.51 9.530470 4.40 89.70 151.250
9.50 9.521440 4.40 89.70 152.50
9.49 9.512720 4.40 89.70 153.750
9.48 9.503990 4.40 89.70 155.0
9.47 9.495260 4.40 89.70 156.250
9.46 9.482170 4.40 89.70 157.50
9.45 9.469070 4.40 89.70 158.750
9.44 9.460050 4.40 89.70 160.0
9.43 9.451020 4.41250 89.06250 159.166670
9.42 9.441990 4.4250 88.4250 158.333330
9.41 9.433260 4.43750 87.78750 157.50
9.40 9.424530 4.450 87.150 156.666670
9.39 9.41580 4.46250 86.51250 155.833330
9.38 9.402260 4.4750 85.8750 155.0
9.37 9.388710 4.48750 85.23750 154.166670
9.36 9.379680 4.50 84.60 153.333330
9.35 9.370650 4.48750 84.71250 154.166670
9.34 9.361630 4.4750 84.8250 155.0
9.33 9.35290 4.46250 84.93750 155.833330
9.32 9.344170 4.450 85.050 156.666670
9.31 9.335440 4.43750 85.16250 157.50
9.30 9.32190 4.4250 85.2750 158.333330
9.29 9.308350 4.41250 85.38750 159.166670
9.28 9.299620 4.40 85.50 160.0
9.27 9.29090 4.41250 85.9750 160.6250
9.26 9.282170 4.4250 86.450 161.250
9.25 9.273140 4.43750 86.9250 161.8750
9.24 9.264110 4.450 87.40 162.50
9.23 9.255080 4.46250 87.8750 163.1250
9.22 9.241990 4.4750 88.350 163.750
9.21 9.228890 4.48750 88.8250 164.3750
9.20 9.220170 4.50 89.30 165.0
9.19 9.211440 4.493750 88.906250 162.708330
9.18 9.202710 4.48750 88.51250 160.416670
9.17 9.193680 4.481250 88.118750 158.1250
9.16 9.184650 4.4750 87.7250 155.833330
9.15 9.175620 4.468750 87.331250 153.541670
9.14 9.162080 4.46250 86.93750 151.250
9.13 9.148530 4.456250 86.543750 148.958330
9.12 9.13980 4.450 86.150 146.666670
9.11 9.131080 4.443750 85.756250 153.333330
9.10 9.122350 4.43750 85.36250 160.0
9.09 9.113620 4.431250 84.968750 166.666670
9.08 9.104890 4.4250 84.5750 173.333330
9.07 9.096160 4.418750 84.181250 180.0
9.06 9.082620 4.41250 83.78750 186.666670
9.05 9.069070 4.406250 83.393750 193.333330
9.04 9.060350 4.40 83.0 200.0
9.03 9.051620 4.40 83.9250 195.833330
9.02 9.042890 4.40 84.850 191.666670
9.01 9.02980 4.40 85.7750 187.50
9.00 9.01670 4.40 86.70 183.333330
8.99 9.007980 4.40 87.6250 179.166670
8.98 8.999250 4.40 88.550 175.0
8.97 8.990520 4.40 89.4750 170.833330
8.96 8.981790 4.40 90.40 166.666670
8.95 8.973060 4.40 89.850 160.416670
8.94 8.964330 4.40 89.30 154.166670
8.93 8.951240 4.40 88.750 147.916670
8.92 8.938150 4.40 88.20 141.666670
8.91 8.929420 4.40 87.650 135.416670
8.90 8.920690 4.40 87.10 129.166670
