~VERSION INFORMATION SECTION
VERS. 2.0 : CWLS LAS-VERSION 2.0
WRAP. NO : One line per depth step
~WELL INFORMATION SECTION
# MNEM.UNIT VALUE/NAME DESCRIPTION
#-------- -------------- ---------------------
STRT.Metres 15 : Start
STOP.Metres 0.45 : Stop
STEP.Metres -0.01 : Step
NULL.  -999.25 :NULL VALUE
DATE. 2025-33-11 : DATE
~CURVE INFORMATION SECTION
DEPTH.Metres : 0 Depth
Depth. : 1 Depth
Incline.Deg : 2 Incline
Azimuth.Deg : 3 Azimuth
GR.CPS : 4 GR
~PARAMETER INFORMATION SECTION
~OTHER
#-------------------------------------------------
#Produced By: GeoVista Logger - Version 7.1.107.0
Natural Gamma Sonde - 6447
Verticality Sonde - 6292
#-------------------------------------------------
~ASCII LOG DATA
15.00 -999.25 -999.25 -999.25 -999.25
14.99 7.497520 -999.25 -999.25 -999.25
14.98 14.995030 -999.25 -999.25 -999.25
14.97 14.979680 1.650 21.2750 -999.25
14.96 14.971560 3.30 42.550 -999.25
14.95 14.963430 4.950 63.8250 -999.25
14.94 14.947180 6.60 85.10 -999.25
14.93 14.93950 6.580 85.320 -999.25
14.92 14.931830 6.560 85.540 -999.25
14.91 14.915580 6.540 85.760 -999.25
14.90 14.90790 6.520 85.980 -999.25
14.89 14.900230 6.50 86.20 -999.25
14.88 14.89210 6.480 85.420 -999.25
14.87 14.883970 6.460 84.640 -999.25
14.86 14.868620 6.440 83.860 -999.25
14.85 14.86050 6.420 83.080 -999.25
14.84 14.852370 6.40 82.30 -999.25
14.83 14.836120 6.4250 82.950 -999.25
14.82 14.828440 6.450 83.60 -999.25
14.81 14.820770 6.4750 84.250 -999.25
14.80 14.812640 6.50 84.90 -999.25
14.79 14.804510 6.480 85.640 -999.25
14.78 14.788260 6.460 86.380 -999.25
14.77 14.780140 6.440 87.120 -999.25
14.76 14.772010 6.420 87.860 -999.25
14.75 14.763880 6.40 88.60 -999.25
14.74 14.755760 6.40 87.90 -999.25
14.73 14.73950 6.40 87.20 -999.25
14.72 14.731380 6.40 86.50 -999.25
14.71 14.723250 6.40 85.80 -999.25
14.70 14.7070 6.40 85.10 -999.25
14.69 14.698870 6.320 84.240 -999.25
14.68 14.690740 6.240 83.380 -999.25
14.67 14.682620 6.160 82.520 157.065510
14.66 14.674490 6.080 81.660 150.199420
14.65 14.658240 6.0 80.80 143.333330
14.64 14.650110 6.050 81.8750 155.833330
14.63 14.641990 6.10 82.950 168.333330
14.62 14.633410 6.150 84.0250 180.833330
14.61 14.624830 6.20 85.10 193.333330
14.60 14.607670 6.180 85.10 180.0
14.59 14.59910 6.160 85.10 166.666670
14.58 14.590520 6.140 85.10 153.333330
14.57 14.581940 6.120 85.10 158.333330
14.56 14.573360 6.10 85.10 163.333330
14.55 14.564790 6.120 85.70 168.333330
14.54 14.556210 6.140 86.30 173.333330
14.53 14.539050 6.160 86.90 175.833330
14.52 14.530470 6.180 87.50 178.333330
14.51 14.52190 6.20 88.10 180.833330
14.50 14.513320 6.180 87.540 183.333330
14.49 14.504740 6.160 86.980 185.0
14.48 14.487580 6.140 86.420 186.666670
14.47 14.479460 6.120 85.860 188.333330
14.46 14.471330 6.10 85.30 190.0
14.45 14.462750 6.080 85.120 185.333330
14.44 14.454180 6.060 84.940 180.666670
14.43 14.438830 6.040 84.760 176.0
14.42 14.43070 6.020 84.580 171.333330
14.41 14.422570 6.0 84.40 166.666670
14.40 14.406320 6.0 85.320 163.333330
14.39 14.398190 6.0 86.240 160.0
14.38 14.390070 6.0 87.160 156.666670
14.37 14.381940 6.0 88.080 153.333330
14.36 14.373810 6.0 89.0 151.666670
14.35 14.357560 5.980 88.60 150.0
14.34 14.349440 5.960 88.20 148.333330
14.33 14.341310 5.940 87.80 146.666670
14.32 14.333180 5.920 87.40 154.0
14.31 14.325060 5.90 87.0 161.333330
14.30 14.30880 5.90 87.020 168.666670
14.29 14.300680 5.90 87.040 176.0
14.28 14.292550 5.90 87.060 183.333330
14.27 14.27630 5.90 87.080 178.0
14.26 14.268170 5.90 87.10 172.666670
14.25 14.260050 5.90 87.280 167.333330
14.24 14.251920 5.90 87.460 162.0
14.23 14.243790 5.90 87.640 156.666670
14.22 14.227540 5.90 87.820 154.666670
14.21 14.219410 5.90 88.0 152.666670
14.20 14.211290 5.90 87.580 150.666670
14.19 14.203160 5.90 87.160 148.666670
14.18 14.195030 5.90 86.740 146.666670
14.17 14.177880 5.90 86.320 157.50
14.16 14.169750 5.90 85.90 168.333330
14.15 14.161630 5.90 85.80 179.166670
14.14 14.15350 5.90 85.70 190.0
14.13 14.145370 5.90 85.60 193.333330
14.12 14.129120 5.90 85.50 196.666670
14.11 14.120990 5.90 85.40 200.0
14.10 14.112870 5.90 85.820 203.333330
14.09 14.104740 5.90 86.240 206.666670
14.08 14.096610 5.90 86.660 192.666670
14.07 14.079460 5.90 87.080 178.666670
14.06 14.071330 5.90 87.50 164.666670
14.05 14.063210 5.90 87.0 150.666670
14.04 14.046950 5.90 86.50 136.666670
14.03 14.038830 5.90 86.0 139.333330
14.02 14.03070 5.90 85.50 142.0
14.01 14.022570 5.90 85.0 144.666670
14.00 14.014450 5.90 84.850 147.333330
13.99 13.998190 5.90 84.70 150.0
13.98 13.990070 5.90 84.550 147.50
13.97 13.981940 5.90 84.40 145.0
13.96 13.973360 5.780 84.40 142.50
13.95 13.964790 5.660 84.40 140.0
13.94 13.948530 5.540 84.40 150.0
13.93 13.940410 5.420 84.40 160.0
13.92 13.932280 5.30 84.40 170.0
13.91 13.92370 5.360 84.240 180.0
13.90 13.915120 5.420 84.080 190.0
13.89 13.898870 5.480 83.920 187.483870
13.88 13.890290 5.540 83.760 184.967740
13.87 13.881720 5.60 83.60 182.451610
13.86 13.873590 5.60 84.280 179.935480
13.85 13.865460 5.60 84.960 177.419350
13.84 13.848310 5.60 85.640 166.602150
13.83 13.840180 5.60 86.320 155.784950
13.82 13.832050 5.60 87.0 144.967740
13.81 13.823930 5.620 87.160 134.150540
13.80 13.81580 5.640 87.320 123.333330
13.79 13.798650 5.660 87.480 135.333330
13.78 13.790520 5.680 87.640 147.333330
13.77 13.782390 5.70 87.80 159.333330
13.76 13.774270 5.620 88.0 171.333330
13.75 13.766140 5.540 88.20 183.333330
13.74 13.749890 5.460 88.40 178.0
13.73 13.741760 5.380 88.60 172.666670
13.72 13.733630 5.30 88.80 167.333330
13.71 13.716480 5.360 88.580 162.0
13.70 13.708350 5.420 88.360 156.666670
13.69 13.700230 5.480 88.140 163.333330
13.68 13.69210 5.540 87.920 170.0
13.67 13.683970 5.60 87.70 176.666670
13.66 13.666820 5.580 87.660 183.333330
13.65 13.658690 5.560 87.620 190.0
13.64 13.650560 5.540 87.580 184.0
13.63 13.642440 5.520 87.540 178.0
13.62 13.634310 5.50 87.50 172.0
13.61 13.618060 5.480 87.880 166.0
13.60 13.609480 5.460 88.260 160.0
13.59 13.60090 5.440 88.640 158.666670
13.58 13.592780 5.420 89.020 157.333330
13.57 13.584650 5.40 89.40 156.0
13.56 13.56840 5.40 89.280 154.666670
13.55 13.560270 5.40 89.160 153.333330
13.54 13.552140 5.40 89.040 166.666670
13.53 13.543570 5.40 88.920 180.0
13.52 13.534990 5.40 88.80 193.333330
13.51 13.518740 5.40 87.720 206.666670
13.50 13.510610 5.40 86.640 220.0
13.49 13.502480 5.40 85.560 211.333330
13.48 13.493910 5.40 84.480 202.666670
13.47 13.485330 5.40 83.40 194.0
13.46 13.468170 5.380 84.120 185.333330
13.45 13.460050 5.360 84.840 176.666670
13.44 13.451920 5.340 85.560 172.0
13.43 13.443340 5.320 86.280 167.333330
13.42 13.434760 5.30 87.0 162.666670
13.41 13.417610 5.30 86.90 158.0
13.40 13.410380 5.30 86.80 153.333330
13.39 13.403160 5.30 86.70 150.0
13.38 13.386910 5.30 86.60 146.666670
13.37 13.378780 5.30 86.50 143.333330
13.36 13.370650 5.30 86.520 140.0
13.35 13.362530 5.30 86.540 136.666670
13.34 13.35440 5.30 86.560 140.0
13.33 13.337250 5.30 86.580 143.333330
13.32 13.329570 5.30 86.60 146.666670
13.31 13.32190 5.30 86.660 150.0
13.30 13.313320 5.30 86.720 153.333330
13.29 13.304740 5.30 86.780 153.333330
13.28 13.289390 5.30 86.840 153.333330
13.27 13.281260 5.30 86.90 153.333330
13.26 13.273140 5.160 86.760 153.333330
13.25 13.256880 5.020 86.620 153.333330
13.24 13.248760 4.880 86.480 150.0
13.23 13.240630 4.740 86.340 146.666670
13.22 13.232510 4.60 86.20 143.333330
13.21 13.224380 4.680 86.940 140.0
13.20 13.208130 4.760 87.680 136.666670
13.19 13.20 4.840 88.420 155.0
13.18 13.191870 4.920 89.160 173.333330
13.17 13.183750 5.0 89.90 191.666670
13.16 13.175620 5.040 88.480 210.0
13.15 13.159370 5.080 87.060 200.666670
13.14 13.151240 5.120 85.640 191.333330
13.13 13.143120 5.160 84.220 182.0
13.12 13.134540 5.20 82.80 172.666670
13.11 13.125960 5.20 84.0 163.333330
13.10 13.109710 5.20 85.20 161.333330
13.09 13.101580 5.20 86.40 159.333330
13.08 13.093450 5.20 87.60 157.333330
13.07 13.07720 5.20 87.50 155.333330
13.06 13.069070 5.20 87.40 153.333330
13.05 13.060950 5.20 87.30 154.0
13.04 13.052370 5.20 87.20 154.666670
13.03 13.043790 5.20 87.10 155.333330
13.02 13.027540 5.20 87.140 156.0
13.01 13.019410 5.20 87.180 156.666670
13.00 13.011290 5.20 87.220 156.946240
12.99 13.003160 5.20 87.260 157.225810
12.98 12.995030 5.20 87.30 157.505380
12.97 12.977880 5.20 87.220 157.784950
12.96 12.969750 5.20 87.140 158.064520
12.95 12.961630 5.20 87.060 158.451610
12.94 12.953050 5.20 86.980 158.838710
12.93 12.944470 5.20 86.90 159.225810
12.92 12.928220 5.20 86.920 159.61290
12.91 12.920090 5.20 86.940 160.0
12.90 12.911960 5.20 86.960 158.0
12.89 12.903390 5.20 86.980 156.0
12.88 12.894810 5.20 87.0 154.0
12.87 12.878560 5.20 87.020 152.0
12.86 12.870430 5.20 87.040 150.0
12.85 12.86230 5.20 87.060 144.666670
