~VERSION INFORMATION SECTION
VERS. 2.0 : CWLS LAS-VERSION 2.0
WRAP. NO : One line per depth step
~WELL INFORMATION SECTION
# MNEM.UNIT VALUE/NAME DESCRIPTION
#-------- -------------- ---------------------
STRT.Metres 15 : Start
STOP.Metres 0.45 : Stop
STEP.Metres -0.01 : Step
NULL.  -999.25 :NULL VALUE
DATE. 2025-33-11 : DATE
~CURVE INFORMATION SECTION
DEPTH.Metres : 0 Depth
Depth. : 1 Depth
Incline.Deg : 2 Incline
Azimuth.Deg : 3 Azimuth
GR.CPS : 4 GR
~PARAMETER INFORMATION SECTION
~OTHER
#-------------------------------------------------
#Produced By: GeoVista Logger - Version 7.1.107.0
Natural Gamma Sonde - 6447
Verticality Sonde - 6292
#-------------------------------------------------
~ASCII LOG DATA
# ...
1.66 1.674040 2.380 67.40 126.666670
1.65 1.657790 2.40 68.350 126.666670
1.64 1.649210 2.420 69.30 126.666670
1.63 1.640630 2.440 70.250 126.666670
1.62 1.632510 2.460 71.20 128.0
1.61 1.624380 2.480 72.150 129.333330
1.60 1.608130 2.50 73.10 130.666670
1.59 1.599550 2.480 72.380 132.0
1.58 1.590970 2.460 71.660 133.333330
1.57 1.582840 2.440 70.940 144.666670
1.56 1.574720 2.420 70.220 156.0
1.55 1.557560 2.40 69.50 167.333330
1.54 1.549440 2.380 68.740 178.666670
1.53 1.541310 2.360 67.980 190.0
1.52 1.533180 2.340 67.220 172.666670
1.51 1.525060 2.320 66.460 155.333330
1.50 1.50790 2.30 65.70 138.0
1.49 1.499770 2.280 65.70 120.666670
1.48 1.491650 2.260 65.70 103.333330
1.47 1.483070 2.240 65.70 109.333330
1.46 1.474490 2.220 65.70 115.333330
1.45 1.458240 2.20 65.70 121.333330
1.44 1.449660 2.20 66.70 127.333330
1.43 1.441080 2.20 67.70 133.333330
1.42 1.432960 2.20 68.70 144.0
1.41 1.424830 2.20 69.70 154.666670
1.40 1.407670 2.20 70.70 165.333330
1.39 1.399550 2.180 70.980 176.0
1.38 1.391420 2.160 71.260 186.666670
1.37 1.376070 2.140 71.540 176.666670
1.36 1.363430 2.120 71.820 166.666670
1.35 1.35350 2.10 72.10 156.666670
1.34 1.343570 2.10 70.720 146.666670
1.33 1.333030 2.10 69.340 136.666670
1.32 -999.25 2.10 67.960 134.0
1.31 -999.25 2.10 66.580 131.333330
1.30 -999.25 2.10 65.20 128.666670
1.29 -999.25 2.10 66.220 126.0
1.28 -999.25 2.10 67.240 123.333330
1.27 -999.25 2.10 68.260 134.666670
1.26 -999.25 2.10 69.280 146.0
1.25 -999.25 2.10 70.30 157.333330
1.24 -999.25 2.040 70.360 168.666670
1.23 -999.25 1.980 70.420 180.0
1.22 -999.25 1.920 70.480 171.333330
1.21 -999.25 1.860 70.540 162.666670
1.20 -999.25 1.80 70.60 154.0
1.19 -999.25 1.780 73.020 145.333330
1.18 -999.25 1.760 75.440 136.666670
1.17 -999.25 1.740 77.860 134.0
1.16 -999.25 1.720 80.280 131.333330
1.15 -999.25 1.70 82.70 128.666670
1.14 -999.25 1.744440 80.833330 126.0
1.13 -999.25 1.788890 78.966670 123.333330
1.12 -999.25 1.833330 77.10 124.0
1.11 -999.25 1.877780 75.233330 124.666670
1.10 -999.25 1.922220 73.366670 125.333330
1.09 -999.25 1.966670 71.50 126.0
1.08 -999.25 2.011110 69.633330 126.666670
1.07 -999.25 2.055560 67.766670 134.666670
1.06 -999.25 2.10 65.90 142.666670
1.05 -999.25 1.950 65.70 150.666670
1.04 -999.25 1.80 65.50 158.666670
1.03 -999.25 1.50 73.50 166.666670
1.02 -999.25 -999.25 -999.25 175.151520
1.01 -999.25 -999.25 -999.25 183.636360
1.00 -999.25 -999.25 -999.25 192.121210
0.99 -999.25 -999.25 -999.25 200.606060
0.98 -999.25 -999.25 -999.25 209.090910
0.97 -999.25 -999.25 -999.25 193.588520
0.96 -999.25 -999.25 -999.25 178.086120
0.95 -999.25 -999.25 -999.25 162.583730
0.94 -999.25 -999.25 -999.25 147.081340
0.93 -999.25 -999.25 -999.25 131.578950
0.92 -999.25 -999.25 -999.25 141.929820
0.91 -999.25 -999.25 -999.25 152.28070
0.90 -999.25 -999.25 -999.25 162.631580
0.89 -999.25 -999.25 -999.25 172.982460
0.88 -999.25 -999.25 -999.25 183.333330
0.87 -999.25 -999.25 -999.25 181.505380
0.86 -999.25 -999.25 -999.25 179.677420
0.85 -999.25 -999.25 -999.25 177.849460
0.84 -999.25 -999.25 -999.25 176.021510
0.83 -999.25 -999.25 -999.25 174.193550
0.82 -999.25 -999.25 -999.25 173.354840
0.81 -999.25 -999.25 -999.25 172.516130
0.80 -999.25 -999.25 -999.25 171.677420
0.79 -999.25 -999.25 -999.25 170.838710
0.78 -999.25 -999.25 -999.25 170.0
0.77 -999.25 -999.25 -999.25 164.666670
0.76 -999.25 -999.25 -999.25 159.333330
0.75 -999.25 -999.25 -999.25 154.0
0.74 -999.25 -999.25 -999.25 148.666670
0.73 -999.25 -999.25 -999.25 143.333330
0.72 -999.25 -999.25 -999.25 144.0
0.71 -999.25 -999.25 -999.25 144.666670
0.70 -999.25 -999.25 -999.25 145.333330
0.69 -999.25 -999.25 -999.25 146.0
0.68 -999.25 -999.25 -999.25 146.666670
0.67 -999.25 -999.25 -999.25 144.666670
0.66 -999.25 -999.25 -999.25 142.666670
0.65 -999.25 -999.25 -999.25 140.666670
0.64 -999.25 -999.25 -999.25 138.666670
0.63 -999.25 -999.25 -999.25 136.666670
0.62 -999.25 -999.25 -999.25 149.333330
0.61 -999.25 -999.25 -999.25 162.0
0.60 -999.25 -999.25 -999.25 174.666670
0.59 -999.25 -999.25 -999.25 187.333330
0.58 -999.25 -999.25 -999.25 200.0
0.57 -999.25 -999.25 -999.25 194.0
0.56 -999.25 -999.25 -999.25 188.0
0.55 -999.25 -999.25 -999.25 182.0
0.54 -999.25 -999.25 -999.25 176.0
0.53 -999.25 -999.25 -999.25 170.0
0.52 -999.25 -999.25 -999.25 162.50
0.51 -999.25 -999.25 -999.25 155.0
0.50 -999.25 -999.25 -999.25 147.50
0.49 -999.25 -999.25 -999.25 140.0
0.48 -999.25 -999.25 -999.25 170.0
0.47 -999.25 -999.25 -999.25 200.0
0.46 -999.25 -999.25 -999.25 150.0
0.45 -999.25 -999.25 -999.25 185.714290
