~VERSION INFORMATION SECTION
VERS. 2.0 : CWLS LAS-VERSION 2.0
WRAP. NO : One line per depth step
~WELL INFORMATION SECTION
# MNEM.UNIT VALUE/NAME DESCRIPTION
#-------- -------------- ---------------------
STRT.Metres 15 : Start
STOP.Metres 0.28 : Stop
STEP.Metres -0.01 : Step
NULL.  -999.25 :NULL VALUE
DATE. 2025-38-11 : DATE
~CURVE INFORMATION SECTION
DEPTH.Metres : 0 Depth
Depth. : 1 Depth
Incline.Deg : 2 Incline
Azimuth.Deg : 3 Azimuth
GR.CPS : 4 GR
~PARAMETER INFORMATION SECTION
~OTHER
#-------------------------------------------------
#Produced By: GeoVista Logger - Version 7.1.107.0
Natural Gamma Sonde - 6447
Verticality Sonde - 6292
#-------------------------------------------------
~ASCII LOG DATA
# ...
3.62 3.659820 2.476920 79.346150 180.512820
3.61 3.648760 2.461540 80.076920 182.820510
3.60 3.63770 2.446150 80.807690 185.128210
3.59 3.626640 2.430770 81.538460 187.43590
3.58 3.615580 2.415380 82.269230 189.743590
3.57 3.604510 2.40 83.0 192.051280
3.56 3.595670 2.438460 83.207690 194.358970
3.55 3.586820 2.476920 83.415380 196.666670
3.54 3.577970 2.515380 83.623080 196.923080
3.53 3.569120 2.553850 83.830770 197.179490
3.52 3.560270 2.592310 84.038460 197.43590
3.51 3.549440 2.630770 84.246150 197.692310
3.50 3.53860 2.669230 84.453850 197.948720
3.49 3.527770 2.707690 84.661540 198.205130
3.48 3.516930 2.746150 84.869230 198.461540
3.47 3.506550 2.784620 85.076920 198.717950
3.46 3.496160 2.823080 85.284620 198.974360
3.45 3.485780 2.861540 85.492310 199.230770
3.44 3.47540 2.90 85.70 199.487180
3.43 3.464790 2.938460 84.969230 199.743590
3.42 3.454180 2.976920 84.238460 200.0
3.41 3.443570 3.015380 83.507690 197.222220
3.40 3.432960 3.053850 82.776920 194.444440
3.39 3.424470 3.092310 82.046150 191.666670
3.38 3.415980 3.130770 81.315380 188.888890
3.37 3.407490 3.169230 80.584620 186.111110
3.36 3.399010 3.207690 79.853850 183.333330
3.35 3.390520 3.246150 79.123080 180.555560
3.34 3.379680 3.284620 78.392310 177.777780
3.33 3.368850 3.323080 77.661540 175.0
3.32 3.358010 3.361540 76.930770 172.222220
3.31 3.347180 3.40 76.20 169.444440
3.30 3.336570 3.453850 76.130770 166.666670
3.29 3.325960 3.507690 76.061540 165.384620
3.28 3.315350 3.561540 75.992310 164.102560
3.27 3.304740 3.615380 75.923080 162.820510
3.26 3.296070 3.669230 75.853850 161.538460
3.25 3.28740 3.723080 75.784620 160.256410
3.24 3.278740 3.776920 75.715380 158.974360
3.23 3.270070 3.830770 75.646150 157.692310
3.22 3.26140 3.884620 75.576920 156.410260
3.21 3.250560 3.938460 75.507690 155.128210
3.20 3.239730 3.992310 75.438460 153.846150
3.19 3.228890 4.046150 75.369230 152.56410
3.18 3.218060 4.10 75.30 151.282050
3.17 3.207220 3.984620 75.676920 150.0
3.16 3.196390 3.869230 76.053850 148.461540
3.15 3.185550 3.753850 76.430770 146.923080
3.14 3.174720 3.638460 76.807690 145.384620
3.13 3.166050 3.523080 77.184620 143.846150
3.12 3.157380 3.407690 77.561540 142.307690
3.11 3.148710 3.292310 77.938460 140.769230
3.10 3.140050 3.176920 78.315380 139.230770
3.09 3.131380 3.061540 78.692310 137.692310
3.08 3.120540 2.946150 79.069230 136.153850
3.07 3.109710 2.830770 79.446150 134.615380
3.06 3.098870 2.715380 79.823080 133.076920
3.05 3.088040 2.60 80.20 131.538460
3.04 3.07720 2.630770 79.638460 130.0
3.03 3.066370 2.661540 79.076920 128.461540
3.02 3.055530 2.692310 78.515380 126.923080
3.01 3.04470 2.723080 77.953850 125.384620
3.00 3.036030 2.753850 77.392310 123.846150
2.99 3.027360 2.784620 76.830770 122.307690
2.98 3.018690 2.815380 76.269230 120.769230
2.97 3.010020 2.846150 75.707690 119.230770
2.96 3.001350 2.876920 75.146150 117.692310
2.95 2.990290 2.907690 74.584620 116.153850
2.94 2.979230 2.938460 74.023080 114.615380
2.93 2.968170 2.969230 73.461540 113.076920
2.92 2.957110 3.0 72.90 111.538460
2.91 2.946280 2.992310 72.276920 110.0
2.90 2.935440 2.984620 71.653850 112.380950
2.89 2.92460 2.976920 71.030770 114.76190
2.88 2.913770 2.969230 70.407690 117.142860
2.87 2.90510 2.961540 69.784620 119.523810
2.86 2.896430 2.953850 69.161540 121.904760
2.85 2.887770 2.946150 68.538460 124.285710
2.84 2.87910 2.938460 67.915380 126.666670
2.83 2.870430 2.930770 67.292310 129.047620
2.82 2.859590 2.923080 66.669230 131.428570
2.81 2.848760 2.915380 66.046150 133.809520
2.80 2.837920 2.907690 65.423080 136.190480
2.79 2.827090 2.90 64.80 138.571430
2.78 2.818240 2.876920 64.230770 140.952380
2.77 2.809390 2.853850 63.661540 143.333330
2.76 2.800540 2.830770 63.092310 144.615380
2.75 2.791690 2.807690 62.523080 145.897440
2.74 2.782840 2.784620 61.953850 147.179490
2.73 2.772010 2.761540 61.384620 148.461540
2.72 2.761170 2.738460 60.815380 149.743590
2.71 2.750340 2.715380 60.246150 151.025640
2.70 2.73950 2.692310 59.676920 152.307690
2.69 2.728440 2.669230 59.107690 153.589740
2.68 2.717380 2.646150 58.538460 154.871790
2.67 2.706320 2.623080 57.969230 156.153850
2.66 2.695260 2.60 57.40 157.43590
2.65 2.686590 2.607690 57.530770 158.717950
2.64 2.677920 2.615380 57.661540 160.0
2.63 2.669260 2.623080 57.792310 160.555560
2.62 2.660590 2.630770 57.923080 161.111110
2.61 2.651920 2.638460 58.053850 161.666670
2.60 2.641080 2.646150 58.184620 162.222220
2.59 2.630250 2.653850 58.315380 162.777780
2.58 2.619410 2.661540 58.446150 163.333330
2.57 2.608580 2.669230 58.576920 163.888890
2.56 2.597740 2.676920 58.707690 164.444440
2.55 2.586910 2.684620 58.838460 165.0
2.54 2.576070 2.692310 58.969230 165.555560
2.53 2.565240 2.70 59.10 166.111110
2.52 2.556570 2.730770 57.207690 166.666670
2.51 2.54790 2.761540 55.315380 165.384620
2.50 2.539230 2.792310 53.423080 164.102560
2.49 2.530560 2.823080 51.530770 162.820510
2.48 2.52190 2.853850 49.638460 161.538460
2.47 2.511060 2.884620 47.746150 160.256410
2.46 2.500230 2.915380 45.853850 158.974360
2.45 2.489390 2.946150 43.961540 157.692310
2.44 2.478560 2.976920 42.069230 156.410260
2.43 2.467490 3.007690 40.176920 155.128210
2.42 2.456430 3.038460 38.284620 153.846150
2.41 2.445370 3.069230 36.392310 152.56410
2.40 2.434310 3.10 34.50 151.282050
2.39 2.425640 3.015380 38.20 150.0
2.38 2.416980 2.930770 41.90 148.205130
2.37 2.408310 2.846150 45.60 146.410260
2.36 2.399640 2.761540 49.30 144.615380
2.35 2.390970 2.676920 53.0 142.820510
2.34 2.380360 2.592310 56.70 141.025640
2.33 2.369750 2.507690 60.40 139.230770
2.32 2.359140 2.423080 64.10 137.43590
2.31 2.348530 2.338460 67.80 135.641030
2.30 2.337920 2.253850 71.50 133.846150
2.29 2.327310 2.169230 75.20 132.051280
2.28 2.31670 2.084620 78.90 130.256410
2.27 2.306090 2.0 82.60 128.461540
2.26 2.295490 2.023080 79.538460 126.666670
2.25 2.284880 2.046150 76.476920 132.555830
2.24 2.274270 2.069230 73.415380 138.4450
2.23 2.263660 2.092310 70.353850 144.334160
2.22 2.255170 2.115380 67.292310 150.223330
2.21 2.246680 2.138460 64.230770 156.112490
2.20 2.238190 2.161540 61.169230 162.001650
2.19 2.229710 2.184620 58.107690 167.890820
2.18 2.221220 2.207690 55.046150 173.779980
2.17 2.210380 2.230770 51.984620 179.669150
2.16 2.199550 2.253850 48.923080 185.558310
2.15 2.188710 2.276920 45.861540 191.447480
2.14 2.177880 2.30 42.80 197.336640
2.13 2.167040 2.346150 45.876920 203.225810
2.12 2.156210 2.392310 48.953850 202.464850
2.11 2.145370 2.438460 52.030770 201.703890
2.10 2.134540 2.484620 55.107690 200.942930
2.09 2.125870 2.530770 58.184620 200.181970
2.08 2.11720 2.576920 61.261540 199.421010
2.07 2.108530 2.623080 64.338460 198.660050
2.06 2.099860 2.669230 67.415380 197.899090
2.05 2.09120 2.715380 70.492310 197.138130
2.04 2.080360 2.761540 73.569230 196.377170
2.03 2.069530 2.807690 76.646150 195.616210
2.02 2.058690 2.853850 79.723080 194.855250
2.01 2.047860 2.90 82.80 194.094290
2.00 2.037020 2.90 82.076920 193.333330
1.99 2.026190 2.90 81.353850 188.205130
1.98 2.015350 2.90 80.630770 183.076920
1.97 2.004510 2.90 79.907690 177.948720
1.96 1.995850 2.90 79.184620 172.820510
1.95 1.987180 2.90 78.461540 167.692310
1.94 1.978510 2.90 77.738460 162.56410
1.93 1.969840 2.90 77.015380 157.43590
1.92 1.961170 2.90 76.292310 152.307690
1.91 1.950110 2.90 75.569230 147.179490
1.90 1.939050 2.90 74.846150 142.051280
1.89 1.927990 2.90 74.123080 136.923080
1.88 1.916930 2.90 73.40 131.794870
1.87 1.908260 2.853850 73.676920 126.666670
1.86 1.899590 2.807690 73.953850 126.190480
1.85 1.890930 2.761540 74.230770 125.714290
1.84 1.882260 2.715380 74.507690 125.23810
1.83 1.873590 2.669230 74.784620 124.76190
1.82 1.862530 2.623080 75.061540 124.285710
1.81 1.851470 2.576920 75.338460 123.809520
1.80 1.840410 2.530770 75.615380 123.333330
1.79 1.829350 2.484620 75.892310 122.857140
1.78 1.818510 2.438460 76.169230 122.380950
1.77 1.807670 2.392310 76.446150 121.904760
1.76 1.796840 2.346150 76.723080 121.428570
1.75 1.7860 2.30 77.0 120.952380
1.74 1.777340 2.30 76.638460 120.476190
