~VERSION INFORMATION SECTION
VERS. 2.0 : CWLS LAS-VERSION 2.0
WRAP. NO : One line per depth step
~WELL INFORMATION SECTION
# MNEM.UNIT VALUE/NAME DESCRIPTION
#-------- -------------- ---------------------
STRT.Metres 15 : Start
STOP.Metres 0.28 : Stop
STEP.Metres -0.01 : Step
NULL.  -999.25 :NULL VALUE
DATE. 2025-38-11 : DATE
~CURVE INFORMATION SECTION
DEPTH.Metres : 0 Depth
Depth. : 1 Depth
Incline.Deg : 2 Incline
Azimuth.Deg : 3 Azimuth
GR.CPS : 4 GR
~PARAMETER INFORMATION SECTION
~OTHER
#-------------------------------------------------
#Produced By: GeoVista Logger - Version 7.1.107.0
Natural Gamma Sonde - 6447
Verticality Sonde - 6292
#-------------------------------------------------
~ASCII LOG DATA
# ...
9.47 9.5070 3.6750 85.5750 140.0
9.46 9.496160 3.616670 85.783330 140.0
9.45 9.485330 3.558330 85.991670 140.0
9.44 9.474490 3.50 86.20 140.0
9.43 9.4660 3.538460 86.884620 140.0
9.42 9.457520 3.576920 87.569230 140.0
9.41 9.449030 3.615380 88.253850 140.0
9.40 9.440540 3.653850 88.938460 140.148880
9.39 9.432050 3.692310 89.623080 140.297770
9.38 9.421440 3.730770 90.307690 140.446650
9.37 9.410840 3.769230 90.992310 140.595530
9.36 9.400230 3.807690 91.676920 140.744420
9.35 9.389620 3.846150 92.361540 140.89330
9.34 9.379010 3.884620 93.046150 141.042180
9.33 9.36840 3.923080 93.730770 141.191070
9.32 9.357790 3.961540 94.415380 141.339950
9.31 9.347180 4.0 95.10 141.488830
9.30 9.336340 4.046150 94.361540 141.637720
9.29 9.325510 4.092310 93.623080 141.78660
9.28 9.314670 4.138460 92.884620 141.935480
9.27 9.303840 4.184620 92.146150 145.119930
9.26 9.295170 4.230770 91.407690 148.304380
9.25 9.28650 4.276920 90.669230 151.488830
9.24 9.277830 4.323080 89.930770 154.673280
9.23 9.269160 4.369230 89.192310 157.857730
9.22 9.26050 4.415380 88.453850 161.042180
9.21 9.249660 4.461540 87.715380 164.226630
9.20 9.238830 4.507690 86.976920 167.411080
9.19 9.227990 4.553850 86.238460 170.595530
9.18 9.217160 4.60 85.50 173.779980
9.17 9.206550 4.584620 85.20 176.964430
9.16 9.195940 4.569230 84.90 180.148880
9.15 9.185330 4.553850 84.60 183.333330
9.14 9.174720 4.538460 84.30 184.615380
9.13 9.166050 4.523080 84.0 185.897440
9.12 9.157380 4.507690 83.70 187.179490
9.11 9.148710 4.492310 83.40 188.461540
9.10 9.140050 4.476920 83.10 189.743590
9.09 9.131380 4.461540 82.80 191.025640
9.08 9.120770 4.446150 82.50 192.307690
9.07 9.110160 4.430770 82.20 193.589740
9.06 9.099550 4.415380 81.90 194.871790
9.05 9.088940 4.40 81.60 196.153850
9.04 9.07810 4.392310 82.146150 197.43590
9.03 9.067270 4.384620 82.692310 198.717950
9.02 9.056430 4.376920 83.238460 200.0
9.01 9.04560 4.369230 83.784620 196.666670
9.00 9.034990 4.361540 84.330770 193.333330
8.99 9.024380 4.353850 84.876920 190.0
8.98 9.013770 4.346150 85.423080 186.666670
8.97 9.003160 4.338460 85.969230 183.333330
8.96 8.994670 4.330770 86.515380 180.0
8.95 8.986190 4.323080 87.061540 176.666670
8.94 8.97770 4.315380 87.607690 173.333330
8.93 8.969210 4.307690 88.153850 170.0
8.92 8.960720 4.30 88.70 166.666670
8.91 8.950110 4.307690 88.669230 163.333330
8.90 8.93950 4.315380 88.638460 160.0
8.89 8.928890 4.323080 88.607690 157.948720
8.88 8.918280 4.330770 88.576920 155.897440
8.87 8.907670 4.338460 88.546150 153.846150
8.86 8.897070 4.346150 88.515380 151.794870
8.85 8.886460 4.353850 88.484620 149.743590
8.84 8.875850 4.361540 88.453850 147.692310
8.83 8.865460 4.369230 88.423080 145.641030
8.82 8.855080 4.376920 88.392310 143.589740
8.81 8.84470 4.384620 88.361540 141.538460
8.80 8.834310 4.392310 88.330770 139.487180
8.79 8.825820 4.40 88.30 137.43590
8.78 8.817340 4.391670 87.708330 135.384620
8.77 8.808850 4.383330 87.116670 133.333330
8.76 8.800360 4.3750 86.5250 134.615380
8.75 8.791870 4.366670 85.933330 135.897440
8.74 8.781260 4.358330 85.341670 137.179490
8.73 8.770650 4.350 84.750 138.461540
8.72 8.760050 4.341670 84.158330 139.743590
8.71 8.749440 4.333330 83.566670 141.025640
8.70 8.739050 4.3250 82.9750 142.307690
8.69 8.728670 4.316670 82.383330 143.589740
8.68 8.718280 4.308330 81.791670 144.871790
8.67 8.70790 4.30 81.20 146.153850
8.66 8.697290 4.284620 81.446150 147.43590
8.65 8.686680 4.269230 81.692310 148.717950
8.64 8.676070 4.253850 81.938460 150.0
8.63 8.665460 4.238460 82.184620 148.611110
8.62 8.654850 4.223080 82.430770 147.222220
8.61 8.644240 4.207690 82.676920 145.833330
8.60 8.633630 4.192310 82.923080 144.444440
8.59 8.623020 4.176920 83.169230 143.055560
8.58 8.614540 4.161540 83.415380 141.666670
8.57 8.606050 4.146150 83.661540 140.277780
8.56 8.597560 4.130770 83.907690 138.888890
8.55 8.589070 4.115380 84.153850 137.50
8.54 8.580590 4.10 84.40 136.111110
8.53 8.569980 4.10 84.961540 134.722220
8.52 8.559370 4.10 85.523080 133.333330
8.51 8.548760 4.10 86.084620 132.307690
8.50 8.538150 4.10 86.646150 131.282050
8.49 8.527540 4.10 87.207690 130.256410
8.48 8.516930 4.10 87.769230 129.230770
8.47 8.506320 4.10 88.330770 128.205130
8.46 8.495710 4.10 88.892310 127.179490
8.45 8.48510 4.10 89.453850 126.153850
8.44 8.474490 4.10 90.015380 125.128210
8.43 8.463880 4.10 90.576920 124.102560
8.42 8.453270 4.10 91.138460 123.076920
8.41 8.444790 4.10 91.70 122.051280
8.40 8.43630 4.033330 90.70 121.025640
8.39 8.427810 3.966670 89.70 120.0
8.38 8.419320 3.90 88.70 124.615380
8.37 8.410840 3.833330 87.70 129.230770
8.36 8.40 3.766670 86.70 133.846150
8.35 8.389160 3.70 85.70 138.461540
8.34 8.378330 3.633330 84.70 143.076920
8.33 8.367490 3.566670 83.70 147.692310
8.32 8.356660 3.50 82.70 152.307690
8.31 8.345820 3.433330 81.70 156.923080
8.30 8.334990 3.366670 80.70 161.538460
8.29 8.324150 3.30 79.70 166.153850
8.28 8.315670 3.30 80.523080 170.769230
8.27 8.307180 3.30 81.346150 175.384620
8.26 8.298690 3.30 82.169230 180.0
8.25 8.29020 3.30 82.992310 177.948720
8.24 8.281720 3.30 83.815380 175.897440
8.23 8.271110 3.30 84.638460 173.846150
8.22 8.26050 3.30 85.461540 171.794870
8.21 8.249890 3.30 86.284620 169.743590
8.20 8.239280 3.30 87.107690 167.692310
8.19 8.228440 3.30 87.930770 165.641030
8.18 8.217610 3.30 88.753850 163.589740
8.17 8.206770 3.30 89.576920 161.538460
8.16 8.195940 3.30 90.40 159.487180
8.15 8.187270 3.346150 90.80 157.43590
8.14 8.17860 3.392310 91.20 155.384620
8.13 8.169930 3.438460 91.60 153.333330
8.12 8.161260 3.484620 92.0 153.846150
8.11 8.15260 3.530770 92.40 154.358970
8.10 8.141760 3.576920 92.80 154.871790
8.09 8.130930 3.623080 93.20 155.384620
8.08 8.120090 3.669230 93.60 155.897440
8.07 8.109260 3.715380 94.0 156.410260
8.06 8.098650 3.761540 94.40 156.923080
8.05 8.088040 3.807690 94.80 157.43590
8.04 8.077430 3.853850 95.20 157.948720
8.03 8.066820 3.90 95.60 158.461540
8.02 8.056660 3.907690 94.553850 158.974360
8.01 8.04650 3.915380 93.507690 159.487180
8.00 8.036340 3.923080 92.461540 160.0
7.99 8.026190 3.930770 91.415380 160.256410
7.98 8.01580 3.938460 90.369230 160.512820
7.97 8.005420 3.946150 89.323080 160.769230
7.96 7.995030 3.953850 88.276920 161.025640
7.95 7.984650 3.961540 87.230770 161.282050
7.94 7.974270 3.969230 86.184620 161.538460
7.93 7.963880 3.976920 85.138460 161.794870
7.92 7.95350 3.984620 84.092310 162.051280
7.91 7.943120 3.992310 83.046150 162.307690
7.90 7.934630 4.0 82.0 162.56410
7.89 7.926140 4.0040 81.9680 162.820510
7.88 7.917650 4.0080 81.9360 163.076920
7.87 7.909160 4.0120 81.9040 163.333330
7.86 7.900680 4.0160 81.8720 161.388890
7.85 7.890290 4.020 81.840 159.444440
7.84 7.879910 4.0240 81.8080 157.50
7.83 7.869530 4.0280 81.7760 155.555560
7.82 7.859140 4.0320 81.7440 153.611110
7.81 7.848530 4.0360 81.7120 151.666670
7.80 7.837920 4.040 81.680 149.722220
7.79 7.827310 4.0440 81.6480 147.777780
7.78 7.81670 4.0480 81.6160 145.833330
7.77 7.806090 4.0520 81.5840 143.888890
7.76 7.795490 4.0560 81.5520 141.944440
7.75 7.784880 4.060 81.520 140.0
7.74 7.774270 4.0640 81.4880 140.512820
7.73 7.763880 4.0680 81.4560 141.025640
7.72 7.75350 4.0720 81.4240 141.538460
7.71 7.743120 4.0760 81.3920 142.051280
7.70 7.732730 4.080 81.360 142.56410
7.69 7.724240 4.0840 81.3280 143.076920
7.68 7.715760 4.0880 81.2960 143.589740
7.67 7.707270 4.0920 81.2640 144.102560
7.66 7.698780 4.0960 81.2320 144.615380
7.65 7.690290 4.10 81.20 145.128210
7.64 7.679680 4.115380 81.315380 145.641030
7.63 7.669070 4.130770 81.430770 146.153850
7.62 7.658470 4.146150 81.546150 146.666670
7.61 7.647860 4.161540 81.661540 144.615380
7.60 7.637470 4.176920 81.776920 142.56410
7.59 7.627090 4.192310 81.892310 140.512820
7.58 7.61670 4.207690 82.007690 138.461540
7.57 7.606320 4.223080 82.123080 136.410260
7.56 7.595710 4.238460 82.238460 134.358970
7.55 7.58510 4.253850 82.353850 132.307690
7.54 7.574490 4.269230 82.469230 130.256410
7.53 7.563880 4.284620 82.584620 128.205130
7.52 7.55540 4.30 82.70 126.153850
7.51 7.546910 4.291670 83.133330 124.102560
