~VERSION INFORMATION SECTION
VERS. 2.0 : CWLS LAS-VERSION 2.0
WRAP. NO : One line per depth step
~WELL INFORMATION SECTION
# MNEM.UNIT VALUE/NAME DESCRIPTION
#-------- -------------- ---------------------
STRT.Metres 15 : Start
STOP.Metres 0.36 : Stop
STEP.Metres -0.01 : Step
NULL.  -999.25 :NULL VALUE
DATE. 2025-36-11 : DATE
~CURVE INFORMATION SECTION
DEPTH.Metres : 0 Depth
Depth. : 1 Depth
Incline.Deg : 2 Incline
Azimuth.Deg : 3 Azimuth
GR.CPS : 4 GR
~PARAMETER INFORMATION SECTION
~OTHER
#-------------------------------------------------
#Produced By: GeoVista Logger - Version 7.1.107.0
Natural Gamma Sonde - 6447
Verticality Sonde - 6292
#-------------------------------------------------
~ASCII LOG DATA
# ...
2.51 2.530020 3.0250 75.70 143.181820
2.50 2.521290 3.03750 76.30 145.454550
2.49 2.512570 3.050 76.90 147.727270
2.48 2.503840 3.06250 77.50 150.0
2.47 2.494810 3.0750 78.10 152.272730
2.46 2.485780 3.08750 78.70 154.545450
2.45 2.476750 3.10 79.30 152.332540
2.44 2.463210 3.10 78.56250 150.119620
2.43 2.449660 3.10 77.8250 147.90670
2.42 2.440630 3.10 77.08750 145.693780
2.41 2.43160 3.10 76.350 143.480860
2.40 2.422570 3.10 75.61250 141.267940
2.39 2.409480 3.10 74.8750 139.055020
2.38 2.396390 3.10 74.13750 136.842110
2.37 2.387660 3.10 73.40 134.509570
2.36 2.378930 3.08750 72.650 132.177030
2.35 2.37020 3.0750 71.90 129.84450
2.34 2.361470 3.06250 71.150 127.511960
2.33 2.352750 3.050 70.40 125.179430
2.32 2.344020 3.03750 69.650 122.846890
2.31 2.330930 3.0250 68.90 120.514350
2.30 2.317830 3.01250 68.150 118.181820
2.29 2.30910 3.0 67.40 118.409090
2.28 2.300380 3.0 67.250 118.636360
2.27 2.291650 3.0 67.10 118.863640
2.26 2.282920 3.0 66.950 119.090910
2.25 2.274190 3.0 66.80 119.318180
2.24 2.265460 3.0 66.650 119.545450
2.23 2.251920 3.0 66.50 119.772730
2.22 2.238370 3.0 66.350 120.0
2.21 2.229650 3.0 66.20 128.750
2.20 2.220920 2.98750 66.2750 137.50
2.19 2.212190 2.9750 66.350 146.250
2.18 2.203160 2.96250 66.4250 155.0
2.17 2.194130 2.950 66.50 163.750
2.16 2.18510 2.93750 66.5750 172.50
2.15 2.171560 2.9250 66.650 181.250
2.14 2.158010 2.91250 66.7250 190.0
2.13 2.148980 2.90 66.80 187.916670
2.12 2.139950 2.88750 67.06250 185.833330
2.11 2.130930 2.8750 67.3250 183.750
2.10 2.12220 2.86250 67.58750 181.666670
2.09 2.113470 2.850 67.850 179.583330
2.08 2.104740 2.83750 68.11250 177.50
2.07 2.09120 2.8250 68.3750 175.416670
2.06 2.077650 2.81250 68.63750 173.333330
2.05 2.068620 2.80 68.90 169.583330
2.04 2.059590 2.81250 68.81250 165.833330
2.03 2.050560 2.8250 68.7250 162.083330
2.02 2.041840 2.83750 68.63750 158.333330
2.01 2.033110 2.850 68.550 154.583330
2.00 2.024380 2.86250 68.46250 150.833330
1.99 2.010840 2.8750 68.3750 147.083330
1.98 1.997290 2.88750 68.28750 143.333330
1.97 1.988260 2.90 68.20 142.50
1.96 1.979230 2.81250 67.250 141.666670
1.95 1.97020 2.7250 66.30 140.833330
1.94 1.961170 2.63750 65.350 140.0
1.93 1.952140 2.550 64.40 139.166670
1.92 1.943120 2.46250 63.450 138.333330
1.91 1.934390 2.3750 62.50 137.50
1.90 1.925660 2.28750 61.550 136.666670
1.89 1.916930 2.20 60.60 138.333330
1.88 1.903390 2.21250 61.4750 140.0
1.87 1.889840 2.2250 62.350 141.666670
1.86 1.880810 2.23750 63.2250 143.333330
1.85 1.871780 2.250 64.10 145.0
1.84 1.862750 2.26250 64.9750 146.666670
1.83 1.853720 2.2750 65.850 148.333330
1.82 1.84470 2.28750 66.7250 150.0
1.81 1.835670 2.30 67.60 151.250
1.80 1.822120 2.31250 67.60 152.50
1.79 1.808580 2.3250 67.60 153.750
1.78 1.799850 2.33750 67.60 155.0
1.77 1.791120 2.350 67.60 156.250
1.76 1.782390 2.36250 67.60 157.50
1.75 1.773360 2.3750 67.60 158.750
1.74 1.764330 2.38750 67.60 160.0
1.73 1.75530 2.40 67.60 153.333330
1.72 1.741760 2.38750 68.050 146.666670
1.71 1.728220 2.3750 68.50 140.0
1.70 1.719490 2.36250 68.950 133.333330
1.69 1.710760 2.350 69.40 126.666670
1.68 1.702030 2.33750 69.850 120.0
1.67 1.6930 2.3250 70.30 113.333330
1.66 1.683970 2.31250 70.750 106.666670
1.65 1.674940 2.30 71.20 105.416670
1.64 1.661850 2.2750 70.0750 104.166670
1.63 1.648760 2.250 68.950 102.916670
1.62 1.640030 2.2250 67.8250 101.666670
1.61 1.63130 2.20 66.70 100.416670
1.60 1.622570 2.1750 65.5750 99.166670
1.59 1.613540 2.150 64.450 97.916670
1.58 1.604510 2.1250 63.3250 96.666670
1.57 1.595490 2.10 62.20 102.083330
1.56 1.582390 2.08750 62.2250 107.50
1.55 1.56930 2.0750 62.250 112.916670
1.54 1.560270 2.06250 62.2750 118.333330
1.53 1.551240 2.050 62.30 123.750
1.52 1.542210 2.03750 62.3250 129.166670
1.51 1.533480 2.0250 62.350 134.583330
1.50 1.524760 2.01250 62.3750 140.0
1.49 1.516030 2.0 62.40 146.250
1.48 1.502480 1.98750 61.48750 152.50
1.47 1.488940 1.9750 60.5750 158.750
1.46 1.480210 1.96250 59.66250 165.0
1.45 1.471480 1.950 58.750 171.250
1.44 1.462750 1.93750 57.83750 177.50
1.43 1.453720 1.9250 56.9250 183.750
1.42 1.44470 1.91250 56.01250 190.0
1.41 1.435670 1.90 55.10 187.50
1.40 1.422120 1.91250 57.11250 185.0
1.39 1.408580 1.9250 59.1250 182.50
1.38 1.399850 1.93750 61.13750 180.0
1.37 1.391120 1.950 63.150 177.50
1.36 1.382390 1.96250 65.16250 175.0
1.35 1.373060 1.9750 67.1750 172.50
1.34 1.363730 1.98750 69.18750 170.0
1.33 1.35440 2.0 71.20 169.583330
1.32 1.341760 1.950 70.31250 169.166670
1.31 1.329120 1.90 69.4250 168.750
1.30 1.306550 1.850 68.53750 168.333330
1.29 1.298420 1.80 67.650 167.916670
1.28 1.290290 1.750 66.76250 167.50
1.27 1.276750 1.70 65.8750 167.083330
1.26 1.266820 1.650 64.98750 166.666670
1.25 1.255530 1.60 64.10 171.250
1.24 1.244540 1.6250 63.93750 175.833330
1.23 -999.25 1.650 63.7750 180.416670
1.22 -999.25 1.6750 63.61250 185.0
1.21 -999.25 1.70 63.450 189.583330
1.20 -999.25 1.7250 63.28750 194.166670
1.19 -999.25 1.750 63.1250 198.750
1.18 -999.25 1.7750 62.96250 203.333330
1.17 -999.25 1.80 62.80 202.916670
1.16 -999.25 1.750 64.38750 202.50
1.15 -999.25 1.70 65.9750 202.083330
1.14 -999.25 1.650 67.56250 201.666670
1.13 -999.25 1.60 69.150 201.250
1.12 -999.25 1.550 70.73750 200.833330
1.11 -999.25 1.50 72.3250 200.416670
1.10 -999.25 1.450 73.91250 200.0
1.09 -999.25 1.40 75.50 194.583330
1.08 -999.25 1.36250 71.7750 189.166670
1.07 -999.25 1.3250 68.050 183.750
1.06 -999.25 1.28750 64.3250 178.333330
1.05 -999.25 1.250 60.60 172.916670
1.04 -999.25 1.21250 56.8750 167.50
1.03 -999.25 1.1750 53.150 162.083330
1.02 -999.25 1.13750 49.4250 156.666670
1.01 -999.25 1.10 45.70 157.407410
1.00 -999.25 1.1250 55.50 158.148150
0.99 -999.25 1.150 65.30 158.888890
0.98 -999.25 1.1750 75.10 159.629630
0.97 -999.25 1.20 84.90 160.370370
0.96 -999.25 1.450 62.40 161.111110
0.95 -999.25 1.70 39.90 161.851850
0.94 -999.25 1.40 84.70 162.592590
0.93 -999.25 -999.25 -999.25 163.333330
0.92 -999.25 -999.25 -999.25 157.083330
0.91 -999.25 -999.25 -999.25 150.833330
0.90 -999.25 -999.25 -999.25 144.583330
0.89 -999.25 -999.25 -999.25 138.333330
0.88 -999.25 -999.25 -999.25 132.083330
0.87 -999.25 -999.25 -999.25 125.833330
0.86 -999.25 -999.25 -999.25 119.583330
0.85 -999.25 -999.25 -999.25 113.333330
0.84 -999.25 -999.25 -999.25 123.333330
0.83 -999.25 -999.25 -999.25 133.333330
0.82 -999.25 -999.25 -999.25 143.333330
0.81 -999.25 -999.25 -999.25 153.333330
0.80 -999.25 -999.25 -999.25 163.333330
0.79 -999.25 -999.25 -999.25 173.333330
0.78 -999.25 -999.25 -999.25 183.333330
0.77 -999.25 -999.25 -999.25 193.333330
0.76 -999.25 -999.25 -999.25 184.892470
0.75 -999.25 -999.25 -999.25 176.451610
0.74 -999.25 -999.25 -999.25 168.010750
0.73 -999.25 -999.25 -999.25 159.569890
0.72 -999.25 -999.25 -999.25 151.129030
0.71 -999.25 -999.25 -999.25 142.688170
0.70 -999.25 -999.25 -999.25 134.247310
0.69 -999.25 -999.25 -999.25 125.806450
0.68 -999.25 -999.25 -999.25 127.163980
0.67 -999.25 -999.25 -999.25 128.521510
0.66 -999.25 -999.25 -999.25 129.879030
0.65 -999.25 -999.25 -999.25 131.236560
0.64 -999.25 -999.25 -999.25 132.594090
0.63 -999.25 -999.25 -999.25 133.951610
0.62 -999.25 -999.25 -999.25 135.309140
0.61 -999.25 -999.25 -999.25 136.666670
0.60 -999.25 -999.25 -999.25 135.833330
0.59 -999.25 -999.25 -999.25 135.0
0.58 -999.25 -999.25 -999.25 134.166670
0.57 -999.25 -999.25 -999.25 133.333330
0.56 -999.25 -999.25 -999.25 132.50
0.55 -999.25 -999.25 -999.25 131.666670
0.54 -999.25 -999.25 -999.25 130.833330
0.53 -999.25 -999.25 -999.25 130.0
0.52 -999.25 -999.25 -999.25 127.916670
0.51 -999.25 -999.25 -999.25 125.833330
0.50 -999.25 -999.25 -999.25 123.750
0.49 -999.25 -999.25 -999.25 121.666670
0.48 -999.25 -999.25 -999.25 119.583330
0.47 -999.25 -999.25 -999.25 117.50
0.46 -999.25 -999.25 -999.25 115.416670
0.45 -999.25 -999.25 -999.25 113.333330
0.44 -999.25 -999.25 -999.25 125.333330
0.43 -999.25 -999.25 -999.25 137.333330
0.42 -999.25 -999.25 -999.25 149.333330
0.41 -999.25 -999.25 -999.25 161.333330
0.40 -999.25 -999.25 -999.25 173.333330
0.39 -999.25 -999.25 -999.25 161.666670
