~VERSION INFORMATION SECTION
VERS. 2.0 : CWLS LAS-VERSION 2.0
WRAP. NO : One line per depth step
~WELL INFORMATION SECTION
# MNEM.UNIT VALUE/NAME DESCRIPTION
#-------- -------------- ---------------------
STRT.Metres 15 : Start
STOP.Metres 0.36 : Stop
STEP.Metres -0.01 : Step
NULL.  -999.25 :NULL VALUE
DATE. 2025-36-11 : DATE
~CURVE INFORMATION SECTION
DEPTH.Metres : 0 Depth
Depth. : 1 Depth
Incline.Deg : 2 Incline
Azimuth.Deg : 3 Azimuth
GR.CPS : 4 GR
~PARAMETER INFORMATION SECTION
~OTHER
#-------------------------------------------------
#Produced By: GeoVista Logger - Version 7.1.107.0
Natural Gamma Sonde - 6447
Verticality Sonde - 6292
#-------------------------------------------------
~ASCII LOG DATA
# ...
8.89 8.911960 4.40 86.550 122.916670
8.88 8.903240 4.40 86.0 116.666670
8.87 8.894510 4.393750 86.006250 118.750
8.86 8.885780 4.38750 86.01250 120.833330
8.85 8.872690 4.381250 86.018750 122.916670
8.84 8.859590 4.3750 86.0250 125.0
8.83 8.850870 4.368750 86.031250 127.083330
8.82 8.842140 4.36250 86.03750 129.166670
8.81 8.833410 4.356250 86.043750 131.250
8.80 8.820320 4.350 86.050 133.333330
8.79 8.807220 4.343750 86.056250 138.095240
8.78 8.79850 4.33750 86.06250 142.857140
8.77 8.789770 4.331250 86.068750 147.619050
8.76 8.781040 4.3250 86.0750 152.380950
8.75 8.772310 4.318750 86.081250 157.142860
8.74 8.763580 4.31250 86.08750 161.904760
8.73 8.754850 4.306250 86.093750 166.666670
8.72 8.741760 4.30 86.10 164.166670
8.71 8.728670 4.30 86.3250 161.666670
8.70 8.719940 4.30 86.550 159.166670
8.69 8.711210 4.30 86.7750 156.666670
8.68 8.702480 4.30 87.0 154.166670
8.67 8.689390 4.30 87.2250 151.666670
8.66 8.67630 4.30 87.450 149.166670
8.65 8.667570 4.30 87.6750 146.666670
8.64 8.658840 4.30 87.90 146.666670
8.63 8.650110 4.30 88.0 146.666670
8.62 8.641380 4.30 88.10 146.666670
8.61 8.632660 4.30 88.20 146.666670
8.60 8.623930 4.30 88.30 146.666670
8.59 8.610840 4.30 88.40 146.666670
8.58 8.597740 4.30 88.50 146.666670
8.57 8.588710 4.30 88.60 146.666670
8.56 8.579680 4.30 88.70 152.083330
8.55 8.570650 4.20 87.557140 157.50
8.54 8.561930 4.10 86.414290 162.916670
8.53 8.55320 4.0 85.271430 168.333330
8.52 8.544470 3.90 84.128570 173.750
8.51 8.531380 3.80 82.985710 179.166670
8.50 8.518280 3.70 81.842860 184.583330
8.49 8.509560 3.60 80.70 190.0
8.48 8.500830 3.650 81.66250 182.159090
8.47 8.49210 3.70 82.6250 174.318180
8.46 8.483070 3.750 83.58750 166.477270
8.45 8.474040 3.80 84.550 158.636360
8.44 8.465010 3.850 85.51250 150.795450
8.43 8.451920 3.90 86.4750 142.954550
8.42 8.438830 3.950 87.43750 135.113640
8.41 8.42980 4.0 88.40 127.272730
8.40 8.420770 4.0250 88.66250 133.732060
8.39 8.411740 4.050 88.9250 140.191390
8.38 8.403010 4.0750 89.18750 146.650720
8.37 8.394280 4.10 89.450 153.110050
8.36 8.385550 4.1250 89.71250 159.569380
8.35 8.372010 4.150 89.9750 166.028710
8.34 8.358470 4.1750 90.23750 172.488040
8.33 8.349740 4.20 90.50 178.947370
8.32 8.341010 4.18750 89.80 181.578950
8.31 8.332280 4.1750 89.10 184.210530
8.30 8.323250 4.16250 88.40 186.842110
8.29 8.314220 4.150 87.70 189.473680
8.28 8.305190 4.13750 87.0 192.105260
8.27 8.29210 4.1250 86.30 194.736840
8.26 8.279010 4.11250 85.60 197.368420
8.25 8.269980 4.10 84.90 200.0
8.24 8.260950 4.10 84.81250 189.919350
8.23 8.251920 4.10 84.7250 179.838710
8.22 8.242890 4.10 84.63750 169.758060
8.21 8.233860 4.10 84.550 159.677420
8.20 8.224830 4.10 84.46250 149.596770
8.19 8.211740 4.10 84.3750 139.516130
8.18 8.198650 4.10 84.28750 129.435480
8.17 8.189620 4.10 84.20 119.354840
8.16 8.180590 4.10 85.1750 116.935480
8.15 8.171560 4.10 86.150 114.516130
8.14 8.162830 4.10 87.1250 112.096770
8.13 8.15410 4.10 88.10 109.677420
8.12 8.145370 4.10 89.0750 107.258060
8.11 8.131830 4.10 90.050 104.838710
8.10 8.118280 4.10 91.0250 102.419350
8.09 8.109860 4.10 92.0 100.0
8.08 8.101430 4.10 91.86250 104.3750
8.07 8.0930 4.10 91.7250 108.750
8.06 8.080360 4.10 91.58750 113.1250
8.05 8.067720 4.10 91.450 117.50
8.04 8.059290 4.10 91.31250 121.8750
8.03 8.050870 4.10 91.1750 126.250
8.02 8.042440 4.10 91.03750 130.6250
8.01 8.029350 4.10 90.90 135.0
8.00 8.016250 4.10 89.98750 133.1250
7.99 8.007520 4.10 89.0750 131.250
7.98 7.99880 4.10 88.16250 129.3750
7.97 7.990070 4.10 87.250 127.50
7.96 7.981640 4.10 86.33750 125.6250
7.95 7.973210 4.10 85.4250 123.750
7.94 7.964790 4.10 84.51250 121.8750
7.93 7.951690 4.10 83.60 120.0
7.92 7.93860 4.10 84.2250 120.833330
7.91 7.929870 4.10 84.850 121.666670
7.90 7.921140 4.10 85.4750 122.50
7.89 7.912420 4.10 86.10 123.333330
7.88 7.899320 4.10 86.7250 124.166670
7.87 7.886230 4.10 87.350 125.0
7.86 7.87750 4.10 87.9750 125.833330
7.85 7.868770 4.10 88.60 126.666670
7.84 7.860050 4.08750 88.61250 128.095240
7.83 7.851320 4.0750 88.6250 129.523810
7.82 7.842590 4.06250 88.63750 130.952380
7.81 7.833860 4.050 88.650 132.380950
7.80 7.820770 4.03750 88.66250 133.809520
7.79 7.807670 4.0250 88.6750 135.23810
7.78 7.798950 4.01250 88.68750 136.666670
7.77 7.790220 4.0 88.70 140.416670
7.76 7.781490 4.0 87.657140 144.166670
7.75 7.772760 4.0 86.614290 147.916670
7.74 7.764030 4.0 85.571430 151.666670
7.73 7.75530 4.0 84.528570 155.416670
7.72 7.742210 4.0 83.485710 159.166670
7.71 7.729120 4.0 82.442860 162.916670
7.70 7.720390 4.0 81.40 166.666670
7.69 7.711660 4.0 82.5250 166.458330
7.68 7.702930 4.0 83.650 166.250
7.67 7.689840 4.0 84.7750 166.041670
7.66 7.676750 4.0 85.90 165.833330
7.65 7.668020 4.0 87.0250 165.6250
7.64 7.659290 4.0 88.150 165.416670
7.63 7.650560 4.0 89.2750 165.208330
7.62 7.641530 4.0 90.40 165.0
7.61 7.632510 4.0 90.06250 155.6250
7.60 7.623480 4.0 89.7250 146.250
7.59 7.610380 4.0 89.38750 136.8750
7.58 7.597290 4.0 89.050 127.50
7.57 7.588560 4.0 88.71250 118.1250
7.56 7.579830 4.0 88.3750 108.750
7.55 7.571110 4.0 88.03750 99.3750
7.54 7.562380 4.0 87.70 90.0
7.53 7.553650 4.01250 86.96250 97.50
7.52 7.544920 4.0250 86.2250 105.0
7.51 7.531380 4.03750 85.48750 112.50
7.50 7.517830 4.050 84.750 120.0
7.49 7.50910 4.06250 84.01250 127.50
7.48 7.500380 4.0750 83.2750 135.0
7.47 7.491650 4.08750 82.53750 142.50
7.46 7.482920 4.10 81.80 150.0
7.45 7.474190 4.10 82.33750 147.50
7.44 7.465460 4.10 82.8750 145.0
7.43 7.452370 4.10 83.41250 142.50
7.42 7.439280 4.10 83.950 140.0
7.41 7.430250 4.10 84.48750 137.50
7.40 7.421220 4.10 85.0250 135.0
7.39 7.412190 4.10 85.56250 132.50
7.38 7.403460 4.10 86.10 130.0
7.37 7.394730 4.10 85.83750 127.083330
7.36 7.3860 4.10 85.5750 124.166670
7.35 7.372460 4.10 85.31250 121.250
7.34 7.358920 4.10 85.050 118.333330
7.33 7.350190 4.10 84.78750 115.416670
7.32 7.341460 4.10 84.5250 112.50
7.31 7.332730 4.10 84.26250 109.583330
7.30 7.32370 4.10 84.0 106.666670
7.29 7.314670 4.11250 83.8250 110.0
7.28 7.305640 4.1250 83.650 113.333330
7.27 7.292550 4.13750 83.4750 116.666670
7.26 7.279460 4.150 83.30 120.0
7.25 7.270430 4.16250 83.1250 123.333330
7.24 7.26140 4.1750 82.950 126.666670
7.23 7.252370 4.18750 82.7750 130.0
7.22 7.243640 4.20 82.60 133.333330
7.21 7.234910 4.1750 82.9250 131.666670
7.20 7.226190 4.150 83.250 130.0
7.19 7.213090 4.1250 83.5750 128.333330
7.18 7.20 4.10 83.90 126.666670
7.17 7.191270 4.0750 84.2250 125.0
7.16 7.182540 4.050 84.550 123.333330
7.15 7.173810 4.0250 84.8750 121.666670
7.14 7.160720 4.0 85.20 120.0
7.13 7.147630 4.0250 85.20 119.166670
7.12 7.13860 4.050 85.20 118.333330
7.11 7.129570 4.0750 85.20 117.50
7.10 7.120540 4.10 85.20 116.666670
7.09 7.111810 4.1250 85.20 115.833330
7.08 7.103090 4.150 85.20 115.0
7.07 7.094360 4.1750 85.20 114.166670
7.06 7.081260 4.20 85.20 113.333330
7.05 7.068170 4.20 84.78750 115.714290
7.04 7.059140 4.20 84.3750 118.095240
7.03 7.050110 4.20 83.96250 120.476190
7.02 7.041080 4.20 83.550 122.857140
7.01 7.032660 4.20 83.13750 125.23810
7.00 7.024230 4.20 82.7250 127.619050
6.99 7.01580 4.20 82.31250 130.0
6.98 7.002710 4.20 81.90 133.333330
6.97 6.989620 4.214290 82.185710 136.666670
6.96 6.980890 4.228570 82.471430 140.0
6.95 6.972160 4.242860 82.757140 143.333330
6.94 6.963430 4.257140 83.042860 146.666670
6.93 6.950790 4.271430 83.328570 150.0
6.92 6.938150 4.285710 83.614290 153.333330
6.91 6.929720 4.30 83.90 156.666670
6.90 6.921290 4.30 83.950 148.333330
6.89 6.912870 4.30 84.0 140.0
6.88 6.899770 4.30 84.050 131.666670
6.87 6.886680 4.30 84.10 123.333330
6.86 6.878250 4.30 84.150 115.0
6.85 6.869830 4.30 84.20 106.666670
6.84 6.86140 4.30 84.250 98.333330
6.83 6.852670 4.30 84.30 90.0
6.82 6.843940 4.30 84.250 92.083330
6.81 6.835210 4.30 84.20 94.166670
6.80 6.822120 4.30 84.150 96.250
6.79 6.809030 4.30 84.10 98.333330
6.78 6.80030 4.30 84.050 100.416670
6.77 6.791570 4.30 84.0 102.50
6.76 6.782840 4.30 83.950 104.583330
6.75 6.769750 4.30 83.90 106.666670
6.74 6.756660 4.30 84.11250 115.510750
6.73 6.747930 4.30 84.3250 124.354840
