~VERSION INFORMATION SECTION
VERS. 2.0 : CWLS LAS-VERSION 2.0
WRAP. NO : One line per depth step
~WELL INFORMATION SECTION
# MNEM.UNIT VALUE/NAME DESCRIPTION
#-------- -------------- ---------------------
STRT.Metres 15 : Start
STOP.Metres 0.28 : Stop
STEP.Metres -0.01 : Step
NULL.  -999.25 :NULL VALUE
DATE. 2025-38-11 : DATE
~CURVE INFORMATION SECTION
DEPTH.Metres : 0 Depth
Depth. : 1 Depth
Incline.Deg : 2 Incline
Azimuth.Deg : 3 Azimuth
GR.CPS : 4 GR
~PARAMETER INFORMATION SECTION
~OTHER
#-------------------------------------------------
#Produced By: GeoVista Logger - Version 7.1.107.0
Natural Gamma Sonde - 6447
Verticality Sonde - 6292
#-------------------------------------------------
~ASCII LOG DATA
# ...
13.13 13.163880 4.761540 86.546150 198.974360
13.12 13.15540 4.776920 86.707690 196.410260
13.11 13.146910 4.792310 86.869230 193.846150
13.10 13.138420 4.807690 87.030770 191.282050
13.09 13.129930 4.823080 87.192310 188.717950
13.08 13.121440 4.838460 87.353850 186.153850
13.07 13.110610 4.853850 87.515380 183.589740
13.06 13.099770 4.869230 87.676920 181.025640
13.05 13.088940 4.884620 87.838460 178.461540
13.04 13.07810 4.90 88.0 175.897440
13.03 13.067270 4.907690 87.746150 173.333330
13.02 13.056430 4.915380 87.492310 171.188810
13.01 13.04560 4.923080 87.238460 169.044290
13.00 13.034760 4.930770 86.984620 166.899770
12.99 13.026090 4.938460 86.730770 164.755240
12.98 13.017430 4.946150 86.476920 162.610720
12.97 13.008760 4.953850 86.223080 160.46620
12.96 13.000090 4.961540 85.969230 158.321680
12.95 12.991420 4.969230 85.715380 156.177160
12.94 12.980590 4.976920 85.461540 154.032630
12.93 12.969750 4.984620 85.207690 151.888110
12.92 12.958920 4.992310 84.953850 149.743590
12.91 12.948080 5.0 84.70 147.599070
12.90 12.937250 4.976920 85.092310 145.454550
12.89 12.926410 4.953850 85.484620 148.435770
12.88 12.915580 4.930770 85.876920 151.4170
12.87 12.904740 4.907690 86.269230 154.398230
12.86 12.895890 4.884620 86.661540 157.379460
12.85 12.887040 4.861540 87.053850 160.360690
12.84 12.878190 4.838460 87.446150 163.341920
12.83 12.869350 4.815380 87.838460 166.323150
12.82 12.86050 4.792310 88.230770 169.304380
12.81 12.849660 4.769230 88.623080 172.285610
12.80 12.838830 4.746150 89.015380 175.266840
12.79 12.827990 4.723080 89.407690 178.248070
12.78 12.817160 4.70 89.80 181.22930
12.77 12.808490 4.692310 89.169230 184.210530
12.76 12.799820 4.684620 88.538460 180.809720
12.75 12.791150 4.676920 87.907690 177.408910
12.74 12.782480 4.669230 87.276920 174.00810
12.73 12.773810 4.661540 86.646150 170.607290
12.72 12.762750 4.653850 86.015380 167.206480
12.71 12.751690 4.646150 85.384620 163.805670
12.70 12.740630 4.638460 84.753850 160.404860
12.69 12.729570 4.630770 84.123080 157.004050
12.68 12.718740 4.623080 83.492310 153.603240
12.67 12.70790 4.615380 82.861540 150.202430
12.66 12.697070 4.607690 82.230770 146.801620
12.65 12.686230 4.60 81.60 143.400810
12.64 12.677380 4.630770 81.823080 140.0
12.63 12.668530 4.661540 82.046150 136.493510
12.62 12.659680 4.692310 82.269230 132.987010
12.61 12.650840 4.723080 82.492310 129.480520
12.60 12.641990 4.753850 82.715380 125.974030
12.59 12.631150 4.784620 82.938460 122.467530
12.58 12.620320 4.815380 83.161540 118.961040
12.57 12.609480 4.846150 83.384620 115.454550
12.56 12.598650 4.876920 83.607690 111.948050
12.55 12.588040 4.907690 83.830770 108.441560
12.54 12.577430 4.938460 84.053850 104.935060
12.53 12.566820 4.969230 84.276920 101.428570
12.52 12.556210 5.0 84.50 97.922080
12.51 12.545370 5.0 84.876920 94.415580
12.50 12.534540 5.0 85.253850 90.909090
12.49 12.52370 5.0 85.630770 94.298250
12.48 12.512870 5.0 86.007690 97.68740
12.47 12.504380 5.0 86.384620 101.076560
12.46 12.495890 5.0 86.761540 104.465710
12.45 12.48740 5.0 87.138460 107.854860
12.44 12.478920 5.0 87.515380 111.244020
12.43 12.470430 5.0 87.892310 114.633170
12.42 12.459590 5.0 88.269230 118.022330
12.41 12.448760 5.0 88.646150 121.411480
12.40 12.437920 5.0 89.023080 124.800640
12.39 12.427090 5.0 89.40 128.189790
12.38 12.416480 5.007690 88.976920 131.578950
12.37 12.405870 5.015380 88.553850 134.534410
12.36 12.395260 5.023080 88.130770 137.489880
12.35 12.384650 5.030770 87.707690 140.445340
12.34 12.376160 5.038460 87.284620 143.400810
12.33 12.367670 5.046150 86.861540 146.356280
12.32 12.359190 5.053850 86.438460 149.311740
12.31 12.35070 5.061540 86.015380 152.267210
12.30 12.342210 5.069230 85.592310 155.222670
12.29 12.331380 5.076920 85.169230 158.178140
12.28 12.320540 5.084620 84.746150 161.13360
12.27 12.309710 5.092310 84.323080 164.089070
12.26 12.298870 5.10 83.90 167.044530
12.25 12.288260 5.107690 83.730770 170.0
12.24 12.277650 5.115380 83.561540 165.641030
12.23 12.267040 5.123080 83.392310 161.282050
12.22 12.256430 5.130770 83.223080 156.923080
12.21 12.245820 5.138460 83.053850 152.56410
12.20 12.235210 5.146150 82.884620 148.205130
12.19 12.22460 5.153850 82.715380 143.846150
12.18 12.2140 5.161540 82.546150 139.487180
12.17 12.205330 5.169230 82.376920 135.128210
12.16 12.196660 5.176920 82.207690 130.769230
12.15 12.187990 5.184620 82.038460 126.410260
12.14 12.179320 5.192310 81.869230 122.051280
12.13 12.170650 5.20 81.70 117.692310
12.12 12.160050 5.184620 81.784620 113.333330
12.11 12.149440 5.169230 81.869230 113.589740
12.10 12.138830 5.153850 81.953850 113.846150
12.09 12.128220 5.138460 82.038460 114.102560
12.08 12.117380 5.123080 82.123080 114.358970
12.07 12.106550 5.107690 82.207690 114.615380
12.06 12.095710 5.092310 82.292310 114.871790
12.05 12.084880 5.076920 82.376920 115.128210
12.04 12.076390 5.061540 82.461540 115.384620
12.03 12.06790 5.046150 82.546150 115.641030
12.02 12.059410 5.030770 82.630770 115.897440
12.01 12.050930 5.015380 82.715380 116.153850
12.00 12.042440 5.0 82.80 116.410260
11.99 12.03160 5.0 82.716670 116.666670
11.98 12.020770 5.0 82.633330 120.0
11.97 12.009930 5.0 82.550 123.333330
11.96 11.99910 5.0 82.466670 126.666670
11.95 11.988260 5.0 82.383330 130.0
11.94 11.977430 5.0 82.30 133.333330
11.93 11.966590 5.0 82.216670 136.666670
11.92 11.955760 5.0 82.133330 140.0
11.91 11.947090 5.0 82.050 143.333330
11.90 11.938420 5.0 81.966670 146.666670
11.89 11.929750 5.0 81.883330 150.0
11.88 11.921080 5.0 81.80 153.333330
11.87 11.912420 4.976920 82.030770 156.666670
11.86 11.901810 4.953850 82.261540 160.0
11.85 11.89120 4.930770 82.492310 160.783410
11.84 11.880590 4.907690 82.723080 161.566820
11.83 11.869980 4.884620 82.953850 162.350230
11.82 11.858920 4.861540 83.184620 163.133640
11.81 11.847860 4.838460 83.415380 163.917050
11.80 11.836790 4.815380 83.646150 164.700460
11.79 11.825730 4.792310 83.876920 165.483870
11.78 11.817070 4.769230 84.107690 166.267280
11.77 11.80840 4.746150 84.338460 167.050690
11.76 11.799730 4.723080 84.569230 167.83410
11.75 11.791060 4.70 84.80 168.617510
11.74 11.782390 4.634620 84.403850 169.400920
11.73 11.771560 4.569230 84.007690 170.184330
11.72 11.760720 4.503850 83.611540 170.967740
11.71 11.749890 4.438460 83.215380 169.498210
11.70 11.739050 4.373080 82.819230 168.028670
11.69 11.728220 4.307690 82.423080 166.559140
11.68 11.717380 4.242310 82.026920 165.089610
11.67 11.706550 4.176920 81.630770 163.620070
11.66 11.695710 4.111540 81.234620 162.150540
11.65 11.687220 4.046150 80.838460 160.6810
11.64 11.678740 3.980770 80.442310 159.211470
11.63 11.670250 3.915380 80.046150 157.741940
11.62 11.661760 3.850 79.650 156.27240
11.61 11.653270 3.784620 79.253850 154.802870
11.60 11.642440 3.719230 78.857690 153.333330
11.59 11.63160 3.653850 78.461540 150.256410
11.58 11.620770 3.588460 78.065380 147.179490
11.57 11.609930 3.523080 77.669230 144.102560
11.56 11.599320 3.457690 77.273080 141.025640
11.55 11.588710 3.392310 76.876920 137.948720
11.54 11.57810 3.326920 76.480770 134.871790
11.53 11.567490 3.261540 76.084620 131.794870
11.52 11.556660 3.196150 75.688460 128.717950
11.51 11.545820 3.130770 75.292310 125.641030
11.50 11.534990 3.065380 74.896150 122.56410
11.49 11.524150 3.0 74.50 119.487180
11.48 11.515670 3.146150 75.261540 116.410260
11.47 11.507180 3.292310 76.023080 113.333330
11.46 11.498690 3.438460 76.784620 116.153850
11.45 11.49020 3.584620 77.546150 118.974360
11.44 11.481720 3.730770 78.307690 121.794870
11.43 11.471110 3.876920 79.069230 124.615380
11.42 11.46050 4.023080 79.830770 127.43590
11.41 11.449890 4.169230 80.592310 130.256410
11.40 11.439280 4.315380 81.353850 133.076920
11.39 11.428670 4.461540 82.115380 135.897440
11.38 11.418060 4.607690 82.876920 138.717950
11.37 11.407450 4.753850 83.638460 141.538460
11.36 11.396840 4.90 84.40 144.358970
11.35 11.3860 4.907690 84.669230 147.179490
11.34 11.375170 4.915380 84.938460 150.0
11.33 11.364330 4.923080 85.207690 148.205130
