~VERSION INFORMATION SECTION
VERS. 2.0 : CWLS LAS-VERSION 2.0
WRAP. NO : One line per depth step
~WELL INFORMATION SECTION
# MNEM.UNIT VALUE/NAME DESCRIPTION
#-------- -------------- ---------------------
STRT.Metres 15 : Start
STOP.Metres 0.45 : Stop
STEP.Metres -0.01 : Step
NULL.  -999.25 :NULL VALUE
DATE. 2025-33-11 : DATE
~CURVE INFORMATION SECTION
DEPTH.Metres : 0 Depth
Depth. : 1 Depth
Incline.Deg : 2 Incline
Azimuth.Deg : 3 Azimuth
GR.CPS : 4 GR
~PARAMETER INFORMATION SECTION
~OTHER
#-------------------------------------------------
#Produced By: GeoVista Logger - Version 7.1.107.0
Natural Gamma Sonde - 6447
Verticality Sonde - 6292
#-------------------------------------------------
~ASCII LOG DATA
# ...
12.84 12.854180 5.20 87.080 139.333330
12.83 12.846050 5.20 87.10 134.0
12.82 12.828890 5.180 87.020 128.666670
12.81 12.820770 5.160 86.940 123.333330
12.80 12.812640 5.140 86.860 129.333330
12.79 12.804060 5.120 86.780 135.333330
12.78 12.795490 5.10 86.70 141.333330
12.77 12.779230 5.080 86.740 147.333330
12.76 12.770650 5.060 86.780 153.333330
12.75 12.762080 5.040 86.820 148.0
12.74 12.753950 5.020 86.860 142.666670
12.73 12.745820 5.0 86.90 137.333330
12.72 12.728670 5.0 86.820 132.0
12.71 12.720540 5.0 86.740 126.666670
12.70 12.712420 5.0 86.660 129.904760
12.69 12.704290 5.0 86.580 133.142860
12.68 12.696160 5.0 86.50 136.380950
12.67 12.679010 5.020 86.280 139.619050
12.66 12.670880 5.040 86.060 142.857140
12.65 12.662750 5.060 85.840 134.285710
12.64 12.64650 5.080 85.620 125.714290
12.63 12.638370 5.10 85.40 117.142860
12.62 12.630250 5.120 85.580 108.571430
12.61 12.622120 5.140 85.760 100.0
12.60 12.6140 5.160 85.940 110.0
12.59 12.597740 5.180 86.120 120.0
12.58 12.589620 5.20 86.30 130.0
12.57 12.581490 5.20 86.260 140.0
12.56 12.573360 5.20 86.220 150.0
12.55 12.565240 5.20 86.180 140.0
12.54 12.548980 5.20 86.140 130.0
12.53 12.540860 5.20 86.10 120.0
12.52 12.532730 5.20 85.840 110.0
12.51 12.516480 5.20 85.580 100.0
12.50 12.508350 5.20 85.320 107.333330
12.49 12.500230 5.20 85.060 114.666670
12.48 12.49210 5.20 84.80 122.0
12.47 12.483970 5.20 84.960 129.333330
12.46 12.467720 5.20 85.120 136.666670
12.45 12.459590 5.20 85.280 143.333330
12.44 12.451470 5.20 85.440 150.0
12.43 12.443340 5.20 85.60 156.666670
12.42 12.435210 5.20 85.480 163.333330
12.41 12.418960 5.20 85.360 170.0
12.40 12.410840 5.20 85.240 156.666670
12.39 12.402710 5.20 85.120 143.333330
12.38 12.386460 5.20 85.0 130.0
12.37 12.378330 5.1750 84.70 116.666670
12.36 12.37020 5.150 84.40 116.0
12.35 12.362080 5.1250 84.10 115.333330
12.34 12.353950 5.10 83.80 114.666670
12.33 12.33770 5.10 84.220 114.0
12.32 12.329570 5.10 84.640 113.333330
12.31 12.321440 5.10 85.060 120.666670
12.30 12.313320 5.10 85.480 128.0
12.29 12.305190 5.10 85.90 135.333330
12.28 12.288940 5.10 85.520 142.666670
12.27 12.280810 5.10 85.140 150.0
12.26 12.272690 5.10 84.760 152.727270
12.25 12.256430 5.10 84.380 155.454550
12.24 12.248310 5.10 84.0 158.181820
12.23 12.240180 5.10 84.20 160.909090
12.22 12.232050 5.10 84.40 163.636360
12.21 12.223930 5.10 84.60 154.066990
12.20 12.207670 5.10 84.80 144.497610
12.19 12.199550 5.10 85.0 134.928230
12.18 12.191420 5.080 85.50 125.358850
12.17 12.18330 5.060 86.0 115.789470
12.16 12.175170 5.040 86.50 119.298250
12.15 12.158920 5.020 87.0 122.807020
12.14 12.150790 5.0 87.50 126.315790
12.13 12.142660 4.980 87.040 129.824560
12.12 12.126410 4.960 86.580 133.333330
12.11 12.118280 4.940 86.120 142.0
12.10 12.110160 4.920 85.660 150.666670
12.09 12.102030 4.90 85.20 159.333330
12.08 12.093910 4.920 84.960 168.0
12.07 12.076750 4.940 84.720 176.666670
12.06 12.068620 4.960 84.480 162.623660
12.05 12.06050 4.980 84.240 148.580650
12.04 12.052370 5.0 84.0 134.537630
12.03 12.044240 5.0 84.460 120.494620
12.02 12.027990 5.0 84.920 106.451610
12.01 12.019860 5.0 85.380 115.827960
12.00 12.011740 5.0 85.840 125.20430
11.99 12.003610 5.0 86.30 134.580650
11.98 11.995490 5.0 86.750 143.956990
11.97 11.979230 5.0 87.20 153.333330
11.96 11.970650 5.0 87.650 154.666670
11.95 11.962080 5.0 88.10 156.0
11.94 11.953950 5.0 87.640 157.333330
11.93 11.945820 5.0 87.180 158.666670
11.92 11.929570 5.0 86.720 160.0
11.91 11.921440 5.0 86.260 161.333330
11.90 11.913320 5.0 85.80 162.666670
11.89 11.904740 5.0 85.860 164.0
11.88 11.896160 5.0 85.920 165.333330
11.87 11.879910 5.0 85.980 166.666670
11.86 11.871780 5.0 86.040 165.333330
11.85 11.863660 5.0 86.10 164.0
11.84 11.84740 4.960 86.40 162.666670
11.83 11.838830 4.920 86.70 161.333330
11.82 11.830250 4.880 87.0 160.0
11.81 11.822120 4.840 87.30 166.0
11.80 11.8140 4.80 87.60 172.0
11.79 11.797740 4.820 86.920 178.0
11.78 11.789160 4.840 86.240 184.0
11.77 11.780590 4.860 85.560 190.0
11.76 11.772460 4.880 84.880 182.666670
11.75 11.764330 4.90 84.20 175.333330
11.74 11.748080 4.90 84.20 168.0
11.73 11.739950 4.90 84.20 160.666670
11.72 11.731830 4.90 84.20 153.333330
11.71 11.72370 4.90 84.20 153.333330
11.70 11.715580 4.90 84.20 153.333330
11.69 11.699320 4.880 85.10 153.333330
11.68 11.69120 4.860 86.0 153.333330
11.67 11.683070 4.840 86.90 153.333330
11.66 11.666820 4.820 87.80 158.333330
11.65 11.658690 4.80 88.70 163.333330
11.64 11.650560 4.80 88.340 168.333330
11.63 11.641990 4.80 87.980 173.333330
11.62 11.633410 4.80 87.620 174.0
11.61 11.617160 4.80 87.260 174.666670
11.60 11.609030 4.80 86.90 175.333330
11.59 11.60090 4.80 86.520 176.0
11.58 11.592780 4.80 86.140 176.666670
11.57 11.584650 4.80 85.760 170.0
11.56 11.56840 4.80 85.380 163.333330
11.55 11.560270 4.80 85.0 156.666670
11.54 11.552140 4.820 85.380 150.0
11.53 11.544020 4.840 85.760 143.333330
11.52 11.535890 4.860 86.140 141.333330
11.51 11.519640 4.880 86.520 139.333330
11.50 11.511060 4.90 86.90 137.333330
11.49 11.502480 4.90 86.960 135.333330
11.48 11.494360 4.90 87.020 133.333330
11.47 11.486230 4.90 87.080 132.666670
11.46 11.469980 4.90 87.140 132.0
11.45 11.461850 4.90 87.20 131.333330
11.44 11.453720 4.90 86.820 130.666670
11.43 11.438370 4.90 86.440 130.0
11.42 11.430250 4.90 86.060 130.0
11.41 11.422120 4.90 85.680 130.0
11.40 11.4140 4.90 85.30 130.0
11.39 11.405870 4.9250 85.9750 130.0
11.38 11.389620 4.950 86.650 130.0
11.37 11.381490 4.9750 87.3250 126.666670
11.36 11.373360 5.0 88.0 123.333330
11.35 11.357110 5.0 87.640 120.0
11.34 11.348980 5.0 87.280 116.666670
11.33 11.340860 5.0 86.920 113.333330
11.32 11.332730 5.0 86.560 116.666670
11.31 11.32460 5.0 86.20 120.0
11.30 11.308350 4.980 85.580 123.333330
11.29 11.300230 4.960 84.960 126.666670
11.28 11.29210 4.940 84.340 130.0
11.27 11.283970 4.920 83.720 133.333330
11.26 11.275850 4.90 83.10 136.666670
11.25 11.259590 4.920 84.020 140.0
11.24 11.251470 4.940 84.940 143.333330
11.23 11.243340 4.960 85.860 135.619050
11.22 11.227090 4.980 86.780 127.904760
11.21 11.218960 5.0 87.70 120.190480
11.20 11.210840 4.980 87.920 112.476190
11.19 11.202710 4.960 88.140 104.76190
11.18 11.194580 4.940 88.360 110.476190
11.17 11.177430 4.920 88.580 116.190480
11.16 11.16930 4.90 88.80 121.904760
11.15 11.161170 4.90 88.660 127.619050
11.14 11.153050 4.90 88.520 133.333330
11.13 11.144920 4.90 88.380 137.634410
11.12 11.128670 4.90 88.240 141.935480
11.11 11.120540 4.90 88.10 146.236560
11.10 11.112420 4.880 88.080 150.537630
11.09 11.104290 4.860 88.060 154.838710
11.08 11.096160 4.840 88.040 157.870970
11.07 11.079910 4.820 88.020 160.903230
11.06 11.071780 4.80 88.0 163.935480
11.05 11.063660 4.820 88.440 166.967740
11.04 11.04650 4.840 88.880 170.0
11.03 11.038370 4.860 89.320 178.0
11.02 11.030250 4.880 89.760 186.0
11.01 11.022120 4.90 90.20 194.0
11.00 11.0140 4.90 89.90 202.0
10.99 10.997740 4.90 89.60 210.0
10.98 10.989620 4.90 89.30 203.333330
10.97 10.981490 4.90 89.0 196.666670
10.96 10.972910 4.90 88.70 190.0
10.95 10.964330 4.90 88.3250 183.333330
10.94 10.948080 4.90 87.950 176.666670
10.93 10.939950 4.90 87.5750 170.0
10.92 10.931830 4.90 87.20 163.333330
10.91 10.92370 4.90 87.60 156.666670
10.90 10.915580 4.90 88.0 150.0
10.89 10.898420 4.90 88.40 143.333330
10.88 10.890290 4.90 88.80 142.666670
10.87 10.882170 4.90 89.20 142.0
10.86 10.874040 4.90 89.520 141.333330
10.85 10.865910 4.90 89.840 140.666670
10.84 10.849660 4.90 90.160 140.0
10.83 10.841530 4.90 90.480 144.0
10.82 10.833410 4.90 90.80 148.0
10.81 10.817160 4.90 90.140 152.0
10.80 10.809030 4.90 89.480 156.0
10.79 10.80090 4.90 88.820 160.0
10.78 10.792780 4.90 88.160 151.333330
10.77 10.784650 4.90 87.50 142.666670
10.76 10.76840 4.90 87.30 134.0
10.75 10.760270 4.90 87.10 125.333330
10.74 10.752140 4.90 86.90 116.666670
10.73 10.744020 4.90 86.70 130.666670
10.72 10.735890 4.90 86.50 144.666670
10.71 10.718740 4.90 87.420 158.666670
10.70 10.710610 4.90 88.340 172.666670
10.69 10.702480 4.90 89.260 186.666670
