~VERSION INFORMATION SECTION
VERS. 2.0 : CWLS LAS-VERSION 2.0
WRAP. NO : One line per depth step
~WELL INFORMATION SECTION
# MNEM.UNIT VALUE/NAME DESCRIPTION
#-------- -------------- ---------------------
STRT.Metres 16 : Start
STOP.Metres 0.37 : Stop
STEP.Metres -0.01 : Step
NULL.  -999.25 :NULL VALUE
DATE. 2025-28-11 : DATE
~CURVE INFORMATION SECTION
DEPTH.Metres : 0 Depth
Depth. : 1 Depth
Incline.Deg : 2 Incline
Azimuth.Deg : 3 Azimuth
GR.CPS : 4 GR
~PARAMETER INFORMATION SECTION
~OTHER
#-------------------------------------------------
#Produced By: GeoVista Logger - Version 7.1.107.0
Natural Gamma Sonde - 6447
Verticality Sonde - 6292
#-------------------------------------------------
~ASCII LOG DATA
# ...
3.09 3.098870 3.30 72.50 133.333330
3.08 3.085330 3.350 71.950 140.0
3.07 3.072690 3.40 71.40 139.569890
3.06 3.063660 3.366670 72.333330 139.139780
3.05 3.054630 3.333330 73.266670 138.709680
3.04 3.04650 3.30 74.20 119.139780
3.03 3.037470 3.266670 71.80 99.569890
3.02 3.028440 3.233330 69.40 80.0
3.01 3.015350 3.20 67.0 145.0
3.00 3.002260 3.20 69.50 210.0
2.99 2.993230 3.20 72.0 193.333330
2.98 2.98420 3.20 71.10 176.666670
2.97 2.976070 3.20 70.20 160.0
2.96 2.967040 3.20 69.30 163.333330
2.95 2.958010 3.20 68.350 166.666670
2.94 2.948980 3.20 67.40 170.0
2.93 2.935440 3.20 69.50 166.666670
2.92 2.92190 3.20 71.60 163.333330
2.91 2.913770 3.20 73.70 148.888890
2.90 2.904740 3.20 72.266670 134.444440
2.89 2.895710 3.20 70.833330 120.0
2.88 2.886680 3.20 69.40 127.777780
2.87 2.878560 3.20 69.90 135.555560
2.86 2.865010 3.20 70.40 143.333330
2.85 2.851470 3.20 70.90 153.333330
2.84 2.842440 3.20 71.40 163.333330
2.83 2.834310 3.20 71.90 155.555560
2.82 2.825280 3.20 71.10 147.777780
2.81 2.816250 3.20 70.30 140.0
2.80 2.807220 3.20 69.50 144.444440
2.79 2.798190 3.150 71.20 148.888890
2.78 2.78510 3.10 72.90 153.333330
2.77 2.772010 3.133330 72.233330 143.333330
2.76 2.762980 3.166670 71.566670 133.333330
2.75 2.753950 3.20 70.90 135.555560
2.74 2.744920 3.166670 71.233330 137.777780
2.73 2.735890 3.133330 71.566670 140.0
2.72 2.726860 3.10 71.90 143.333330
2.71 2.718740 3.10 70.70 146.666670
2.70 2.705190 3.10 69.50 150.0
2.69 2.691650 3.10 69.70 148.333330
2.68 2.682620 3.10 69.90 146.666670
2.67 2.673590 3.10 70.10 157.777780
2.66 2.665460 3.10 70.30 168.888890
2.65 2.656430 3.10 70.50 180.0
2.64 2.64740 3.10 70.733330 141.212120
2.63 2.638370 3.10 70.966670 102.424240
2.62 2.624830 3.10 71.20 63.636360
2.61 2.612190 3.10 70.266670 126.555020
2.60 2.603160 3.10 69.333330 189.473680
2.59 2.594130 3.10 68.40 177.42690
2.58 2.5860 3.050 67.70 165.380120
2.57 2.576980 3.0 67.0 153.333330
2.56 2.567950 3.033330 67.266670 154.086020
2.55 2.55530 3.066670 67.533330 154.838710
2.54 2.541760 3.10 67.80 165.448030
2.53 2.533630 3.10 67.866670 176.057350
2.52 2.52460 3.10 67.933330 186.666670
2.51 2.515580 3.10 68.0 181.666670
2.50 2.507450 3.050 69.350 176.666670
2.49 2.498420 3.0 70.70 171.111110
2.48 2.484880 3.033330 68.533330 165.555560
2.47 2.472230 3.066670 66.366670 160.0
2.46 2.463210 3.10 64.20 151.111110
2.45 2.454180 3.066670 65.633330 142.222220
2.44 2.445150 3.033330 67.066670 133.333330
2.43 2.436120 3.0 68.50 131.666670
2.42 2.427090 3.0 67.450 130.0
2.41 2.418960 3.0 66.40 141.111110
2.40 2.405420 3.0 66.866670 152.222220
2.39 2.391870 3.0 67.333330 163.333330
2.38 2.382840 3.0 67.80 174.444440
2.37 2.374720 3.0 68.266670 185.555560
2.36 2.365690 3.0 68.733330 196.666670
2.35 2.357560 3.0 69.20 173.333330
2.34 2.348530 3.0 68.150 150.0
2.33 2.335440 3.0 67.10 131.111110
2.32 2.322350 2.966670 66.666670 112.222220
2.31 2.314220 2.933330 66.233330 93.333330
2.30 2.305190 2.90 65.80 130.0
2.29 2.297070 2.933330 65.433330 166.666670
2.28 2.288040 2.966670 65.066670 148.888890
2.27 2.27540 3.0 64.70 131.111110
2.26 2.262750 2.950 66.350 113.333330
2.25 2.253720 2.90 68.0 124.444440
2.24 2.24560 2.933330 67.266670 135.555560
2.23 2.236570 2.966670 66.533330 146.666670
2.22 2.227540 3.0 65.80 156.666670
2.21 2.21490 2.966670 67.333330 166.666670
2.20 2.202260 2.933330 68.866670 171.111110
2.19 2.193230 2.90 70.40 175.555560
2.18 2.18420 2.850 71.150 180.0
2.17 2.176070 2.80 71.90 160.0
2.16 2.167040 2.80 71.0 140.0
2.15 2.158010 2.80 70.10 120.0
2.14 2.145370 2.80 69.20 146.666670
2.13 2.131830 2.80 69.150 173.333330
2.12 2.12370 2.80 69.10 160.0
2.11 2.114670 2.80 67.966670 146.666670
2.10 2.105640 2.80 66.833330 133.333330
2.09 2.096610 2.80 65.70 144.444440
2.08 2.088490 2.766670 68.533330 155.555560
2.07 2.074940 2.733330 71.366670 166.666670
2.06 2.06140 2.70 74.20 155.913980
2.05 2.052370 2.750 69.0 145.161290
2.04 2.043340 2.80 63.80 142.329750
2.03 2.034310 2.733330 66.70 139.498210
2.02 2.026190 2.666670 69.60 136.666670
2.01 2.017160 2.60 72.50 146.666670
2.00 2.008130 2.550 70.10 156.666670
1.99 1.995030 2.50 67.70 160.0
1.98 1.981940 2.533330 67.40 163.333330
1.97 1.972910 2.566670 67.10 166.666670
1.96 1.963880 2.60 66.80 165.555560
1.95 1.955760 2.60 66.30 164.444440
1.94 1.946730 2.60 65.80 163.333330
1.93 1.93770 2.60 65.30 147.777780
1.92 1.92460 2.550 66.750 132.222220
1.91 1.911510 2.50 68.20 116.666670
1.90 1.902480 2.50 67.333330 141.666670
1.89 1.893450 2.50 66.466670 166.666670
1.88 1.884420 2.50 65.60 167.777780
1.87 1.87630 2.450 69.70 168.888890
1.86 1.867270 2.40 73.80 170.0
1.85 1.858240 2.433330 70.766670 138.333330
1.84 1.84470 2.466670 67.733330 106.666670
1.83 1.831150 2.50 64.70 125.555560
1.82 1.822120 2.466670 65.166670 144.444440
1.81 1.8140 2.433330 65.633330 163.333330
1.80 1.804970 2.40 66.10 155.555560
1.79 1.795940 2.350 65.250 147.777780
1.78 1.786910 2.30 64.40 140.0
1.77 1.777880 2.30 65.733330 144.848480
1.76 1.765240 2.30 67.066670 149.696970
1.75 1.751690 2.30 68.40 154.545450
1.74 1.742660 2.333330 68.80 150.956940
1.73 1.733630 2.366670 69.20 147.368420
1.72 1.725510 2.40 69.60 149.356730
1.71 1.716480 2.40 68.750 151.345030
1.70 1.707450 2.40 67.90 153.333330
1.69 1.694810 2.366670 67.666670 155.0
1.68 1.681260 2.333330 67.433330 156.666670
1.67 1.673140 2.30 67.20 147.777780
1.66 1.664110 2.266670 69.066670 138.888890
1.65 1.655980 2.233330 70.933330 130.0
1.64 1.646950 2.20 72.80 132.222220
1.63 1.637920 2.250 69.0 134.444440
1.62 1.625280 2.30 65.20 136.666670
1.61 1.611740 2.30 68.30 140.0
1.60 1.602710 2.30 71.40 143.333330
1.59 1.594580 2.30 74.50 135.555560
1.58 1.585550 2.30 72.066670 127.777780
1.57 1.576520 2.30 69.633330 120.0
1.56 1.56840 2.30 67.20 123.010750
1.55 1.554850 2.150 69.70 126.021510
1.54 1.542210 2.0 72.20 129.032260
1.53 1.533180 2.066670 70.70 119.516130
1.52 1.524150 2.133330 69.20 110.0
1.51 1.516030 2.20 67.70 116.666670
1.50 1.5070 2.20 66.966670 123.333330
1.49 1.497970 2.20 66.233330 130.0
1.48 1.484880 2.20 65.50 146.666670
1.47 1.471780 2.150 68.050 163.333330
1.46 1.462750 2.10 70.60 152.222220
1.45 1.453720 2.10 68.166670 141.111110
1.44 1.44560 2.10 65.733330 130.0
1.43 1.436570 2.10 63.30 145.555560
1.42 1.427540 2.066670 65.10 161.111110
1.41 1.41490 2.033330 66.90 176.666670
1.40 1.401350 2.0 68.70 176.666670
1.39 1.392330 2.0 66.450 176.666670
1.38 1.38420 2.0 64.20 156.666670
1.37 1.375170 2.0 65.966670 136.666670
1.36 1.366140 2.0 67.733330 116.666670
1.35 1.357110 2.0 69.50 133.333330
1.34 1.348980 2.0 66.750 150.0
1.33 1.335440 2.0 64.0 145.555560
1.32 1.32190 1.933330 65.50 141.111110
1.31 1.312870 1.866670 67.0 136.666670
1.30 1.304740 1.80 68.50 148.888890
1.29 1.295710 1.866670 67.233330 161.111110
1.28 1.286680 1.933330 65.966670 173.333330
1.27 1.274040 2.0 64.70 170.0
1.26 1.264110 1.950 66.20 166.666670
1.25 1.255080 1.90 67.70 157.142860
1.24 -999.25 1.90 68.833330 147.619050
1.23 -999.25 1.90 69.966670 138.095240
1.22 -999.25 1.90 71.10 147.619050
1.21 -999.25 1.880 70.440 157.142860
1.20 -999.25 1.860 69.780 166.666670
1.19 -999.25 1.840 69.120 165.0
1.18 -999.25 1.820 68.460 163.333330
1.17 -999.25 1.80 67.80 171.111110
1.16 -999.25 1.80 69.633330 178.888890
1.15 -999.25 1.80 71.466670 186.666670
1.14 -999.25 1.80 73.30 177.777780
1.13 -999.25 1.750 72.150 168.888890
1.12 -999.25 1.70 71.0 160.0
1.11 -999.25 1.70 68.30 160.0
1.10 -999.25 1.70 65.60 160.0
1.09 -999.25 1.70 62.90 155.555560
1.08 -999.25 1.666670 66.966670 151.111110
1.07 -999.25 1.633330 71.033330 146.666670
1.06 -999.25 1.60 75.10 141.075270
1.05 -999.25 1.550 70.80 135.483870
1.04 -999.25 1.50 66.50 136.989250
1.03 -999.25 1.533330 67.583330 138.494620
1.02 -999.25 1.566670 68.666670 140.0
1.01 -999.25 1.60 69.750 131.111110
1.00 -999.25 1.633330 70.833330 122.222220
0.99 -999.25 1.666670 71.916670 113.333330
0.98 -999.25 1.70 73.0 126.666670
0.97 -999.25 1.60 70.650 140.0
0.96 -999.25 1.50 68.30 147.777780
0.95 -999.25 1.40 73.90 155.555560
0.94 -999.25 -999.25 -999.25 163.333330
