~VERSION INFORMATION SECTION
VERS. 2.0 : CWLS LAS-VERSION 2.0
WRAP. NO : One line per depth step
~WELL INFORMATION SECTION
# MNEM.UNIT VALUE/NAME DESCRIPTION
#-------- -------------- ---------------------
STRT.Metres 15 : Start
STOP.Metres 0.36 : Stop
STEP.Metres -0.01 : Step
NULL.  -999.25 :NULL VALUE
DATE. 2025-36-11 : DATE
~CURVE INFORMATION SECTION
DEPTH.Metres : 0 Depth
Depth. : 1 Depth
Incline.Deg : 2 Incline
Azimuth.Deg : 3 Azimuth
GR.CPS : 4 GR
~PARAMETER INFORMATION SECTION
~OTHER
#-------------------------------------------------
#Produced By: GeoVista Logger - Version 7.1.107.0
Natural Gamma Sonde - 6447
Verticality Sonde - 6292
#-------------------------------------------------
~ASCII LOG DATA
# ...
6.72 6.73920 4.30 84.53750 133.198920
6.71 6.730470 4.30 84.750 142.043010
6.70 6.721750 4.30 84.96250 150.88710
6.69 6.713020 4.30 85.1750 159.731180
6.68 6.704290 4.30 85.38750 168.575270
6.67 6.690740 4.30 85.60 177.419350
6.66 6.67720 4.30 85.650 176.90860
6.65 6.668470 4.30 85.70 176.397850
6.64 6.659740 4.30 85.750 175.88710
6.63 6.651020 4.30 85.80 175.376340
6.62 6.642290 4.30 85.850 174.865590
6.61 6.633560 4.30 85.90 174.354840
6.60 6.624830 4.30 85.950 173.844090
6.59 6.611290 4.30 86.0 173.333330
6.58 6.597740 4.26250 85.3750 171.250
6.57 6.589010 4.2250 84.750 169.166670
6.56 6.580290 4.18750 84.1250 167.083330
6.55 6.571560 4.150 83.50 165.0
6.54 6.562830 4.11250 82.8750 162.916670
6.53 6.55410 4.0750 82.250 160.833330
6.52 6.545370 4.03750 81.6250 158.750
6.51 6.532280 4.0 81.0 156.666670
6.50 6.519190 4.013330 81.153330 155.0
6.49 6.510460 4.026670 81.306670 153.333330
6.48 6.501730 4.040 81.460 151.666670
6.47 6.4930 4.053330 81.613330 150.0
6.46 6.483970 4.066670 81.766670 148.333330
6.45 6.474940 4.080 81.920 146.666670
6.44 6.465910 4.093330 82.073330 145.0
6.43 6.452820 4.106670 82.226670 143.333330
6.42 6.439730 4.120 82.380 150.833330
6.41 6.43070 4.133330 82.533330 158.333330
6.40 6.421670 4.146670 82.686670 165.833330
6.39 6.412640 4.160 82.840 173.333330
6.38 6.399550 4.173330 82.993330 180.833330
6.37 6.386460 4.186670 83.146670 188.333330
6.36 6.377730 4.20 83.30 195.833330
6.35 6.3690 4.18750 83.0250 203.333330
6.34 6.360270 4.1750 82.750 198.750
6.33 6.351540 4.16250 82.4750 194.166670
6.32 6.342810 4.150 82.20 189.583330
6.31 6.334090 4.13750 81.9250 185.0
6.30 6.320540 4.1250 81.650 180.416670
6.29 6.3070 4.11250 81.3750 175.833330
6.28 6.298270 4.10 81.10 171.250
6.27 6.289540 4.10 81.2750 166.666670
6.26 6.280810 4.10 81.450 168.333330
6.25 6.272080 4.10 81.6250 170.0
6.24 6.263360 4.10 81.80 171.666670
6.23 6.254630 4.10 81.9750 173.333330
6.22 6.241530 4.10 82.150 175.0
6.21 6.228440 4.10 82.3250 176.666670
6.20 6.219710 4.10 82.50 178.333330
6.19 6.210990 4.11250 82.66250 180.0
6.18 6.202260 4.1250 82.8250 179.047620
6.17 6.193530 4.13750 82.98750 178.095240
6.16 6.18480 4.150 83.150 177.142860
6.15 6.176070 4.16250 83.31250 176.190480
6.14 6.162980 4.1750 83.4750 175.23810
6.13 6.149890 4.18750 83.63750 174.285710
6.12 6.141160 4.20 83.80 173.333330
6.11 6.132430 4.21250 83.13750 172.083330
6.10 6.12370 4.2250 82.4750 170.833330
6.09 6.110610 4.23750 81.81250 169.583330
6.08 6.097520 4.250 81.150 168.333330
6.07 6.088790 4.26250 80.48750 167.083330
6.06 6.080060 4.2750 79.8250 165.833330
6.05 6.071330 4.28750 79.16250 164.583330
6.04 6.06260 4.30 78.50 163.333330
6.03 6.053880 4.31250 78.76250 165.416670
6.02 6.045150 4.3250 79.0250 167.50
6.01 6.032050 4.33750 79.28750 169.583330
6.00 6.018960 4.350 79.550 171.666670
5.99 6.010230 4.36250 79.81250 173.750
5.98 6.00150 4.3750 80.0750 175.833330
5.97 5.992780 4.38750 80.33750 177.916670
5.96 5.983750 4.40 80.60 180.0
5.95 5.974720 4.40 80.7250 177.083330
5.94 5.965690 4.40 80.850 174.166670
5.93 5.95260 4.40 80.9750 171.250
5.92 5.93950 4.40 81.10 168.333330
5.91 5.930780 4.40 81.2250 165.416670
5.90 5.922050 4.40 81.350 162.50
5.89 5.913320 4.40 81.4750 159.583330
5.88 5.899770 4.40 81.60 156.666670
5.87 5.886230 4.38750 81.050 160.833330
5.86 5.87780 4.3750 80.50 165.0
5.85 5.869380 4.36250 79.950 169.166670
5.84 5.860950 4.350 79.40 173.333330
5.83 5.852220 4.33750 78.850 177.50
5.82 5.843490 4.3250 78.30 181.666670
5.81 5.834760 4.31250 77.750 185.833330
5.80 5.822120 4.30 77.20 190.0
5.79 5.809480 4.31250 77.41250 183.295450
5.78 5.800750 4.3250 77.6250 176.590910
5.77 5.792020 4.33750 77.83750 169.886360
5.76 5.78330 4.350 78.050 163.181820
5.75 5.77020 4.36250 78.26250 156.477270
5.74 5.757110 4.3750 78.4750 149.772730
5.73 5.748380 4.38750 78.68750 143.068180
5.72 5.739650 4.40 78.90 136.363640
5.71 5.730930 4.40 79.3250 137.081340
5.70 5.72220 4.40 79.750 137.799040
5.69 5.713470 4.40 80.1750 138.516750
5.68 5.704740 4.40 80.60 139.234450
5.67 5.691650 4.40 81.0250 139.952150
5.66 5.678560 4.40 81.450 140.669860
5.65 5.669830 4.40 81.8750 141.387560
5.64 5.66110 4.40 82.30 142.105260
5.63 5.652370 4.40 81.571430 139.423560
5.62 5.643340 4.40 80.842860 136.741850
5.61 5.634310 4.40 80.114290 134.060150
5.60 5.625280 4.40 79.385710 131.378450
5.59 5.612190 4.40 78.657140 128.696740
5.58 5.59910 4.40 77.928570 126.015040
5.57 5.590370 4.40 77.20 123.333330
5.56 5.581640 4.40 77.61250 127.916670
5.55 5.572910 4.40 78.0250 132.50
5.54 5.563880 4.40 78.43750 137.083330
5.53 5.554850 4.40 78.850 141.666670
5.52 5.545820 4.40 79.26250 146.250
5.51 5.532730 4.40 79.6750 150.833330
5.50 5.519640 4.40 80.08750 155.416670
5.49 5.510910 4.40 80.50 160.0
5.48 5.502180 4.33750 79.66250 157.50
5.47 5.493450 4.2750 78.8250 155.0
5.46 5.480360 4.21250 77.98750 152.50
5.45 5.467270 4.150 77.150 150.0
5.44 5.458540 4.08750 76.31250 147.50
5.43 5.449810 4.0250 75.4750 145.0
5.42 5.441080 3.96250 74.63750 142.50
5.41 5.432050 3.90 73.80 140.0
5.40 5.423020 3.9250 74.16250 137.50
5.39 5.4140 3.950 74.5250 135.0
5.38 5.40090 3.9750 74.88750 132.50
5.37 5.387810 4.0 75.250 130.0
5.36 5.379380 4.0250 75.61250 127.50
5.35 5.370960 4.050 75.9750 125.0
5.34 5.362530 4.0750 76.33750 122.50
5.33 5.349440 4.10 76.70 120.0
5.32 5.336340 4.093750 77.0750 125.833330
5.31 5.327610 4.08750 77.450 131.666670
5.30 5.318890 4.081250 77.8250 137.50
5.29 5.310160 4.0750 78.20 143.333330
5.28 5.301430 4.068750 78.5750 149.166670
5.27 5.29270 4.06250 78.950 155.0
5.26 5.283970 4.056250 79.3250 160.833330
5.25 5.270880 4.050 79.70 166.666670
5.24 5.257790 4.043750 80.0750 162.768820
5.23 5.249060 4.03750 80.450 158.870970
5.22 5.240330 4.031250 80.8250 154.973120
5.21 5.23160 4.0250 81.20 151.075270
5.20 5.222870 4.018750 81.5750 147.177420
5.19 5.214150 4.01250 81.950 143.279570
5.18 5.205420 4.006250 82.3250 139.381720
5.17 5.192330 4.0 82.70 135.483870
5.16 5.179230 3.9750 81.90 136.465050
5.15 5.17050 3.950 81.10 137.446240
5.14 5.161780 3.9250 80.30 138.427420
5.13 5.153050 3.90 79.50 139.40860
5.12 5.140410 3.8750 78.70 140.389780
5.11 5.127770 3.850 77.90 141.370970
5.10 5.119040 3.8250 77.10 142.352150
5.09 5.110310 3.80 76.30 143.333330
5.08 5.101580 3.828570 76.328570 145.416670
5.07 5.092850 3.857140 76.357140 147.50
5.06 5.084120 3.885710 76.385710 149.583330
5.05 5.07540 3.914290 76.414290 151.666670
5.04 5.061850 3.942860 76.442860 153.750
5.03 5.048310 3.971430 76.471430 155.833330
5.02 5.039580 4.0 76.50 157.916670
5.01 5.030850 3.9750 77.150 160.0
5.00 5.022120 3.950 77.80 164.285710
4.99 5.013390 3.9250 78.450 168.571430
4.98 5.004670 3.90 79.10 172.857140
4.97 4.995940 3.8750 79.750 177.142860
4.96 4.982840 3.850 80.40 181.428570
4.95 4.969750 3.8250 81.050 185.714290
4.94 4.961020 3.80 81.70 190.0
4.93 4.952290 3.81250 80.70 191.666670
4.92 4.943570 3.8250 79.70 193.333330
4.91 4.930020 3.83750 78.70 195.0
4.90 4.916480 3.850 77.70 196.666670
4.89 4.907750 3.86250 76.70 198.333330
4.88 4.899020 3.8750 75.70 200.0
4.87 4.890290 3.88750 74.70 201.666670
4.86 4.881260 3.90 73.70 203.333330
4.85 4.872230 3.90 74.0250 193.750
4.84 4.863210 3.90 74.350 184.166670
4.83 4.854480 3.90 74.6750 174.583330
4.82 4.845750 3.90 75.0 165.0
4.81 4.837020 3.90 75.3250 155.416670
4.80 4.823480 3.90 75.650 145.833330
4.79 4.809930 3.90 75.9750 136.250
4.78 4.80090 3.90 76.30 126.666670
4.77 4.791870 3.8750 76.850 131.458330
4.76 4.782840 3.850 77.40 136.250
4.75 4.773810 3.8250 77.950 141.041670
4.74 4.764790 3.80 78.50 145.833330
4.73 4.755760 3.7750 79.050 150.6250
4.72 4.742660 3.750 79.60 155.416670
4.71 4.729570 3.7250 80.150 160.208330
4.70 4.720540 3.70 80.70 165.0
4.69 4.711510 3.73750 80.13750 166.8750
4.68 4.702480 3.7750 79.5750 168.750
4.67 4.689390 3.81250 79.01250 170.6250
4.66 4.67630 3.850 78.450 172.50
4.65 4.667570 3.88750 77.88750 174.3750
4.64 4.658840 3.9250 77.3250 176.250
4.63 4.650110 3.96250 76.76250 178.1250
4.62 4.641080 4.0 76.20 180.0
4.61 4.632050 4.0 76.93750 185.909090
