~VERSION INFORMATION SECTION
VERS. 2.0 : CWLS LAS-VERSION 2.0
WRAP. NO : One line per depth step
~WELL INFORMATION SECTION
# MNEM.UNIT VALUE/NAME DESCRIPTION
#-------- -------------- ---------------------
STRT.Metres 15 : Start
STOP.Metres 0.45 : Stop
STEP.Metres -0.01 : Step
NULL.  -999.25 :NULL VALUE
DATE. 2025-33-11 : DATE
~CURVE INFORMATION SECTION
DEPTH.Metres : 0 Depth
Depth. : 1 Depth
Incline.Deg : 2 Incline
Azimuth.Deg : 3 Azimuth
GR.CPS : 4 GR
~PARAMETER INFORMATION SECTION
~OTHER
#-------------------------------------------------
#Produced By: GeoVista Logger - Version 7.1.107.0
Natural Gamma Sonde - 6447
Verticality Sonde - 6292
#-------------------------------------------------
~ASCII LOG DATA
# ...
3.92 3.933630 3.640 76.340 126.0
3.91 3.925060 3.620 75.520 125.333330
3.90 3.90790 3.60 74.70 124.666670
3.89 3.899770 3.580 76.680 124.0
3.88 3.891650 3.560 78.660 123.333330
3.87 3.883070 3.540 80.640 128.0
3.86 3.874490 3.520 82.620 132.666670
3.85 3.857340 3.50 84.60 137.333330
3.84 3.848760 3.520 82.840 142.0
3.83 3.840180 3.540 81.080 146.666670
3.82 3.832050 3.560 79.320 148.0
3.81 3.823930 3.580 77.560 149.333330
3.80 3.806770 3.60 75.80 150.666670
3.79 3.798650 3.620 77.10 152.0
3.78 3.790520 3.640 78.40 153.333330
3.77 3.781940 3.660 79.70 156.666670
3.76 3.773360 3.680 81.0 160.0
3.75 3.764790 3.70 82.30 163.333330
3.74 3.756210 3.70 80.240 166.666670
3.73 3.739050 3.70 78.180 170.0
3.72 3.730470 3.70 76.120 174.709680
3.71 3.72190 3.70 74.060 179.419350
3.70 3.713320 3.70 72.0 184.129030
3.69 3.704740 3.680 72.780 188.838710
3.68 3.687580 3.660 73.560 193.548390
3.67 3.679010 3.640 74.340 192.172040
3.66 3.670430 3.620 75.120 190.79570
3.65 3.661850 3.60 75.90 189.419350
3.64 3.653270 3.60 76.240 188.043010
3.63 3.64470 3.60 76.580 186.666670
3.62 3.636120 3.60 76.920 184.0
3.61 3.619860 3.60 77.260 181.333330
3.60 3.611290 3.60 77.60 178.666670
3.59 3.602710 3.60 77.620 176.0
3.58 3.586460 3.60 77.640 173.333330
3.57 3.578330 3.60 77.660 167.333330
3.56 3.57020 3.60 77.680 161.333330
3.55 3.562080 3.60 77.70 155.333330
3.54 3.553950 3.60 77.540 149.333330
3.53 3.53770 3.60 77.380 143.333330
3.52 3.529570 3.60 77.220 144.666670
3.51 3.521440 3.60 77.060 146.0
3.50 3.513320 3.60 76.90 147.333330
3.49 3.505190 3.583330 77.016670 148.666670
3.48 3.488940 3.566670 77.133330 150.0
3.47 3.480810 3.550 77.250 152.0
3.46 3.472690 3.533330 77.366670 154.0
3.45 3.456430 3.516670 77.483330 156.0
3.44 3.448310 3.50 77.60 158.0
3.43 3.440180 3.50 77.920 160.0
3.42 3.432050 3.50 78.240 158.666670
3.41 3.423930 3.50 78.560 157.333330
3.40 3.406770 3.50 78.880 156.0
3.39 3.398650 3.50 79.20 154.666670
3.38 3.390520 3.480 77.760 153.333330
3.37 3.382390 3.460 76.320 160.0
3.36 3.374270 3.440 74.880 166.666670
3.35 3.357110 3.420 73.440 173.333330
3.34 3.348980 3.40 72.0 180.0
3.33 3.340860 3.360 73.820 168.333330
3.32 3.332280 3.320 75.640 156.666670
3.31 3.32370 3.280 77.460 145.0
3.30 3.307450 3.240 79.280 133.333330
3.29 3.298870 3.20 81.10 121.666670
3.28 3.290290 3.230 80.250 110.0
3.27 3.282170 3.260 79.40 118.0
3.26 3.274040 3.290 78.550 126.0
3.25 3.257790 3.320 77.70 134.0
3.24 3.249210 3.350 76.850 142.0
3.23 3.240630 3.380 76.0 150.0
3.22 3.232510 3.410 75.150 142.50
3.21 3.224380 3.440 74.30 135.0
3.20 3.207220 3.470 73.450 127.50
3.19 3.19910 3.50 72.60 120.0
3.18 3.190970 3.4750 72.6250 122.222220
3.17 3.182840 3.450 72.650 124.444440
3.16 3.174720 3.4250 72.6750 126.666670
3.15 3.157560 3.40 72.70 128.888890
3.14 3.149440 3.40 73.40 131.111110
3.13 3.141310 3.40 74.10 133.333330
3.12 3.132730 3.40 74.80 130.0
3.11 3.124150 3.40 75.50 126.666670
3.10 3.10790 3.40 76.20 123.333330
3.09 3.099320 3.280 77.060 120.0
3.08 3.090740 3.160 77.920 116.666670
3.07 3.082620 3.040 78.780 118.666670
3.06 3.074490 2.920 79.640 120.666670
3.05 3.057340 2.80 80.50 122.666670
3.04 3.049210 2.880 79.340 124.666670
3.03 3.041080 2.960 78.180 126.666670
3.02 3.032510 3.040 77.020 129.333330
3.01 3.023930 3.120 75.860 132.0
3.00 3.007670 3.20 74.70 134.666670
2.99 2.99910 3.220 75.140 137.333330
2.98 2.990520 3.240 75.580 140.0
2.97 2.982390 3.260 76.020 142.0
2.96 2.974270 3.280 76.460 144.0
2.95 2.957110 3.30 76.90 146.0
2.94 2.948980 3.280 76.20 148.0
2.93 2.940860 3.260 75.50 150.0
2.92 2.932280 3.240 74.80 156.666670
2.91 2.92370 3.220 74.10 163.333330
2.90 2.907450 3.20 73.40 170.0
2.89 2.898870 3.20 73.880 176.666670
2.88 2.890290 3.20 74.360 183.333330
2.87 2.881720 3.20 74.840 174.666670
2.86 2.873140 3.20 75.320 166.0
2.85 2.865010 3.20 75.80 157.333330
2.84 2.856880 3.20 76.280 148.666670
2.83 2.839730 3.20 76.760 140.0
2.82 2.831150 3.20 77.240 141.333330
2.81 2.822570 3.20 77.720 142.666670
2.80 2.814450 3.20 78.20 144.0
2.79 2.806320 3.180 77.10 145.333330
2.78 2.789160 3.160 76.0 146.666670
2.77 2.780590 3.140 74.90 149.59140
2.76 2.772010 3.120 73.80 152.516130
2.75 2.763880 3.10 72.70 155.440860
2.74 2.755760 3.10 73.180 158.365590
2.73 2.73860 3.10 73.660 161.290320
2.72 2.730020 3.10 74.140 156.365590
2.71 2.721440 3.10 74.620 151.440860
2.70 2.712870 3.10 75.10 146.516130
2.69 2.704290 3.120 74.160 141.59140
2.68 2.688040 3.140 73.220 136.666670
2.67 2.679460 3.160 72.280 138.0
2.66 2.670880 3.180 71.340 139.333330
2.65 2.662750 3.20 70.40 140.666670
2.64 2.654630 3.160 72.640 142.0
2.63 2.638370 3.120 74.880 143.333330
2.62 2.62980 3.080 77.120 145.333330
2.61 2.621220 3.040 79.360 147.333330
2.60 2.613090 3.0 81.60 149.333330
2.59 2.604970 3.033330 78.650 151.333330
2.58 2.587810 3.066670 75.70 153.333330
2.57 2.579680 3.10 72.750 152.666670
2.56 2.571560 3.133330 69.80 152.0
2.55 2.562980 3.166670 66.850 151.333330
2.54 2.55440 3.20 63.90 150.666670
2.53 2.538150 3.160 66.940 150.0
2.52 2.529570 3.120 69.980 150.666670
2.51 2.520990 3.080 73.020 151.333330
2.50 2.512870 3.040 76.060 152.0
2.49 2.504740 3.0 79.10 152.666670
2.48 2.487580 3.020 76.020 153.333330
2.47 2.479460 3.040 72.940 153.333330
2.46 2.471330 3.060 69.860 153.333330
2.45 2.462750 3.080 66.780 153.333330
2.44 2.454180 3.10 63.70 153.333330
2.43 2.437920 3.10 65.380 153.333330
2.42 2.42980 3.10 67.060 150.666670
2.41 2.421670 3.10 68.740 148.0
2.40 2.413540 3.10 70.420 145.333330
2.39 2.405420 3.10 72.10 142.666670
2.38 2.389160 3.080 70.920 140.0
2.37 2.381040 3.060 69.740 142.0
2.36 2.372910 3.040 68.560 144.0
2.35 2.356660 3.020 67.380 146.0
2.34 2.348530 3.0 66.20 148.0
2.33 2.340410 3.0 66.580 150.0
2.32 2.332280 3.0 66.960 148.0
2.31 2.324150 3.0 67.340 146.0
2.30 2.30790 3.0 67.720 144.0
2.29 2.299770 3.0 68.10 142.0
2.28 2.291650 2.980 67.640 140.0
2.27 2.283070 2.960 67.180 144.666670
2.26 2.274490 2.940 66.720 149.333330
2.25 2.258240 2.920 66.260 154.0
2.24 2.250110 2.90 65.80 158.666670
2.23 2.241990 2.90 66.120 163.333330
2.22 2.233410 2.90 66.440 168.0
2.21 2.224830 2.90 66.760 172.666670
2.20 2.208580 2.90 67.080 177.333330
2.19 2.20 2.90 67.40 182.0
2.18 2.191420 2.880 67.740 186.666670
2.17 2.18330 2.860 68.080 180.666670
2.16 2.175170 2.840 68.420 174.666670
2.15 2.158010 2.820 68.760 168.666670
2.14 2.149890 2.80 69.10 162.666670
2.13 2.141760 2.780 68.740 156.666670
2.12 2.133180 2.760 68.380 163.333330
2.11 2.12460 2.740 68.020 170.0
2.10 2.107450 2.720 67.660 176.666670
2.09 2.099320 2.70 67.30 183.333330
2.08 2.09120 2.70 67.20 190.0
2.07 2.082620 2.70 67.10 177.333330
2.06 2.074040 2.70 67.0 164.666670
2.05 2.057790 2.70 66.90 152.0
2.04 2.049660 2.70 67.020 139.333330
2.03 2.041530 2.70 67.140 126.666670
2.02 2.032960 2.70 67.260 132.666670
2.01 2.024380 2.70 67.380 138.666670
2.00 2.008130 2.70 67.50 144.666670
1.99 1.999550 2.680 67.70 150.666670
1.98 1.990970 2.660 67.90 156.666670
1.97 1.982840 2.640 68.10 156.0
1.96 1.974720 2.620 68.30 155.333330
1.95 1.957560 2.60 68.50 154.666670
1.94 1.949440 2.580 68.640 154.0
1.93 1.941310 2.560 68.780 153.333330
1.92 1.932730 2.540 68.920 150.666670
1.91 1.924150 2.520 69.060 148.0
1.90 1.9070 2.50 69.20 145.333330
1.89 1.898870 2.480 68.90 142.666670
1.88 1.890740 2.460 68.60 140.0
1.87 1.882170 2.440 68.30 138.666670
1.86 1.873590 2.420 68.0 137.333330
1.85 1.857340 2.40 67.70 136.0
1.84 1.848760 2.40 67.540 134.666670
1.83 1.840180 2.40 67.380 133.333330
1.82 1.832050 2.40 67.220 133.763440
1.81 1.823930 2.40 67.060 134.193550
1.80 1.806770 2.40 66.90 134.623660
1.79 1.798650 2.40 67.060 135.053760
1.78 1.790520 2.40 67.220 135.483870
1.77 1.781940 2.40 67.380 138.38710
1.76 1.773360 2.40 67.540 141.290320
1.75 1.757110 2.40 67.70 144.193550
1.74 1.748980 2.380 66.880 147.096770
1.73 1.740860 2.360 66.060 150.0
1.72 1.732280 2.340 65.240 145.333330
1.71 1.72370 2.320 64.420 140.666670
1.70 1.707450 2.30 63.60 136.0
1.69 1.699320 2.320 64.550 131.333330
1.68 1.69120 2.340 65.50 126.666670
1.67 1.682620 2.360 66.450 126.666670
