~VERSION INFORMATION SECTION
VERS. 2.0 : CWLS LAS-VERSION 2.0
WRAP. NO : One line per depth step
~WELL INFORMATION SECTION
# MNEM.UNIT VALUE/NAME DESCRIPTION
#-------- -------------- ---------------------
STRT.Metres 16 : Start
STOP.Metres 0.37 : Stop
STEP.Metres -0.01 : Step
NULL.  -999.25 :NULL VALUE
DATE. 2025-28-11 : DATE
~CURVE INFORMATION SECTION
DEPTH.Metres : 0 Depth
Depth. : 1 Depth
Incline.Deg : 2 Incline
Azimuth.Deg : 3 Azimuth
GR.CPS : 4 GR
~PARAMETER INFORMATION SECTION
~OTHER
#-------------------------------------------------
#Produced By: GeoVista Logger - Version 7.1.107.0
Natural Gamma Sonde - 6447
Verticality Sonde - 6292
#-------------------------------------------------
~ASCII LOG DATA
# ...
9.70 9.708350 4.50 86.80 151.111110
9.69 9.695260 4.50 87.10 136.666670
9.68 9.682170 4.50 87.40 160.0
9.67 9.674040 4.50 87.70 183.333330
9.66 9.665010 4.50 88.533330 180.0
9.65 9.656880 4.50 89.366670 176.666670
9.64 9.647860 4.50 90.20 173.333330
9.63 9.635210 4.450 88.950 181.666670
9.62 9.622570 4.40 87.70 190.0
9.61 9.613540 4.40 86.466670 181.111110
9.60 9.605420 4.40 85.233330 172.222220
9.59 9.596390 4.40 84.0 163.333330
9.58 9.588260 4.40 86.0 161.666670
9.57 9.575170 4.40 88.0 160.0
9.56 9.562980 4.40 88.266670 165.555560
9.55 9.553950 4.40 88.533330 171.111110
9.54 9.545820 4.40 88.80 176.666670
9.53 9.536790 4.40 87.450 178.888890
9.52 9.528670 4.40 86.10 181.111110
9.51 9.515580 4.40 85.366670 183.333330
9.50 9.502480 4.40 84.633330 176.666670
9.49 9.494360 4.40 83.90 170.0
9.48 9.485330 4.40 84.966670 166.666670
9.47 9.47720 4.40 86.033330 163.333330
9.46 9.468170 4.40 87.10 160.0
9.45 9.455080 4.40 87.40 168.333330
9.44 9.441990 4.40 87.70 176.666670
9.43 9.433860 4.433330 86.40 178.888890
9.42 9.424830 4.466670 85.10 181.111110
9.41 9.41580 4.50 83.80 183.333330
9.40 9.407670 4.450 84.20 185.663080
9.39 9.394580 4.40 84.60 187.992830
9.38 9.381490 4.433330 85.033330 190.322580
9.37 9.373360 4.466670 85.466670 160.161290
9.36 9.364330 4.50 85.90 130.0
9.35 9.356210 4.50 85.10 150.0
9.34 9.347180 4.50 84.30 170.0
9.33 9.334540 4.50 84.866670 190.0
9.32 9.32190 4.50 85.433330 190.0
9.31 9.312870 4.50 86.0 190.0
9.30 9.303840 4.50 86.133330 183.333330
9.29 9.295710 4.50 86.266670 176.666670
9.28 9.286680 4.50 86.40 170.0
9.27 9.277650 4.50 84.350 173.333330
9.26 9.264560 4.50 82.30 176.666670
9.25 9.251470 4.50 83.333330 180.0
9.24 9.242440 4.50 84.366670 181.666670
9.23 9.234310 4.50 85.40 183.333330
9.22 9.225280 4.50 86.350 174.444440
9.21 9.216250 4.50 87.30 165.555560
9.20 9.208130 4.50 86.833330 156.666670
9.19 9.195030 4.50 86.366670 153.333330
9.18 9.181940 4.50 85.90 150.0
9.17 9.173810 4.50 85.70 170.0
9.16 9.164790 4.50 85.50 190.0
9.15 9.156660 4.50 85.933330 210.0
9.14 9.147630 4.50 86.366670 195.555560
9.13 9.134540 4.50 86.80 181.111110
9.12 9.121440 4.50 86.466670 166.666670
9.11 9.113320 4.50 86.133330 165.0
9.10 9.104290 4.50 85.80 163.333330
9.09 9.095260 4.50 85.050 174.444440
9.08 9.087130 4.50 84.30 185.555560
9.07 9.07810 4.50 85.40 196.666670
9.06 9.065010 4.50 86.50 170.0
9.05 9.051920 4.50 87.60 143.333330
9.04 9.043790 4.50 87.40 148.888890
9.03 9.034760 4.50 87.20 154.444440
9.02 9.026640 4.50 86.40 160.0
9.01 9.017610 4.50 85.60 155.0
9.00 9.004970 4.50 84.80 150.0
8.99 8.991420 4.50 85.466670 163.333330
8.98 8.98330 4.50 86.133330 176.666670
8.97 8.974270 4.50 86.80 190.0
8.96 8.966140 4.450 87.0 173.333330
8.95 8.957110 4.40 87.20 156.666670
8.94 8.948980 4.40 86.266670 140.0
8.93 8.935890 4.40 85.333330 136.666670
8.92 8.92280 4.40 84.40 133.333330
8.91 8.914670 4.450 86.30 141.577060
8.90 8.906550 4.50 88.20 149.820790
8.89 8.897520 4.466670 89.066670 158.064520
8.88 8.884880 4.433330 89.933330 150.698920
8.87 8.872230 4.40 90.80 143.333330
8.86 8.863210 4.40 88.233330 140.0
8.85 8.855080 4.40 85.666670 136.666670
8.84 8.846950 4.40 83.10 133.333330
8.83 8.837920 4.40 84.350 136.666670
8.82 8.825280 4.40 85.60 140.0
8.81 8.812640 4.40 87.0 145.0
8.80 8.803610 4.40 88.40 150.0
8.79 8.795490 4.40 89.80 155.0
8.78 8.787360 4.40 87.90 147.50
8.77 8.774270 4.40 86.0 140.0
8.76 8.761170 4.40 86.90 140.0
8.75 8.753050 4.40 87.80 140.0
8.74 8.744020 4.40 88.70 140.0
8.73 8.735890 4.40 88.666670 143.333330
8.72 8.726860 4.40 88.633330 146.666670
8.71 8.718740 4.40 88.60 150.0
8.70 8.705640 4.40 87.0 150.0
8.69 8.692550 4.40 85.40 150.0
8.68 8.684420 4.40 85.90 140.0
8.67 8.67630 4.40 86.40 130.0
8.66 8.667270 4.40 86.90 120.0
8.65 8.654630 4.350 88.50 146.666670
8.64 8.641990 4.30 90.10 173.333330
8.63 8.632960 4.30 88.20 166.666670
8.62 8.624830 4.30 86.30 160.0
8.61 8.61580 4.30 84.40 153.333330
8.60 8.607670 4.30 86.10 151.111110
8.59 8.594580 4.30 87.80 148.888890
8.58 8.581490 4.30 87.633330 146.666670
8.57 8.573360 4.30 87.466670 150.0
8.56 8.564330 4.30 87.30 153.333330
8.55 8.556210 4.30 87.80 161.111110
8.54 8.547180 4.30 88.30 168.888890
8.53 8.534540 4.30 87.633330 176.666670
8.52 8.52190 4.30 86.966670 170.0
8.51 8.512870 4.30 86.30 163.333330
8.50 8.504740 4.30 86.866670 157.777780
8.49 8.495710 4.30 87.433330 152.222220
8.48 8.487580 4.30 88.0 146.666670
8.47 8.474490 4.250 88.350 143.333330
8.46 8.46140 4.20 88.70 140.0
8.45 8.453270 4.20 88.366670 140.645160
8.44 8.444240 4.20 88.033330 141.290320
8.43 8.436120 4.20 87.70 141.935480
8.42 8.427090 4.20 85.650 144.623660
8.41 8.418960 4.20 83.60 147.311830
8.40 8.405420 4.20 85.466670 150.0
8.39 8.392780 4.20 87.333330 146.666670
8.38 8.383750 4.20 89.20 143.333330
8.37 8.374720 4.20 89.250 147.777780
8.36 8.366590 4.20 89.30 152.222220
8.35 8.357560 4.20 87.566670 156.666670
8.34 8.344470 4.20 85.833330 152.222220
8.33 8.331380 4.20 84.10 147.777780
8.32 8.323250 4.20 85.033330 143.333330
8.31 8.314220 4.20 85.966670 166.666670
8.30 8.305190 4.20 86.90 190.0
8.29 8.297070 4.20 88.550 175.555560
8.28 8.288040 4.20 90.20 161.111110
8.27 8.27540 4.20 89.166670 146.666670
8.26 8.261850 4.20 88.133330 161.666670
8.25 8.253720 4.20 87.10 176.666670
8.24 8.24470 4.150 87.150 164.444440
8.23 8.236570 4.10 87.20 152.222220
8.22 8.227540 4.133330 87.80 140.0
8.21 8.21490 4.166670 88.40 146.666670
8.20 8.201350 4.20 89.0 153.333330
8.19 8.193230 4.150 88.050 160.0
8.18 8.18420 4.10 87.10 156.666670
8.17 8.175170 4.10 87.366670 153.333330
8.16 8.166140 4.10 87.633330 146.666670
8.15 8.158010 4.10 87.90 140.0
8.14 8.148980 4.10 87.30 133.333330
8.13 8.135890 4.10 86.70 143.333330
8.12 8.12280 4.10 86.10 153.333330
8.11 8.113770 4.10 86.550 161.111110
8.10 8.105640 4.10 87.0 168.888890
8.09 8.096610 4.10 86.333330 176.666670
8.08 8.088490 4.10 85.666670 150.0
8.07 8.074940 4.10 85.0 123.333330
8.06 8.06230 4.10 86.750 127.777780
8.05 8.053270 4.10 88.50 132.222220
8.04 8.045150 4.10 88.066670 136.666670
8.03 8.037020 4.10 87.633330 134.444440
8.02 8.027990 4.10 87.20 132.222220
8.01 8.01580 4.10 86.066670 130.0
8.00 8.003610 4.10 84.933330 138.333330
7.99 7.994580 4.10 83.80 146.666670
7.98 7.986460 4.10 86.750 130.0
7.97 7.974270 4.10 89.70 113.333330
7.96 7.961170 4.10 88.80 96.666670
7.95 7.953050 4.10 87.90 112.849460
7.94 7.944920 4.10 87.0 129.032260
7.93 7.936790 4.10 85.650 126.021510
7.92 7.927770 4.10 84.30 123.010750
7.91 7.915120 4.10 85.133330 120.0
7.90 7.902480 4.10 85.966670 108.333330
7.89 7.894360 4.10 86.80 96.666670
7.88 7.885330 4.066670 86.50 104.444440
7.87 7.87720 4.033330 86.20 112.222220
7.86 7.864110 4.0 85.90 120.0
7.85 7.851020 4.050 85.050 121.666670
7.84 7.842890 4.10 84.20 123.333330
7.83 7.833860 4.066670 85.30 135.555560
7.82 7.825730 4.033330 86.40 147.777780
7.81 7.81670 4.0 87.50 160.0
7.80 7.804510 4.0 86.866670 152.222220
7.79 7.791420 4.0 86.233330 144.444440
7.78 7.78330 4.0 85.60 136.666670
7.77 7.774270 4.0 84.20 136.666670
7.76 7.766140 4.0 82.80 136.666670
7.75 7.757110 4.0 84.466670 127.777780
7.74 7.744920 4.0 86.133330 118.888890
7.73 7.731830 4.0 87.80 110.0
7.72 7.72370 4.0 86.050 113.333330
7.71 7.714670 4.0 84.30 116.666670
7.70 7.706550 4.0 84.30 127.777780
7.69 7.697520 4.0 84.30 138.888890
7.68 7.684880 4.0 84.30 150.0
7.67 7.672230 4.0 83.70 150.0
7.66 7.663210 4.0 83.10 150.0
7.65 7.655080 4.033330 82.833330 144.444440
7.64 7.646050 4.066670 82.566670 138.888890
7.63 7.637920 4.10 82.30 133.333330
7.62 7.624830 4.10 82.20 141.111110
7.61 7.611740 4.10 82.10 148.888890
7.60 7.603610 4.10 82.633330 156.666670
7.59 7.594580 4.10 83.166670 145.0
7.58 7.586460 4.10 83.70 133.333330
7.57 7.578330 4.10 82.950 132.222220
7.56 7.564790 4.10 82.20 131.111110
7.55 7.552140 4.10 81.866670 130.0
7.54 7.544020 4.10 81.533330 146.818180
7.53 7.534990 4.10 81.20 163.636360
7.52 7.526860 4.10 82.150 163.476870
7.51 7.517830 4.10 83.10 163.317380
7.50 7.504740 4.10 82.566670 163.157890
7.49 7.491650 4.10 82.033330 143.216370
