~VERSION INFORMATION SECTION
VERS. 2.0 : CWLS LAS-VERSION 2.0
WRAP. NO : One line per depth step
~WELL INFORMATION SECTION
# MNEM.UNIT VALUE/NAME DESCRIPTION
#-------- -------------- ---------------------
STRT.Metres 15 : Start
STOP.Metres 0.28 : Stop
STEP.Metres -0.01 : Step
NULL.  -999.25 :NULL VALUE
DATE. 2025-38-11 : DATE
~CURVE INFORMATION SECTION
DEPTH.Metres : 0 Depth
Depth. : 1 Depth
Incline.Deg : 2 Incline
Azimuth.Deg : 3 Azimuth
GR.CPS : 4 GR
~PARAMETER INFORMATION SECTION
~OTHER
#-------------------------------------------------
#Produced By: GeoVista Logger - Version 7.1.107.0
Natural Gamma Sonde - 6447
Verticality Sonde - 6292
#-------------------------------------------------
~ASCII LOG DATA
# ...
5.55 5.585330 4.30 78.692310 120.512820
5.54 5.574720 4.30 78.376920 122.307690
5.53 5.566230 4.30 78.061540 124.102560
5.52 5.557740 4.30 77.746150 125.897440
5.51 5.549260 4.30 77.430770 127.692310
5.50 5.540770 4.30 77.115380 129.487180
5.49 5.532280 4.30 76.80 131.282050
5.48 5.521440 4.307690 76.969230 133.076920
5.47 5.510610 4.315380 77.138460 134.871790
5.46 5.499770 4.323080 77.307690 136.666670
5.45 5.488940 4.330770 77.476920 136.923080
5.44 5.478330 4.338460 77.646150 137.179490
5.43 5.467720 4.346150 77.815380 137.43590
5.42 5.457110 4.353850 77.984620 137.692310
5.41 5.44650 4.361540 78.153850 137.948720
5.40 5.436120 4.369230 78.323080 138.205130
5.39 5.425730 4.376920 78.492310 138.461540
5.38 5.415350 4.384620 78.661540 138.717950
5.37 5.404970 4.392310 78.830770 138.974360
5.36 5.394360 4.40 79.0 139.230770
5.35 5.383750 4.3750 78.891670 139.487180
5.34 5.373140 4.350 78.783330 139.743590
5.33 5.362530 4.3250 78.6750 140.0
5.32 5.354040 4.30 78.566670 140.833330
5.31 5.345550 4.2750 78.458330 141.666670
5.30 5.337070 4.250 78.350 142.50
5.29 5.328580 4.2250 78.241670 143.333330
5.28 5.320090 4.20 78.133330 144.166670
5.27 5.309710 4.1750 78.0250 145.0
5.26 5.299320 4.150 77.916670 145.833330
5.25 5.288940 4.1250 77.808330 146.666670
5.24 5.278560 4.10 77.70 147.50
5.23 5.267950 4.092310 77.707690 148.333330
5.22 5.257340 4.084620 77.715380 149.166670
5.21 5.246730 4.076920 77.723080 150.0
5.20 5.236120 4.069230 77.730770 152.051280
5.19 5.225730 4.061540 77.738460 154.102560
5.18 5.215350 4.053850 77.746150 156.153850
5.17 5.204970 4.046150 77.753850 158.205130
5.16 5.194580 4.038460 77.761540 160.256410
5.15 5.183970 4.030770 77.769230 162.307690
5.14 5.173360 4.023080 77.776920 164.358970
5.13 5.162750 4.015380 77.784620 166.410260
5.12 5.152140 4.007690 77.792310 168.461540
5.11 5.143840 4.0 77.80 170.512820
5.10 5.135530 4.007690 78.161540 172.56410
5.09 5.127220 4.015380 78.523080 174.615380
5.08 5.118920 4.023080 78.884620 176.666670
5.07 5.110610 4.030770 79.246150 174.615380
5.06 5.10 4.038460 79.607690 172.56410
5.05 5.089390 4.046150 79.969230 170.512820
5.04 5.078780 4.053850 80.330770 168.461540
5.03 5.068170 4.061540 80.692310 166.410260
5.02 5.057560 4.069230 81.053850 164.358970
5.01 5.046950 4.076920 81.415380 162.307690
5.00 5.036340 4.084620 81.776920 160.256410
4.99 5.025730 4.092310 82.138460 158.205130
4.98 5.015120 4.10 82.50 156.153850
4.97 5.004510 4.0880 82.160 154.102560
4.96 4.993910 4.0760 81.820 152.051280
4.95 4.98330 4.0640 81.480 150.0
4.94 4.974810 4.0520 81.140 149.722220
4.93 4.966320 4.040 80.80 149.444440
4.92 4.957830 4.0280 80.460 149.166670
4.91 4.949350 4.0160 80.120 148.888890
4.90 4.940860 4.0040 79.780 148.611110
4.89 4.930470 3.9920 79.440 148.333330
4.88 4.920090 3.980 79.10 148.055560
4.87 4.909710 3.9680 78.760 147.777780
4.86 4.899320 3.9560 78.420 147.50
4.85 4.888710 3.9440 78.080 147.222220
4.84 4.87810 3.9320 77.740 146.944440
4.83 4.867490 3.920 77.40 146.666670
4.82 4.856880 3.9080 77.060 148.461540
4.81 4.846050 3.8960 76.720 150.256410
4.80 4.835210 3.8840 76.380 152.051280
4.79 4.824380 3.8720 76.040 153.846150
4.78 4.813540 3.860 75.70 155.641030
4.77 4.804880 3.8480 75.360 157.43590
4.76 4.796210 3.8360 75.020 159.230770
4.75 4.787540 3.8240 74.680 161.025640
4.74 4.778870 3.8120 74.340 162.820510
4.73 4.77020 3.80 74.0 164.615380
4.72 4.759590 3.792310 74.507690 166.410260
4.71 4.748980 3.784620 75.015380 168.205130
4.70 4.738370 3.776920 75.523080 170.0
4.69 4.727770 3.769230 76.030770 169.578160
4.68 4.716930 3.761540 76.538460 169.156330
4.67 4.706090 3.753850 77.046150 168.734490
4.66 4.695260 3.746150 77.553850 168.312660
4.65 4.684420 3.738460 78.061540 167.890820
4.64 4.675940 3.730770 78.569230 167.468980
4.63 4.667450 3.723080 79.076920 167.047150
4.62 4.658960 3.715380 79.584620 166.625310
4.61 4.650470 3.707690 80.092310 166.203470
4.60 4.641990 3.70 80.60 165.781640
4.59 4.631150 3.708330 80.0750 165.35980
4.58 4.620320 3.716670 79.550 164.937970
4.57 4.609480 3.7250 79.0250 164.516130
4.56 4.598650 3.733330 78.50 162.75090
4.55 4.588040 3.741670 77.9750 160.985660
4.54 4.577430 3.750 77.450 159.220430
4.53 4.566820 3.758330 76.9250 157.45520
4.52 4.556210 3.766670 76.40 155.689960
4.51 4.547540 3.7750 75.8750 153.924730
4.50 4.538870 3.783330 75.350 152.15950
4.49 4.53020 3.791670 74.8250 150.394270
4.48 4.521530 3.80 74.30 148.629030
4.47 4.512870 3.776920 74.553850 146.86380
4.46 4.502030 3.753850 74.807690 145.098570
4.45 4.49120 3.730770 75.061540 143.333330
4.44 4.480360 3.707690 75.315380 143.846150
4.43 4.469530 3.684620 75.569230 144.358970
4.42 4.458920 3.661540 75.823080 144.871790
4.41 4.448310 3.638460 76.076920 145.384620
4.40 4.43770 3.615380 76.330770 145.897440
4.39 4.427090 3.592310 76.584620 146.410260
4.38 4.416250 3.569230 76.838460 146.923080
4.37 4.405420 3.546150 77.092310 147.43590
4.36 4.394580 3.523080 77.346150 147.948720
4.35 4.383750 3.50 77.60 148.461540
4.34 4.375260 3.492310 77.492310 148.974360
4.33 4.366770 3.484620 77.384620 149.487180
4.32 4.358280 3.476920 77.276920 150.0
4.31 4.34980 3.469230 77.169230 147.948720
4.30 4.341310 3.461540 77.061540 145.897440
4.29 4.330470 3.453850 76.953850 143.846150
4.28 4.319640 3.446150 76.846150 141.794870
4.27 4.30880 3.438460 76.738460 139.743590
4.26 4.297970 3.430770 76.630770 137.692310
4.25 4.287360 3.423080 76.523080 135.641030
4.24 4.276750 3.415380 76.415380 133.589740
4.23 4.266140 3.407690 76.307690 131.538460
4.22 4.255530 3.40 76.20 129.487180
4.21 4.246860 3.384620 75.938460 127.43590
4.20 4.238190 3.369230 75.676920 125.384620
4.19 4.229530 3.353850 75.415380 123.333330
4.18 4.220860 3.338460 75.153850 127.222220
4.17 4.212190 3.323080 74.892310 131.111110
4.16 4.201580 3.307690 74.630770 135.0
4.15 4.190970 3.292310 74.369230 138.888890
4.14 4.180360 3.276920 74.107690 142.777780
4.13 4.169750 3.261540 73.846150 146.666670
4.12 4.158920 3.246150 73.584620 150.555560
4.11 4.148080 3.230770 73.323080 154.444440
4.10 4.137250 3.215380 73.061540 158.333330
4.09 4.126410 3.20 72.80 162.222220
4.08 4.11580 3.223080 73.046150 166.111110
4.07 4.105190 3.246150 73.292310 170.0
4.06 4.094580 3.269230 73.538460 169.510490
4.05 4.083970 3.292310 73.784620 169.020980
4.04 4.07530 3.315380 74.030770 168.531470
4.03 4.066640 3.338460 74.276920 168.041960
4.02 4.057970 3.361540 74.523080 167.552450
4.01 4.04930 3.384620 74.769230 167.062940
4.00 4.040630 3.407690 75.015380 166.573430
3.99 4.02980 3.430770 75.261540 166.083920
3.98 4.018960 3.453850 75.507690 165.594410
3.97 4.008130 3.476920 75.753850 165.10490
3.96 3.997290 3.50 76.0 164.615380
3.95 3.986680 3.50 76.030770 164.125870
3.94 3.976070 3.50 76.061540 163.636360
3.93 3.965460 3.50 76.092310 162.789840
3.92 3.954850 3.50 76.123080 161.943320
3.91 3.9460 3.50 76.153850 161.09680
3.90 3.937160 3.50 76.184620 160.250280
3.89 3.928310 3.50 76.215380 159.403750
3.88 3.919460 3.50 76.246150 158.557230
3.87 3.910610 3.50 76.276920 157.710710
3.86 3.899770 3.50 76.307690 156.864190
3.85 3.888940 3.50 76.338460 156.017670
3.84 3.87810 3.50 76.369230 155.171140
3.83 3.867270 3.50 76.40 154.324620
3.82 3.856430 3.430770 76.176920 153.47810
3.81 3.84560 3.361540 75.953850 152.631580
3.80 3.834760 3.292310 75.730770 153.71120
3.79 3.823930 3.223080 75.507690 154.790820
3.78 3.815260 3.153850 75.284620 155.870450
3.77 3.806590 3.084620 75.061540 156.950070
3.76 3.797920 3.015380 74.838460 158.029690
3.75 3.789260 2.946150 74.615380 159.109310
3.74 3.780590 2.876920 74.392310 160.188930
3.73 3.769530 2.807690 74.169230 161.268560
3.72 3.758470 2.738460 73.946150 162.348180
3.71 3.74740 2.669230 73.723080 163.42780
3.70 3.736340 2.60 73.50 164.507420
3.69 3.727670 2.584620 74.230770 165.587040
3.68 3.719010 2.569230 74.961540 166.666670
3.67 3.710340 2.553850 75.692310 168.974360
3.66 3.701670 2.538460 76.423080 171.282050
3.65 3.6930 2.523080 77.153850 173.589740
3.64 3.681940 2.507690 77.884620 175.897440
3.63 3.670880 2.492310 78.615380 178.205130
