~VERSION INFORMATION SECTION
VERS. 2.0 : CWLS LAS-VERSION 2.0
WRAP. NO : One line per depth step
~WELL INFORMATION SECTION
# MNEM.UNIT VALUE/NAME DESCRIPTION
#-------- -------------- ---------------------
STRT.Metres 15 : Start
STOP.Metres 0.28 : Stop
STEP.Metres -0.01 : Step
NULL.  -999.25 :NULL VALUE
DATE. 2025-38-11 : DATE
~CURVE INFORMATION SECTION
DEPTH.Metres : 0 Depth
Depth. : 1 Depth
Incline.Deg : 2 Incline
Azimuth.Deg : 3 Azimuth
GR.CPS : 4 GR
~PARAMETER INFORMATION SECTION
~OTHER
#-------------------------------------------------
#Produced By: GeoVista Logger - Version 7.1.107.0
Natural Gamma Sonde - 6447
Verticality Sonde - 6292
#-------------------------------------------------
~ASCII LOG DATA
# ...
11.32 11.35350 4.930770 85.476920 146.410260
11.31 11.345010 4.938460 85.746150 144.615380
11.30 11.336520 4.946150 86.015380 142.820510
11.29 11.328040 4.953850 86.284620 141.025640
11.28 11.319550 4.961540 86.553850 139.230770
11.27 11.311060 4.969230 86.823080 137.43590
11.26 11.300450 4.976920 87.092310 135.641030
11.25 11.289840 4.984620 87.361540 133.846150
11.24 11.279230 4.992310 87.630770 132.051280
11.23 11.268620 5.0 87.90 130.256410
11.22 11.258010 4.953850 87.907690 128.461540
11.21 11.24740 4.907690 87.915380 126.666670
11.20 11.236790 4.861540 87.923080 129.487180
11.19 11.226190 4.815380 87.930770 132.307690
11.18 11.215580 4.769230 87.938460 135.128210
11.17 11.204970 4.723080 87.946150 137.948720
11.16 11.194360 4.676920 87.953850 140.769230
11.15 11.183750 4.630770 87.961540 143.589740
11.14 11.175080 4.584620 87.969230 146.410260
11.13 11.166410 4.538460 87.976920 149.230770
11.12 11.157740 4.492310 87.984620 152.051280
11.11 11.149070 4.446150 87.992310 154.871790
11.10 11.140410 4.40 88.0 157.692310
11.09 11.129570 4.446150 87.553850 160.512820
11.08 11.118740 4.492310 87.107690 163.333330
11.07 11.10790 4.538460 86.661540 160.769230
11.06 11.097070 4.584620 86.215380 158.205130
11.05 11.086460 4.630770 85.769230 155.641030
11.04 11.075850 4.676920 85.323080 153.076920
11.03 11.065240 4.723080 84.876920 150.512820
11.02 11.054630 4.769230 84.430770 147.948720
11.01 11.046140 4.815380 83.984620 145.384620
11.00 11.037650 4.861540 83.538460 142.820510
10.99 11.029160 4.907690 83.092310 140.256410
10.98 11.020680 4.953850 82.646150 137.692310
10.97 11.012190 5.0 82.20 135.128210
10.96 11.001350 4.941670 82.416670 132.56410
10.95 10.990520 4.883330 82.633330 130.0
10.94 10.979680 4.8250 82.850 126.293710
10.93 10.968850 4.766670 83.066670 122.587410
10.92 10.958010 4.708330 83.283330 118.881120
10.91 10.947180 4.650 83.50 115.174830
10.90 10.936340 4.591670 83.716670 111.468530
10.89 10.925510 4.533330 83.933330 107.762240
10.88 10.917020 4.4750 84.150 104.055940
10.87 10.908530 4.416670 84.366670 100.349650
10.86 10.900050 4.358330 84.583330 96.643360
10.85 10.891560 4.30 84.80 92.937060
10.84 10.883070 4.292310 85.038460 89.230770
10.83 10.872230 4.284620 85.276920 85.524480
10.82 10.86140 4.276920 85.515380 81.818180
10.81 10.850560 4.269230 85.753850 84.836220
10.80 10.839730 4.261540 85.992310 87.854250
10.79 10.829120 4.253850 86.230770 90.872290
10.78 10.818510 4.246150 86.469230 93.890320
10.77 10.80790 4.238460 86.707690 96.908350
10.76 10.797290 4.230770 86.946150 99.926390
10.75 10.786460 4.223080 87.184620 102.944420
10.74 10.775620 4.215380 87.423080 105.962460
10.73 10.764790 4.207690 87.661540 108.980490
10.72 10.753950 4.20 87.90 111.998530
10.71 10.745460 4.238460 87.776920 115.016560
10.70 10.736980 4.276920 87.653850 118.03460
10.69 10.728490 4.315380 87.530770 121.052630
10.68 10.720 4.353850 87.407690 124.56140
10.67 10.711510 4.392310 87.284620 128.070180
10.66 10.70090 4.430770 87.161540 131.578950
10.65 10.690290 4.469230 87.038460 135.087720
10.64 10.679680 4.507690 86.915380 138.596490
10.63 10.669070 4.546150 86.792310 142.105260
10.62 10.658470 4.584620 86.669230 145.614040
10.61 10.647860 4.623080 86.546150 149.122810
10.60 10.637250 4.661540 86.423080 152.631580
10.59 10.626640 4.70 86.30 156.140350
10.58 10.61580 4.715380 86.507690 159.649120
10.57 10.604970 4.730770 86.715380 163.157890
10.56 10.594130 4.746150 86.923080 166.666670
10.55 10.58330 4.761540 87.130770 164.166670
10.54 10.574810 4.776920 87.338460 161.666670
10.53 10.566320 4.792310 87.546150 159.166670
10.52 10.557830 4.807690 87.753850 156.666670
10.51 10.549350 4.823080 87.961540 154.166670
10.50 10.540860 4.838460 88.169230 151.666670
10.49 10.530250 4.853850 88.376920 149.166670
10.48 10.519640 4.869230 88.584620 146.666670
10.47 10.509030 4.884620 88.792310 144.166670
10.46 10.498420 4.90 89.0 141.666670
10.45 10.487810 4.846150 88.869230 139.166670
10.44 10.47720 4.792310 88.738460 136.666670
10.43 10.466590 4.738460 88.607690 135.384620
10.42 10.455980 4.684620 88.476920 134.102560
10.41 10.445150 4.630770 88.346150 132.820510
10.40 10.434310 4.576920 88.215380 131.538460
10.39 10.423480 4.523080 88.084620 130.256410
10.38 10.412640 4.469230 87.953850 128.974360
10.37 10.404150 4.415380 87.823080 127.692310
10.36 10.395670 4.361540 87.692310 126.410260
10.35 10.387180 4.307690 87.561540 125.128210
10.34 10.378690 4.253850 87.430770 123.846150
10.33 10.37020 4.20 87.30 122.56410
10.32 10.359370 4.223080 87.284620 121.282050
10.31 10.348530 4.246150 87.269230 120.0
10.30 10.33770 4.269230 87.253850 126.153850
10.29 10.326860 4.292310 87.238460 132.307690
10.28 10.316250 4.315380 87.223080 138.461540
10.27 10.305640 4.338460 87.207690 144.615380
10.26 10.295030 4.361540 87.192310 150.769230
10.25 10.284420 4.384620 87.176920 156.923080
10.24 10.275940 4.407690 87.161540 163.076920
10.23 10.267450 4.430770 87.146150 169.230770
10.22 10.258960 4.453850 87.130770 175.384620
10.21 10.250470 4.476920 87.115380 181.538460
10.20 10.241990 4.50 87.10 187.692310
10.19 10.231150 4.4750 88.2250 193.846150
10.18 10.220320 4.450 89.350 200.0
10.17 10.209480 4.4250 90.4750 198.974360
10.16 10.198650 4.40 91.60 197.948720
10.15 10.188040 4.3750 92.7250 196.923080
10.14 10.177430 4.350 93.850 195.897440
10.13 10.166820 4.3250 94.9750 194.871790
10.12 10.156210 4.30 96.10 193.846150
10.11 10.145370 4.2750 97.2250 192.820510
10.10 10.134540 4.250 98.350 191.794870
10.09 10.12370 4.2250 99.4750 190.769230
10.08 10.112870 4.20 100.60 189.743590
10.07 10.104380 4.176920 98.569230 188.717950
10.06 10.095890 4.153850 96.538460 187.692310
10.05 10.08740 4.130770 94.507690 186.666670
10.04 10.078920 4.107690 92.476920 185.641030
10.03 10.070430 4.084620 90.446150 184.615380
10.02 10.059590 4.061540 88.415380 183.589740
10.01 10.048760 4.038460 86.384620 182.56410
10.00 10.037920 4.015380 84.353850 181.538460
9.99 10.027090 3.992310 82.323080 180.512820
9.98 10.016480 3.969230 80.292310 179.487180
9.97 10.005870 3.946150 78.261540 178.461540
9.96 9.995260 3.923080 76.230770 177.43590
9.95 9.984650 3.90 74.20 176.410260
9.94 9.975980 3.938460 75.561540 175.384620
9.93 9.967310 3.976920 76.923080 174.358970
9.92 9.958650 4.015380 78.284620 173.333330
9.91 9.949980 4.053850 79.646150 172.820510
9.90 9.941310 4.092310 81.007690 172.307690
9.89 9.93070 4.130770 82.369230 171.794870
9.88 9.920090 4.169230 83.730770 171.282050
9.87 9.909480 4.207690 85.092310 170.769230
9.86 9.898870 4.246150 86.453850 170.256410
9.85 9.888260 4.284620 87.815380 169.743590
9.84 9.877650 4.323080 89.176920 169.230770
9.83 9.867040 4.361540 90.538460 168.717950
9.82 9.856430 4.40 91.90 168.205130
9.81 9.845820 4.40 91.70 167.692310
9.80 9.835210 4.40 91.50 167.179490
9.79 9.82460 4.40 91.30 166.666670
9.78 9.8140 4.40 91.10 167.222220
9.77 9.803390 4.40 90.90 167.777780
9.76 9.792780 4.40 90.70 168.333330
9.75 9.782170 4.40 90.50 168.888890
9.74 9.771560 4.40 90.30 169.444440
9.73 9.763250 4.40 90.10 170.0
9.72 9.754940 4.40 89.90 170.555560
9.71 9.746640 4.40 89.70 171.111110
9.70 9.738330 4.40 89.50 171.666670
9.69 9.730020 4.40 89.30 172.222220
9.68 9.719410 4.384620 88.869230 172.777780
9.67 9.70880 4.369230 88.438460 173.333330
9.66 9.698190 4.353850 88.007690 170.769230
9.65 9.687580 4.338460 87.576920 168.205130
9.64 9.676980 4.323080 87.146150 165.641030
9.63 9.666370 4.307690 86.715380 163.076920
9.62 9.655760 4.292310 86.284620 160.512820
9.61 9.645150 4.276920 85.853850 157.948720
9.60 9.634540 4.261540 85.423080 155.384620
9.59 9.623930 4.246150 84.992310 152.820510
9.58 9.613320 4.230770 84.561540 150.256410
9.57 9.602710 4.215380 84.130770 147.692310
9.56 9.594220 4.20 83.70 145.128210
9.55 9.585730 4.141670 83.908330 142.56410
9.54 9.577250 4.083330 84.116670 140.0
9.53 9.568760 4.0250 84.3250 140.0
9.52 9.560270 3.966670 84.533330 140.0
9.51 9.549660 3.908330 84.741670 140.0
9.50 9.539050 3.850 84.950 140.0
9.49 9.528440 3.791670 85.158330 140.0
9.48 9.517830 3.733330 85.366670 140.0
