~VERSION INFORMATION SECTION
VERS. 2.0 : CWLS LAS-VERSION 2.0
WRAP. NO : One line per depth step
~WELL INFORMATION SECTION
# MNEM.UNIT VALUE/NAME DESCRIPTION
#-------- -------------- ---------------------
STRT.Metres 16 : Start
STOP.Metres 0.37 : Stop
STEP.Metres -0.01 : Step
NULL.  -999.25 :NULL VALUE
DATE. 2025-28-11 : DATE
~CURVE INFORMATION SECTION
DEPTH.Metres : 0 Depth
Depth. : 1 Depth
Incline.Deg : 2 Incline
Azimuth.Deg : 3 Azimuth
GR.CPS : 4 GR
~PARAMETER INFORMATION SECTION
~OTHER
#-------------------------------------------------
#Produced By: GeoVista Logger - Version 7.1.107.0
Natural Gamma Sonde - 6447
Verticality Sonde - 6292
#-------------------------------------------------
~ASCII LOG DATA
# ...
7.48 7.483520 4.10 81.50 123.274850
7.47 7.474490 4.10 81.60 103.333330
7.46 7.465460 4.10 81.70 112.956990
7.45 7.457340 4.10 81.80 122.580650
7.44 7.444240 4.050 82.050 120.609320
7.43 7.431150 4.0 82.30 118.637990
7.42 7.422120 4.033330 82.366670 116.666670
7.41 7.4140 4.066670 82.433330 128.333330
7.40 7.404970 4.10 82.50 140.0
7.39 7.396840 4.10 82.10 141.111110
7.38 7.387810 4.10 81.70 142.222220
7.37 7.375170 4.10 82.066670 143.333330
7.36 7.362530 4.10 82.433330 134.444440
7.35 7.35350 4.10 82.80 125.555560
7.34 7.345370 4.10 82.450 116.666670
7.33 7.336340 4.10 82.10 126.666670
7.32 7.327310 4.10 82.0 136.666670
7.31 7.314670 4.10 81.90 130.0
7.30 7.301130 4.10 81.80 123.333330
7.29 7.2930 4.10 81.666670 116.666670
7.28 7.283970 4.10 81.533330 125.0
7.27 7.274940 4.10 81.40 133.333330
7.26 7.266820 4.10 81.350 134.444440
7.25 7.257790 4.10 81.30 135.555560
7.24 7.245150 4.166670 81.30 136.666670
7.23 7.23160 4.233330 81.30 136.666670
7.22 7.223480 4.30 81.30 136.666670
7.21 7.214450 4.250 81.350 136.666670
7.20 7.205420 4.20 81.40 135.0
7.19 7.197290 4.233330 81.666670 133.333330
7.18 7.188260 4.266670 81.933330 131.111110
7.17 7.175170 4.30 82.20 128.888890
7.16 7.162080 4.30 81.850 126.666670
7.15 7.153950 4.30 81.50 116.666670
7.14 7.144920 4.30 81.666670 106.666670
7.13 7.135890 4.30 81.833330 117.777780
7.12 7.127770 4.30 82.0 128.888890
7.11 7.114670 4.30 82.0 140.0
7.10 7.101580 4.30 82.0 118.333330
7.09 7.093450 4.30 82.0 96.666670
7.08 7.084420 4.30 81.550 112.222220
7.07 7.07630 4.30 81.10 127.777780
7.06 7.068170 4.30 81.633330 143.333330
7.05 7.054630 4.30 82.166670 148.333330
7.04 7.041990 4.30 82.70 153.333330
7.03 7.032960 4.30 82.150 152.222220
7.02 7.024830 4.30 81.60 151.111110
7.01 7.01580 4.30 81.766670 150.0
7.00 7.007670 4.30 81.933330 166.666670
6.99 6.998650 4.30 82.10 183.333330
6.98 6.985550 4.30 82.233330 166.308240
6.97 6.972460 4.30 82.366670 149.283150
6.96 6.964330 4.30 82.50 132.258060
6.95 6.95530 4.30 82.50 135.949820
6.94 6.947180 4.30 82.50 139.641580
6.93 6.934090 4.30 82.466670 143.333330
6.92 6.920990 4.30 82.433330 125.0
6.91 6.912870 4.30 82.40 106.666670
6.90 6.904740 4.30 82.633330 104.444440
6.89 6.896610 4.30 82.866670 102.222220
6.88 6.887580 4.30 83.10 100.0
6.87 6.87540 4.30 82.70 116.666670
6.86 6.863210 4.30 82.30 133.333330
6.85 6.854180 4.30 82.366670 125.555560
6.84 6.846050 4.30 82.433330 117.777780
6.83 6.837920 4.30 82.50 110.0
6.82 6.824830 4.30 82.70 115.0
6.81 6.812640 4.30 82.90 120.0
6.80 6.804510 4.30 82.90 131.111110
6.79 6.795490 4.30 82.90 142.222220
6.78 6.787360 4.30 82.90 153.333330
6.77 6.774270 4.30 82.90 147.777780
6.76 6.762080 4.30 82.90 142.222220
6.75 6.753050 4.30 83.20 136.666670
6.74 6.744920 4.30 83.50 143.333330
6.73 6.735890 4.30 83.80 150.0
6.72 6.727770 4.30 83.30 144.444440
6.71 6.714670 4.30 82.80 138.888890
6.70 6.701580 4.30 82.30 133.333330
6.69 6.693450 4.30 82.050 145.0
6.68 6.684420 4.30 81.80 156.666670
6.67 6.67630 4.30 82.333330 143.333330
6.66 6.667270 4.30 82.866670 130.0
6.65 6.654630 4.30 83.40 116.666670
6.64 6.641990 4.30 83.10 140.0
6.63 6.632960 4.30 82.80 163.333330
6.62 6.624830 4.30 82.80 158.095240
6.61 6.61580 4.30 82.80 152.857140
6.60 6.607670 4.30 82.80 147.619050
6.59 6.598650 4.30 82.250 139.153440
6.58 6.585550 4.30 81.70 130.687830
6.57 6.572460 4.30 82.133330 122.222220
6.56 6.564330 4.30 82.566670 146.111110
6.55 6.55530 4.30 83.0 170.0
6.54 6.546280 4.30 82.90 170.0
6.53 6.538150 4.30 82.80 170.0
6.52 6.525060 4.30 82.60 170.0
6.51 6.511960 4.30 82.40 198.333330
6.50 6.503840 4.30 82.20 226.666670
6.49 6.494810 4.30 82.150 205.949820
6.48 6.486680 4.30 82.10 185.232970
6.47 6.477650 4.30 82.633330 164.516130
6.46 6.464560 4.30 83.166670 183.010750
6.45 6.451470 4.30 83.70 201.505380
6.44 6.443340 4.30 83.10 220.0
6.43 6.434310 4.30 82.50 205.0
6.42 6.426190 4.30 81.90 190.0
6.41 6.417160 4.30 82.350 191.111110
6.40 6.408130 4.30 82.80 192.222220
6.39 6.395490 4.30 82.80 193.333330
6.38 6.382840 4.30 82.80 180.0
6.37 6.373810 4.30 82.80 166.666670
6.36 6.364790 4.250 81.850 182.222220
6.35 6.356660 4.20 80.90 197.777780
6.34 6.347630 4.233330 81.066670 213.333330
6.33 6.334540 4.266670 81.233330 213.333330
6.32 6.321440 4.30 81.40 213.333330
6.31 6.313320 4.266670 81.566670 213.333330
6.30 6.304290 4.233330 81.733330 185.0
6.29 6.295260 4.20 81.90 156.666670
6.28 6.287130 4.20 81.250 173.333330
6.27 6.27810 4.20 80.60 190.0
6.26 6.265460 4.233330 79.20 206.666670
6.25 6.251920 4.266670 77.80 200.0
6.24 6.243790 4.30 76.40 193.333330
6.23 6.234760 4.250 78.0 194.444440
6.22 6.226640 4.20 79.60 195.555560
6.21 6.217610 4.20 79.266670 196.666670
6.20 6.204970 4.20 78.933330 196.666670
6.19 6.192330 4.20 78.60 196.666670
6.18 6.18330 4.20 77.450 196.666670
6.17 6.175170 4.20 76.30 206.666670
6.16 6.166140 4.166670 76.70 216.666670
6.15 6.158010 4.133330 77.10 207.777780
6.14 6.144920 4.10 77.50 198.888890
6.13 6.132730 4.166670 77.90 190.0
6.12 6.12370 4.233330 78.30 155.0
6.11 6.114670 4.30 78.70 120.0
6.10 6.106550 4.250 79.250 130.0
6.09 6.097520 4.20 79.80 140.0
6.08 6.084880 4.233330 78.633330 150.0
6.07 6.072230 4.266670 77.466670 186.666670
6.06 6.063210 4.30 76.30 223.333330
6.05 6.055080 4.30 77.650 217.777780
6.04 6.046050 4.30 79.0 212.222220
6.03 6.037920 4.30 79.333330 206.666670
6.02 6.028890 4.30 79.666670 198.888890
6.01 6.01580 4.30 80.0 191.111110
6.00 6.002710 4.333330 78.30 183.333330
5.99 5.994580 4.366670 76.60 188.440860
5.98 5.986460 4.40 74.90 193.548390
5.97 5.977430 4.40 75.750 182.365590
5.96 5.964790 4.40 76.60 171.18280
5.95 5.952140 4.40 77.20 160.0
5.94 5.943120 4.40 77.80 160.0
5.93 5.934990 4.40 78.40 160.0
5.92 5.925960 4.40 78.0 156.666670
5.91 5.916930 4.40 77.60 153.333330
5.90 5.90880 4.40 77.80 150.0
5.89 5.895710 4.40 78.0 158.333330
5.88 5.882620 4.40 78.20 166.666670
5.87 5.873590 4.40 78.180 146.666670
5.86 5.865460 4.40 78.160 126.666670
5.85 5.856430 4.40 78.140 106.666670
5.84 5.848310 4.40 78.120 141.666670
5.83 5.834760 4.40 78.10 176.666670
5.82 5.822120 4.40 77.966670 167.777780
5.81 5.813090 4.40 77.833330 158.888890
5.80 5.804970 4.40 77.70 150.0
5.79 5.795940 4.40 78.150 145.0
5.78 5.787810 4.40 78.60 140.0
5.77 5.775170 4.40 78.60 145.555560
5.76 5.762530 4.40 78.60 151.111110
5.75 5.75440 4.40 78.60 156.666670
5.74 5.745370 4.40 77.80 154.444440
5.73 5.737250 4.40 77.0 152.222220
5.72 5.72460 4.40 77.166670 150.0
5.71 5.711960 4.40 77.333330 156.666670
5.70 5.703840 4.40 77.50 163.333330
5.69 5.694810 4.40 77.666670 163.333330
5.68 5.686680 4.40 77.833330 163.333330
5.67 5.677650 4.40 78.0 163.333330
5.66 5.665010 4.40 78.050 141.666670
5.65 5.652370 4.40 78.10 120.0
5.64 5.643340 4.40 78.133330 127.777780
5.63 5.635210 4.40 78.166670 135.555560
5.62 5.626190 4.40 78.20 143.333330
5.61 5.618060 4.40 78.260 144.444440
5.60 5.609030 4.40 78.320 145.555560
5.59 5.595940 4.40 78.380 146.666670
5.58 5.583750 4.40 78.440 133.333330
5.57 5.574720 4.40 78.50 120.0
5.56 5.565690 4.366670 78.80 125.555560
5.55 5.557560 4.333330 79.10 131.111110
5.54 5.544470 4.30 79.40 136.666670
5.53 5.531380 4.30 76.750 143.333330
5.52 5.522350 4.30 74.10 150.0
5.51 5.514220 4.30 74.733330 161.290320
5.50 5.505190 4.30 75.366670 172.580650
5.49 5.497070 4.30 76.0 183.870970
5.48 5.488040 4.250 77.850 154.802870
5.47 5.474940 4.20 79.70 125.734770
5.46 5.461850 4.20 79.133330 96.666670
5.45 5.452820 4.20 78.566670 113.333330
5.44 5.44470 4.20 78.0 130.0
5.43 5.435670 4.20 77.450 133.333330
5.42 5.427540 4.20 76.90 136.666670
5.41 5.414450 4.20 78.40 140.0
5.40 5.401350 4.20 79.90 140.0
5.39 5.392330 4.20 81.40 140.0
5.38 5.38420 4.150 80.050 143.333330
5.37 5.375170 4.10 78.70 146.666670
5.36 5.367040 4.133330 78.366670 150.0
5.35 5.358010 4.166670 78.033330 151.666670
5.34 5.345370 4.20 77.70 153.333330
5.33 5.332730 4.166670 78.033330 144.444440
5.32 5.32370 4.133330 78.366670 135.555560
5.31 5.315580 4.10 78.70 126.666670
5.30 5.306550 4.10 78.350 145.555560
5.29 5.298420 4.10 78.0 164.444440
5.28 5.285330 4.10 77.566670 183.333330
