~VERSION INFORMATION SECTION
VERS. 2.0 : CWLS LAS-VERSION 2.0
WRAP. NO : One line per depth step
~WELL INFORMATION SECTION
# MNEM.UNIT VALUE/NAME DESCRIPTION
#-------- -------------- ---------------------
STRT.Metres 15 : Start
STOP.Metres 0.28 : Stop
STEP.Metres -0.01 : Step
NULL.  -999.25 :NULL VALUE
DATE. 2025-38-11 : DATE
~CURVE INFORMATION SECTION
DEPTH.Metres : 0 Depth
Depth. : 1 Depth
Incline.Deg : 2 Incline
Azimuth.Deg : 3 Azimuth
GR.CPS : 4 GR
~PARAMETER INFORMATION SECTION
~OTHER
#-------------------------------------------------
#Produced By: GeoVista Logger - Version 7.1.107.0
Natural Gamma Sonde - 6447
Verticality Sonde - 6292
#-------------------------------------------------
~ASCII LOG DATA
15.00 -999.25 -999.25 -999.25 -999.25
14.99 -999.25 -999.25 -999.25 -999.25
14.98 -999.25 -999.25 -999.25 -999.25
14.97 -999.25 -999.25 -999.25 -999.25
14.96 -999.25 -999.25 -999.25 -999.25
14.95 14.992780 -999.25 -999.25 -999.25
14.94 14.981490 -999.25 -999.25 -999.25
14.93 14.97020 -999.25 -999.25 -999.25
14.92 14.958920 -999.25 -999.25 -999.25
14.91 14.947860 -999.25 -999.25 -999.25
14.90 14.936790 -999.25 -999.25 -999.25
14.89 14.925730 -999.25 -999.25 -999.25
14.88 14.914670 6.757140 82.70 -999.25
14.87 14.905820 6.714290 82.70 -999.25
14.86 14.896980 6.671430 82.70 -999.25
14.85 14.888130 6.628570 82.70 -999.25
14.84 14.879280 6.585710 82.70 -999.25
14.83 14.870430 6.542860 82.70 -999.25
14.82 14.859590 6.50 82.70 -999.25
14.81 14.848760 6.457140 82.70 -999.25
14.80 14.837920 6.414290 82.70 -999.25
14.79 14.827090 6.371430 82.70 -999.25
14.78 14.818420 6.328570 82.70 -999.25
14.77 14.809750 6.285710 82.70 -999.25
14.76 14.801080 6.242860 82.70 -999.25
14.75 14.792420 6.20 82.70 -999.25
14.74 14.783750 6.20 82.776920 -999.25
14.73 14.772690 6.20 82.853850 -999.25
14.72 14.761630 6.20 82.930770 -999.25
14.71 14.750560 6.20 83.007690 -999.25
14.70 14.73950 6.20 83.084620 -999.25
14.69 14.728440 6.20 83.161540 -999.25
14.68 14.717380 6.20 83.238460 -999.25
14.67 14.706320 6.20 83.315380 -999.25
14.66 14.695260 6.20 83.392310 -999.25
14.65 14.686590 6.20 83.469230 -999.25
14.64 14.677920 6.20 83.546150 159.328320
14.63 14.669260 6.20 83.623080 152.829570
14.62 14.660590 6.20 83.70 146.330830
14.61 14.651920 6.184620 83.653850 139.832080
14.60 14.641080 6.169230 83.607690 133.333330
14.59 14.630250 6.153850 83.561540 136.111110
14.58 14.619410 6.138460 83.515380 138.888890
14.57 14.608580 6.123080 83.469230 141.666670
14.56 14.599730 6.107690 83.423080 144.444440
14.55 14.590880 6.092310 83.376920 147.222220
14.54 14.582030 6.076920 83.330770 150.0
14.53 14.573180 6.061540 83.284620 152.083330
14.52 14.564330 6.046150 83.238460 154.166670
14.51 14.552820 6.030770 83.192310 156.250
14.50 14.541310 6.015380 83.146150 158.333330
14.49 14.52980 6.0 83.10 160.416670
14.48 14.518280 5.976920 83.253850 162.50
14.47 14.509070 5.953850 83.407690 164.583330
14.46 14.499860 5.930770 83.561540 166.666670
14.45 14.490650 5.907690 83.715380 163.939390
14.44 14.481440 5.884620 83.869230 161.212120
14.43 14.472230 5.861540 84.023080 158.484850
14.42 14.460950 5.838460 84.176920 155.757580
14.41 14.449660 5.815380 84.330770 153.03030
14.40 14.438370 5.792310 84.484620 150.303030
14.39 14.427090 5.769230 84.638460 147.575760
14.38 14.416030 5.746150 84.792310 144.848480
14.37 14.404970 5.723080 84.946150 142.121210
14.36 14.393910 5.70 85.10 139.393940
14.35 14.382840 5.70 84.850 136.666670
14.34 14.374360 5.70 84.60 137.071960
14.33 14.365870 5.70 84.350 137.477250
14.32 14.357380 5.70 84.10 137.882550
14.31 14.348890 5.70 83.850 138.287840
14.30 14.340410 5.70 83.60 138.693130
14.29 14.32980 5.70 83.350 139.098430
14.28 14.319190 5.70 83.10 139.503720
14.27 14.308580 5.70 82.850 139.909020
14.26 14.297970 5.70 82.60 140.314310
14.25 14.287130 5.70 82.350 140.71960
14.24 14.27630 5.70 82.10 141.12490
14.23 14.265460 5.70 81.850 141.530190
14.22 14.254630 5.70 81.60 141.935480
14.21 14.245960 5.715380 82.115380 141.321040
14.20 14.237290 5.730770 82.630770 140.706610
14.19 14.228620 5.746150 83.146150 140.092170
14.18 14.219950 5.761540 83.661540 139.477730
14.17 14.211290 5.776920 84.176920 138.863290
14.16 14.200230 5.792310 84.692310 138.248850
14.15 14.189160 5.807690 85.207690 137.634410
14.14 14.17810 5.823080 85.723080 137.019970
14.13 14.167040 5.838460 86.238460 136.405530
14.12 14.156210 5.853850 86.753850 135.791090
14.11 14.145370 5.869230 87.269230 135.176650
14.10 14.134540 5.884620 87.784620 134.562210
14.09 14.12370 5.90 88.30 133.947770
14.08 14.115030 5.892310 88.207690 133.333330
14.07 14.106370 5.884620 88.115380 134.102560
14.06 14.09770 5.876920 88.023080 134.871790
14.05 14.089030 5.869230 87.930770 135.641030
14.04 14.080360 5.861540 87.838460 136.410260
14.03 14.069530 5.853850 87.746150 137.179490
14.02 14.058690 5.846150 87.653850 137.948720
14.01 14.047860 5.838460 87.561540 138.717950
14.00 14.037020 5.830770 87.469230 139.487180
13.99 14.028170 5.823080 87.376920 140.256410
13.98 14.019320 5.815380 87.284620 141.025640
13.97 14.010470 5.807690 87.192310 141.794870
13.96 14.001630 5.80 87.10 142.56410
13.95 13.992780 5.784620 87.015380 143.333330
13.94 13.981940 5.769230 86.930770 146.410260
13.93 13.971110 5.753850 86.846150 149.487180
13.92 13.960270 5.738460 86.761540 152.56410
13.91 13.949440 5.723080 86.676920 155.641030
13.90 13.93860 5.707690 86.592310 158.717950
13.89 13.927770 5.692310 86.507690 161.794870
13.88 13.916930 5.676920 86.423080 164.871790
13.87 13.906090 5.661540 86.338460 167.948720
13.86 13.897250 5.646150 86.253850 171.025640
13.85 13.88840 5.630770 86.169230 174.102560
13.84 13.879550 5.615380 86.084620 177.179490
13.83 13.87070 5.60 86.0 180.256410
13.82 13.861850 5.580770 85.969230 183.333330
13.81 13.850790 5.561540 85.938460 180.384620
13.80 13.839730 5.542310 85.907690 177.43590
13.79 13.828670 5.523080 85.876920 174.487180
13.78 13.817610 5.503850 85.846150 171.538460
13.77 13.806550 5.484620 85.815380 168.589740
13.76 13.795490 5.465380 85.784620 165.641030
13.75 13.784420 5.446150 85.753850 162.692310
13.74 13.773360 5.426920 85.723080 159.743590
13.73 13.76470 5.407690 85.692310 156.794870
13.72 13.756030 5.388460 85.661540 153.846150
13.71 13.747360 5.369230 85.630770 150.897440
13.70 13.738690 5.350 85.60 147.948720
13.69 13.730020 5.330770 85.569230 145.0
13.68 13.719190 5.311540 85.538460 142.50
13.67 13.708350 5.292310 85.507690 140.0
13.66 13.697520 5.273080 85.476920 137.50
13.65 13.686680 5.253850 85.446150 135.0
13.64 13.677830 5.234620 85.415380 132.50
13.63 13.668980 5.215380 85.384620 130.0
13.62 13.660140 5.196150 85.353850 127.50
13.61 13.651290 5.176920 85.323080 125.0
13.60 13.642440 5.157690 85.292310 122.50
13.59 13.631380 5.138460 85.261540 120.0
13.58 13.620320 5.119230 85.230770 117.50
13.57 13.609260 5.10 85.20 115.0
13.56 13.598190 5.038460 84.892310 112.50
13.55 13.587360 4.976920 84.584620 110.0
13.54 13.576520 4.915380 84.276920 116.153850
13.53 13.565690 4.853850 83.969230 122.307690
13.52 13.554850 4.792310 83.661540 128.461540
13.51 13.546190 4.730770 83.353850 134.615380
13.50 13.537520 4.669230 83.046150 140.769230
13.49 13.528850 4.607690 82.738460 146.923080
13.48 13.520180 4.546150 82.430770 153.076920
13.47 13.511510 4.484620 82.123080 159.230770
13.46 13.500680 4.423080 81.815380 165.384620
13.45 13.489840 4.361540 81.507690 171.538460
13.44 13.479010 4.30 81.20 177.692310
13.43 13.468170 4.321430 81.471430 183.846150
13.42 13.459140 4.342860 81.742860 190.0
13.41 13.450110 4.364290 82.014290 188.974360
13.40 13.441080 4.385710 82.285710 187.948720
13.39 13.432050 4.407140 82.557140 186.923080
13.38 13.423020 4.428570 82.828570 185.897440
13.37 13.411740 4.450 83.10 184.871790
13.36 13.400450 4.471430 83.371430 183.846150
13.35 13.389160 4.492860 83.642860 182.820510
13.34 13.377880 4.514290 83.914290 181.794870
13.33 13.367270 4.535710 84.185710 180.769230
13.32 13.356660 4.557140 84.457140 179.743590
13.31 13.346050 4.578570 84.728570 178.717950
13.30 13.335440 4.60 85.0 177.692310
13.29 13.324830 4.607690 85.069230 176.666670
13.28 13.314220 4.615380 85.138460 178.974360
13.27 13.303610 4.623080 85.207690 181.282050
13.26 13.2930 4.630770 85.276920 183.589740
13.25 13.284510 4.638460 85.346150 185.897440
13.24 13.276030 4.646150 85.415380 188.205130
13.23 13.267540 4.653850 85.484620 190.512820
13.22 13.259050 4.661540 85.553850 192.820510
13.21 13.250560 4.669230 85.623080 195.128210
13.20 13.239730 4.676920 85.692310 197.43590
13.19 13.228890 4.684620 85.761540 199.743590
13.18 13.218060 4.692310 85.830770 202.051280
13.17 13.207220 4.70 85.90 204.358970
13.16 13.196390 4.715380 86.061540 206.666670
13.15 13.185550 4.730770 86.223080 204.102560
13.14 13.174720 4.746150 86.384620 201.538460
