~VERSION INFORMATION SECTION
VERS. 2.0 : CWLS LAS-VERSION 2.0
WRAP. NO : One line per depth step
~WELL INFORMATION SECTION
# MNEM.UNIT VALUE/NAME DESCRIPTION
#-------- -------------- ---------------------
STRT.Metres 16 : Start
STOP.Metres 0.37 : Stop
STEP.Metres -0.01 : Step
NULL.  -999.25 :NULL VALUE
DATE. 2025-28-11 : DATE
~CURVE INFORMATION SECTION
DEPTH.Metres : 0 Depth
Depth. : 1 Depth
Incline.Deg : 2 Incline
Azimuth.Deg : 3 Azimuth
GR.CPS : 4 GR
~PARAMETER INFORMATION SECTION
~OTHER
#-------------------------------------------------
#Produced By: GeoVista Logger - Version 7.1.107.0
Natural Gamma Sonde - 6447
Verticality Sonde - 6292
#-------------------------------------------------
~ASCII LOG DATA
# ...
5.27 5.272230 4.10 77.133330 173.333330
5.26 5.264110 4.10 76.70 163.333330
5.25 5.255080 4.10 76.150 153.333330
5.24 5.246950 4.10 75.60 143.333330
5.23 5.237920 4.066670 76.80 133.333330
5.22 5.225730 4.033330 78.0 148.245610
5.21 5.212640 4.0 79.20 163.157890
5.20 5.204510 3.966670 77.733330 162.105260
5.19 5.195490 3.933330 76.266670 161.052630
5.18 5.187360 3.90 74.80 160.0
5.17 5.174270 3.920 75.360 155.555560
5.16 5.161170 3.940 75.920 151.111110
5.15 5.153050 3.960 76.480 146.666670
5.14 5.144020 3.980 77.040 130.0
5.13 5.135890 4.0 77.60 113.333330
5.12 5.127770 4.0 77.050 126.666670
5.11 5.114670 4.0 76.50 140.0
5.10 5.101580 4.0 75.966670 153.333330
5.09 5.093450 4.0 75.433330 149.393940
5.08 5.084420 4.0 74.90 145.454550
5.07 5.07630 4.0 76.450 151.355660
5.06 5.067270 4.0 78.0 157.256780
5.05 5.054630 4.0 78.266670 163.157890
5.04 5.041990 4.0 78.533330 146.578950
5.03 5.032960 4.0 78.80 130.0
5.02 5.024830 3.966670 78.60 131.827960
5.01 5.01580 3.933330 78.40 133.655910
5.00 5.007670 3.90 78.20 135.483870
4.99 4.994580 3.90 78.10 140.322580
4.98 4.981490 3.90 78.0 145.161290
4.97 4.973360 3.933330 77.50 150.0
4.96 4.964330 3.966670 77.0 137.50
4.95 4.956210 4.0 76.50 125.0
4.94 4.947180 3.960 76.940 120.0
4.93 4.934090 3.920 77.380 115.0
4.92 4.920990 3.880 77.820 110.0
4.91 4.912870 3.840 78.260 108.333330
4.90 4.903840 3.80 78.70 106.666670
4.89 4.895710 3.80 77.60 113.333330
4.88 4.886680 3.80 76.50 120.0
4.87 4.878560 3.833330 76.166670 126.666670
4.86 4.865460 3.866670 75.833330 126.666670
4.85 4.852370 3.90 75.50 126.666670
4.84 4.843340 3.866670 75.233330 131.111110
4.83 4.835210 3.833330 74.966670 135.555560
4.82 4.826190 3.80 74.70 140.0
4.81 4.818060 3.80 74.40 151.666670
4.80 4.804970 3.80 74.10 163.333330
4.79 4.791870 3.80 73.933330 161.111110
4.78 4.782840 3.80 73.766670 158.888890
4.77 4.773810 3.80 73.60 156.666670
4.76 4.765690 3.750 75.0 157.777780
4.75 4.756660 3.70 76.40 158.888890
4.74 4.747630 3.70 75.50 160.0
4.73 4.734540 3.70 74.60 141.666670
4.72 4.721440 3.70 73.70 123.333330
4.71 4.712420 3.70 74.90 132.222220
4.70 4.703390 3.70 76.10 141.111110
4.69 4.695260 3.666670 75.966670 150.0
4.68 4.686230 3.633330 75.833330 141.666670
4.67 4.67720 3.60 75.70 133.333330
4.66 4.664560 3.633330 74.966670 140.0
4.65 4.651020 3.666670 74.233330 146.666670
4.64 4.642890 3.70 73.50 153.333330
4.63 4.633860 3.650 73.70 157.777780
4.62 4.624830 3.60 73.90 162.222220
4.61 4.61670 3.633330 74.533330 166.666670
4.60 4.607670 3.666670 75.166670 146.666670
4.59 4.595030 3.70 75.80 126.666670
4.58 4.581490 3.650 73.60 134.444440
4.57 4.573360 3.60 71.40 142.222220
4.56 4.564330 3.633330 72.366670 150.0
4.55 4.55530 3.666670 73.333330 143.181820
4.54 4.547180 3.70 74.30 136.363640
4.53 4.538150 3.70 74.233330 145.909090
4.52 4.525060 3.70 74.166670 155.454550
4.51 4.511960 3.70 74.10 165.0
4.50 4.502930 3.70 74.70 167.777780
4.49 4.493910 3.70 75.30 170.555560
4.48 4.485780 3.666670 75.60 173.333330
4.47 4.476750 3.633330 75.90 174.166670
4.46 4.467720 3.60 76.20 175.0
4.45 4.454630 3.650 74.950 150.0
4.44 4.441530 3.70 73.70 125.0
4.43 4.432510 3.70 74.266670 100.0
4.42 4.424380 3.70 74.833330 121.666670
4.41 4.415350 3.70 75.40 143.333330
4.40 4.406320 3.70 75.433330 158.888890
4.39 4.398190 3.70 75.466670 174.444440
4.38 4.384650 3.70 75.50 190.0
4.37 4.372010 3.70 75.450 171.666670
4.36 4.362980 3.70 75.40 153.333330
4.35 4.353950 3.70 75.466670 149.841270
4.34 4.345820 3.70 75.533330 146.349210
4.33 4.336790 3.70 75.60 142.857140
4.32 4.327770 3.733330 75.666670 137.662340
4.31 4.315120 3.766670 75.733330 132.467530
4.30 4.301580 3.80 75.80 127.272730
4.29 4.293450 3.750 75.950 150.478470
4.28 4.284420 3.70 76.10 173.684210
4.27 4.27540 3.70 75.966670 148.01170
4.26 4.267270 3.70 75.833330 122.339180
4.25 4.258240 3.70 75.70 96.666670
4.24 4.245150 3.70 76.20 123.333330
4.23 4.232050 3.70 76.70 150.0
4.22 4.223020 3.70 76.633330 151.111110
4.21 4.21490 3.70 76.566670 152.222220
4.20 4.205870 3.70 76.50 153.333330
4.19 4.196840 3.733330 76.30 185.0
4.18 4.188710 3.766670 76.10 216.666670
4.17 4.175170 3.80 75.90 191.111110
4.16 4.162530 3.750 76.150 165.555560
4.15 4.15350 3.70 76.40 140.0
4.14 4.144470 3.70 76.533330 127.777780
4.13 4.136340 3.70 76.666670 115.555560
4.12 4.127310 3.70 76.80 103.333330
4.11 4.118280 3.70 76.680 125.0
4.10 4.105190 3.70 76.560 146.666670
4.09 4.09210 3.70 76.440 155.555560
4.08 4.083070 3.70 76.320 164.444440
4.07 4.074940 3.70 76.20 173.333330
4.06 4.065910 3.70 76.10 161.666670
4.05 4.056880 3.70 76.0 150.0
4.04 4.047860 3.70 75.90 150.537630
4.03 4.035210 3.70 76.20 151.075270
4.02 4.021670 3.70 76.50 151.61290
4.01 4.012640 3.70 76.066670 152.473120
4.00 4.004510 3.70 75.633330 153.333330
3.99 3.995490 3.70 75.20 154.444440
3.98 3.986460 3.70 74.766670 155.555560
3.97 3.978330 3.70 74.333330 156.666670
3.96 3.964790 3.70 73.90 167.777780
3.95 3.951240 3.680 74.60 178.888890
3.94 3.943120 3.660 75.30 190.0
3.93 3.934090 3.640 76.0 193.333330
3.92 3.925060 3.620 76.70 196.666670
3.91 3.916030 3.60 77.40 171.111110
3.90 3.90790 3.60 77.0 145.555560
3.89 3.898870 3.60 76.60 120.0
3.88 3.885330 3.60 76.20 128.888890
3.87 3.871780 3.70 75.650 137.777780
3.86 3.862750 3.80 75.10 146.666670
3.85 3.853720 3.766670 76.566670 165.0
3.84 3.84560 3.733330 78.033330 183.333330
3.83 3.836570 3.70 79.50 178.888890
3.82 3.827540 3.70 76.60 174.444440
3.81 3.818510 3.70 73.70 170.0
3.80 3.804970 3.70 73.866670 180.0
3.79 3.791420 3.70 74.033330 190.0
3.78 3.78330 3.70 74.20 180.0
3.77 3.774270 3.70 75.633330 170.0
3.76 3.765240 3.70 77.066670 160.0
3.75 3.756210 3.70 78.50 155.555560
3.74 3.747180 3.60 79.90 151.111110
3.73 3.734090 3.50 81.30 146.666670
3.72 3.720990 3.533330 78.80 151.904760
3.71 3.711960 3.566670 76.30 157.142860
3.70 3.702930 3.60 73.80 171.428570
3.69 3.693910 3.60 74.433330 185.714290
3.68 3.684880 3.60 75.066670 200.0
3.67 3.676750 3.60 75.70 206.666670
3.66 3.667720 3.550 75.90 213.333330
3.65 3.658690 3.50 76.10 220.0
3.64 3.645150 3.533330 74.40 165.0
3.63 3.63160 3.566670 72.70 110.0
3.62 3.622570 3.60 71.0 132.222220
3.61 3.613540 3.550 74.350 154.444440
3.60 3.604510 3.50 77.70 176.666670
3.59 3.595490 3.50 76.466670 180.0
3.58 3.586460 3.50 75.233330 183.333330
3.57 3.577430 3.50 74.0 167.777780
3.56 3.564330 3.50 74.666670 152.222220
3.55 3.550340 3.50 75.333330 136.666670
3.54 3.542210 3.50 76.0 142.724010
3.53 3.533180 3.50 75.833330 148.781360
3.52 3.524150 3.50 75.666670 154.838710
3.51 3.516030 3.50 75.50 169.086020
3.50 3.5070 3.50 74.650 183.333330
3.49 3.498870 3.50 73.80 182.222220
3.48 3.485780 3.50 74.333330 181.111110
3.47 3.472690 3.50 74.866670 180.0
3.46 3.464560 3.50 75.40 171.666670
3.45 3.455530 3.50 74.850 163.333330
3.44 3.44740 3.50 74.30 151.111110
3.43 3.434310 3.433330 74.60 138.888890
3.42 3.421220 3.366670 74.90 126.666670
3.41 3.413090 3.30 75.20 128.888890
3.40 3.404060 3.30 75.633330 131.111110
3.39 3.395940 3.30 76.066670 133.333330
3.38 3.386910 3.30 76.50 161.666670
3.37 3.378780 3.333330 75.366670 190.0
3.36 3.365240 3.366670 74.233330 176.666670
3.35 3.35260 3.40 73.10 163.333330
3.34 3.343570 3.40 73.70 150.0
3.33 3.335440 3.40 74.30 136.666670
3.32 3.326410 3.40 74.066670 123.333330
3.31 3.317380 3.40 73.833330 110.0
3.30 3.304290 3.40 73.60 110.0
3.29 3.29120 3.366670 73.066670 110.0
3.28 3.282170 3.333330 72.533330 116.666670
3.27 3.274040 3.30 72.0 123.333330
3.26 3.265010 3.30 72.240 130.0
3.25 3.256880 3.30 72.480 128.888890
3.24 3.247860 3.30 72.720 127.777780
3.23 3.238830 3.30 72.960 126.666670
3.22 3.225730 3.30 73.20 111.666670
3.21 3.212640 3.350 72.80 96.666670
3.20 3.203610 3.40 72.40 111.111110
3.19 3.195490 3.333330 73.633330 125.555560
3.18 3.186460 3.266670 74.866670 140.0
3.17 3.177430 3.20 76.10 145.0
3.16 3.164790 3.233330 73.70 150.0
3.15 3.151240 3.266670 71.30 156.666670
3.14 3.142210 3.30 68.90 163.333330
3.13 3.134090 3.350 69.90 170.0
3.12 3.125060 3.40 70.90 155.555560
3.11 3.116030 3.366670 71.433330 141.111110
3.10 3.10790 3.333330 71.966670 126.666670
