~VERSION INFORMATION SECTION
VERS. 2.0 : CWLS LAS-VERSION 2.0
WRAP. NO : One line per depth step
~WELL INFORMATION SECTION
# MNEM.UNIT VALUE/NAME DESCRIPTION
#-------- -------------- ---------------------
STRT.Metres 15 : Start
STOP.Metres 0.28 : Stop
STEP.Metres -0.01 : Step
NULL.  -999.25 :NULL VALUE
DATE. 2025-38-11 : DATE
~CURVE INFORMATION SECTION
DEPTH.Metres : 0 Depth
Depth. : 1 Depth
Incline.Deg : 2 Incline
Azimuth.Deg : 3 Azimuth
GR.CPS : 4 GR
~PARAMETER INFORMATION SECTION
~OTHER
#-------------------------------------------------
#Produced By: GeoVista Logger - Version 7.1.107.0
Natural Gamma Sonde - 6447
Verticality Sonde - 6292
#-------------------------------------------------
~ASCII LOG DATA
# ...
7.50 7.538420 4.283330 83.566670 122.051280
7.49 7.529930 4.2750 84.0 120.0
7.48 7.521440 4.266670 84.433330 120.512820
7.47 7.510610 4.258330 84.866670 121.025640
7.46 7.499770 4.250 85.30 121.538460
7.45 7.488940 4.241670 85.733330 122.051280
7.44 7.47810 4.233330 86.166670 122.56410
7.43 7.467490 4.2250 86.60 123.076920
7.42 7.456880 4.216670 87.033330 123.589740
7.41 7.446280 4.208330 87.466670 124.102560
7.40 7.435670 4.20 87.90 124.615380
7.39 7.425060 4.176920 88.546150 125.128210
7.38 7.414450 4.153850 89.192310 125.641030
7.37 7.403840 4.130770 89.838460 126.153850
7.36 7.393230 4.107690 90.484620 126.666670
7.35 7.384740 4.084620 91.130770 126.923080
7.34 7.376250 4.061540 91.776920 127.179490
7.33 7.367770 4.038460 92.423080 127.43590
7.32 7.359280 4.015380 93.069230 127.692310
7.31 7.350790 3.992310 93.715380 127.948720
7.30 7.339950 3.969230 94.361540 128.205130
7.29 7.329120 3.946150 95.007690 128.461540
7.28 7.318280 3.923080 95.653850 128.717950
7.27 7.307450 3.90 96.30 128.974360
7.26 7.296840 3.915380 94.669230 129.230770
7.25 7.286230 3.930770 93.038460 129.487180
7.24 7.275620 3.946150 91.407690 129.743590
7.23 7.265010 3.961540 89.776920 130.0
7.22 7.256340 3.976920 88.146150 128.055560
7.21 7.247670 3.992310 86.515380 126.111110
7.20 7.239010 4.007690 84.884620 124.166670
7.19 7.230340 4.023080 83.253850 122.222220
7.18 7.221670 4.038460 81.623080 120.277780
7.17 7.211060 4.053850 79.992310 118.333330
7.16 7.200450 4.069230 78.361540 116.388890
7.15 7.189840 4.084620 76.730770 114.444440
7.14 7.179230 4.10 75.10 112.50
7.13 7.168620 4.10 75.10 110.555560
7.12 7.158010 4.10 75.10 108.611110
7.11 7.14740 4.10 75.10 106.666670
7.10 7.136790 4.10 75.10 108.846150
7.09 7.126190 4.10 75.10 111.025640
7.08 7.115580 4.10 75.10 113.205130
7.07 7.104970 4.10 75.10 115.384620
7.06 7.094360 4.10 75.10 117.56410
7.05 7.085870 4.10 75.10 119.743590
7.04 7.077380 4.10 75.10 121.923080
7.03 7.068890 4.10 75.10 124.102560
7.02 7.060410 4.10 75.10 126.282050
7.01 7.051920 4.10 75.10 128.461540
7.00 7.041310 4.092310 76.338460 130.641030
6.99 7.03070 4.084620 77.576920 132.820510
6.98 7.020090 4.076920 78.815380 135.0
6.97 7.009480 4.069230 80.053850 134.583330
6.96 6.998870 4.061540 81.292310 134.166670
6.95 6.988260 4.053850 82.530770 133.750
6.94 6.977650 4.046150 83.769230 133.333330
6.93 6.967040 4.038460 85.007690 132.916670
6.92 6.956660 4.030770 86.246150 132.50
6.91 6.946280 4.023080 87.484620 132.083330
6.90 6.935890 4.015380 88.723080 131.666670
6.89 6.925510 4.007690 89.961540 131.250
6.88 6.915120 4.0 91.20 130.833330
6.87 6.904740 4.008330 90.766670 130.416670
6.86 6.894360 4.016670 90.333330 130.0
6.85 6.883970 4.0250 89.90 130.0
6.84 6.873590 4.033330 89.466670 130.0
6.83 6.863210 4.041670 89.033330 130.0
6.82 6.852820 4.050 88.60 130.0
6.81 6.842440 4.058330 88.166670 130.0
6.80 6.834130 4.066670 87.733330 130.0
6.79 6.825820 4.0750 87.30 130.0
6.78 6.817520 4.083330 86.866670 130.0
6.77 6.809210 4.091670 86.433330 130.0
6.76 6.80090 4.10 86.0 130.0
6.75 6.790520 4.115380 85.284620 130.0
6.74 6.780140 4.130770 84.569230 130.0
6.73 6.769750 4.146150 83.853850 130.0
6.72 6.759370 4.161540 83.138460 131.794870
6.71 6.748760 4.176920 82.423080 133.589740
6.70 6.738150 4.192310 81.707690 135.384620
6.69 6.727540 4.207690 80.992310 137.179490
6.68 6.716930 4.223080 80.276920 138.974360
6.67 6.706320 4.238460 79.561540 140.769230
6.66 6.695710 4.253850 78.846150 142.56410
6.65 6.68510 4.269230 78.130770 144.358970
6.64 6.674490 4.284620 77.415380 146.153850
6.63 6.6660 4.30 76.70 147.948720
6.62 6.657520 4.30 77.491670 149.743590
6.61 6.649030 4.30 78.283330 151.538460
6.60 6.640540 4.30 79.0750 153.333330
6.59 6.632050 4.30 79.866670 149.722220
6.58 6.621440 4.30 80.658330 146.111110
6.57 6.610840 4.30 81.450 142.50
6.56 6.600230 4.30 82.241670 138.888890
6.55 6.589620 4.30 83.033330 135.277780
6.54 6.579010 4.30 83.8250 131.666670
6.53 6.56840 4.30 84.616670 128.055560
6.52 6.557790 4.30 85.408330 124.444440
6.51 6.547180 4.30 86.20 120.833330
6.50 6.536570 4.292310 86.076920 117.222220
6.49 6.525960 4.284620 85.953850 113.611110
6.48 6.515350 4.276920 85.830770 110.0
6.47 6.504740 4.269230 85.707690 116.410260
6.46 6.496250 4.261540 85.584620 122.820510
6.45 6.487770 4.253850 85.461540 129.230770
6.44 6.479280 4.246150 85.338460 135.641030
6.43 6.470790 4.238460 85.215380 142.051280
6.42 6.46230 4.230770 85.092310 148.461540
6.41 6.451690 4.223080 84.969230 154.871790
6.40 6.441080 4.215380 84.846150 161.282050
6.39 6.430470 4.207690 84.723080 167.692310
6.38 6.419860 4.20 84.60 174.102560
6.37 6.409030 4.207690 84.061540 180.512820
6.36 6.398190 4.215380 83.523080 186.923080
6.35 6.387360 4.223080 82.984620 193.333330
6.34 6.376520 4.230770 82.446150 190.256410
6.33 6.365910 4.238460 81.907690 187.179490
6.32 6.35530 4.246150 81.369230 184.102560
6.31 6.34470 4.253850 80.830770 181.025640
6.30 6.334090 4.261540 80.292310 177.948720
6.29 6.32560 4.269230 79.753850 174.871790
6.28 6.317110 4.276920 79.215380 171.794870
6.27 6.308620 4.284620 78.676920 168.717950
6.26 6.300140 4.292310 78.138460 165.641030
6.25 6.291650 4.30 77.60 162.56410
6.24 6.281040 4.258330 77.9750 159.487180
6.23 6.270430 4.216670 78.350 156.410260
6.22 6.259820 4.1750 78.7250 153.333330
6.21 6.249210 4.133330 79.10 153.846150
6.20 6.238830 4.091670 79.4750 154.358970
6.19 6.228440 4.050 79.850 154.871790
6.18 6.218060 4.008330 80.2250 155.384620
6.17 6.207670 3.966670 80.60 155.897440
6.16 6.197070 3.9250 80.9750 156.410260
6.15 6.186460 3.883330 81.350 156.923080
6.14 6.175850 3.841670 81.7250 157.43590
6.13 6.165240 3.80 82.10 157.948720
6.12 6.154630 3.846150 82.461540 158.461540
6.11 6.144020 3.892310 82.823080 158.974360
6.10 6.133410 3.938460 83.184620 159.487180
6.09 6.12280 3.984620 83.546150 160.0
6.08 6.114310 4.030770 83.907690 161.111110
6.07 6.105820 4.076920 84.269230 162.222220
6.06 6.097340 4.123080 84.630770 163.333330
6.05 6.088850 4.169230 84.992310 164.444440
6.04 6.080360 4.215380 85.353850 165.555560
6.03 6.069980 4.261540 85.715380 166.666670
6.02 6.059590 4.307690 86.076920 167.777780
6.01 6.049210 4.353850 86.438460 168.888890
6.00 6.038830 4.40 86.80 170.0
5.99 6.028220 4.376920 86.092310 171.111110
5.98 6.017610 4.353850 85.384620 172.222220
5.97 6.0070 4.330770 84.676920 173.333330
5.96 5.996390 4.307690 83.969230 171.538460
5.95 5.985780 4.284620 83.261540 169.743590
5.94 5.975170 4.261540 82.553850 167.948720
5.93 5.964560 4.238460 81.846150 166.153850
5.92 5.953950 4.215380 81.138460 164.358970
5.91 5.945460 4.192310 80.430770 162.56410
5.90 5.936980 4.169230 79.723080 160.769230
5.89 5.928490 4.146150 79.015380 158.974360
5.88 5.920 4.123080 78.307690 157.179490
5.87 5.911510 4.10 77.60 155.384620
5.86 5.900680 4.130770 77.984620 153.589740
5.85 5.889840 4.161540 78.369230 151.794870
5.84 5.879010 4.192310 78.753850 150.0
5.83 5.868170 4.223080 79.138460 151.111110
5.82 5.857790 4.253850 79.523080 152.222220
5.81 5.84740 4.284620 79.907690 153.333330
5.80 5.837020 4.315380 80.292310 154.444440
5.79 5.826640 4.346150 80.676920 155.555560
5.78 5.816250 4.376920 81.061540 156.666670
5.77 5.805870 4.407690 81.446150 157.777780
5.76 5.795490 4.438460 81.830770 158.888890
5.75 5.78510 4.469230 82.215380 160.0
5.74 5.774720 4.50 82.60 161.111110
5.73 5.764330 4.483330 82.458330 162.222220
5.72 5.753950 4.466670 82.316670 163.333330
5.71 5.743570 4.450 82.1750 159.487180
5.70 5.735080 4.433330 82.033330 155.641030
5.69 5.726590 4.416670 81.891670 151.794870
5.68 5.71810 4.40 81.750 147.948720
5.67 5.709620 4.383330 81.608330 144.102560
5.66 5.701130 4.366670 81.466670 140.256410
5.65 5.690740 4.350 81.3250 136.410260
5.64 5.680360 4.333330 81.183330 132.56410
5.63 5.669980 4.316670 81.041670 128.717950
5.62 5.659590 4.30 80.90 124.871790
5.61 5.648980 4.30 80.584620 121.025640
5.60 5.638370 4.30 80.269230 117.179490
5.59 5.627770 4.30 79.953850 113.333330
5.58 5.617160 4.30 79.638460 115.128210
5.57 5.606550 4.30 79.323080 116.923080
5.56 5.595940 4.30 79.007690 118.717950
