~VERSION INFORMATION SECTION
VERS. 2.0 : CWLS LAS-VERSION 2.0
WRAP. NO : One line per depth step
~WELL INFORMATION SECTION
# MNEM.UNIT VALUE/NAME DESCRIPTION
#-------- -------------- ---------------------
STRT.Metres 15 : Start
STOP.Metres 0.36 : Stop
STEP.Metres -0.01 : Step
NULL.  -999.25 :NULL VALUE
DATE. 2025-36-11 : DATE
~CURVE INFORMATION SECTION
DEPTH.Metres : 0 Depth
Depth. : 1 Depth
Incline.Deg : 2 Incline
Azimuth.Deg : 3 Azimuth
GR.CPS : 4 GR
~PARAMETER INFORMATION SECTION
~OTHER
#-------------------------------------------------
#Produced By: GeoVista Logger - Version 7.1.107.0
Natural Gamma Sonde - 6447
Verticality Sonde - 6292
#-------------------------------------------------
~ASCII LOG DATA
# ...
12.94 12.960720 5.20 85.650 151.666670
12.93 12.951690 5.20 85.7250 152.50
12.92 12.942960 5.20 85.80 153.333330
12.91 12.934240 5.18750 86.11250 152.50
12.90 12.925510 5.1750 86.4250 151.666670
12.89 12.911960 5.16250 86.73750 150.833330
12.88 12.898420 5.150 87.050 150.0
12.87 12.889690 5.13750 87.36250 149.166670
12.86 12.880960 5.1250 87.6750 148.333330
12.85 12.872230 5.11250 87.98750 147.50
12.84 12.863510 5.10 88.30 146.666670
12.83 12.854780 5.08750 87.950 147.083330
12.82 12.846050 5.0750 87.60 147.50
12.81 12.832510 5.06250 87.250 147.916670
12.80 12.818960 5.050 86.90 148.333330
12.79 12.809930 5.03750 86.550 148.750
12.78 12.80090 5.0250 86.20 149.166670
12.77 12.791870 5.01250 85.850 149.583330
12.76 12.783150 5.0 85.50 150.0
12.75 12.774420 5.01250 85.5250 150.604840
12.74 12.765690 5.0250 85.550 151.209680
12.73 12.752140 5.03750 85.5750 151.814520
12.72 12.73860 5.050 85.60 152.419350
12.71 12.729570 5.06250 85.6250 153.024190
12.70 12.720540 5.0750 85.650 153.629030
12.69 12.711510 5.08750 85.6750 154.233870
12.68 12.702780 5.10 85.70 154.838710
12.67 12.694060 5.08750 85.6250 148.81720
12.66 12.685330 5.0750 85.550 142.79570
12.65 12.672230 5.06250 85.4750 136.774190
12.64 12.659140 5.050 85.40 130.752690
12.63 12.650410 5.03750 85.3250 124.731180
12.62 12.641690 5.0250 85.250 118.709680
12.61 12.632960 5.01250 85.1750 112.688170
12.60 12.619410 5.0 85.10 106.666670
12.59 12.605870 5.0250 85.26250 114.166670
12.58 12.597440 5.050 85.4250 121.666670
12.57 12.589010 5.0750 85.58750 129.166670
12.56 12.580590 5.10 85.750 136.666670
12.55 12.571860 5.1250 85.91250 144.166670
12.54 12.563130 5.150 86.0750 151.666670
12.53 12.55440 5.1750 86.23750 159.166670
12.52 12.541310 5.20 86.40 166.666670
12.51 12.528220 5.18750 86.23750 166.666670
12.50 12.519490 5.1750 86.0750 166.666670
12.49 12.510760 5.16250 85.91250 166.666670
12.48 12.502030 5.150 85.750 166.666670
12.47 12.49330 5.13750 85.58750 166.666670
12.46 12.484570 5.1250 85.4250 166.666670
12.45 12.475850 5.11250 85.26250 166.666670
12.44 12.462750 5.10 85.10 163.750
12.43 12.449660 5.11250 85.20 160.833330
12.42 12.440930 5.1250 85.30 157.916670
12.41 12.43220 5.13750 85.40 155.0
12.40 12.423480 5.150 85.50 152.083330
12.39 12.410380 5.16250 85.60 149.166670
12.38 12.397290 5.1750 85.70 146.250
12.37 12.388560 5.18750 85.80 143.333330
12.36 12.379830 5.20 85.90 149.166670
12.35 12.371110 5.20 85.714290 155.0
12.34 12.362380 5.20 85.528570 160.833330
12.33 12.353650 5.20 85.342860 166.666670
12.32 12.344920 5.20 85.157140 172.50
12.31 12.332280 5.20 84.971430 178.333330
12.30 12.319640 5.20 84.785710 184.166670
12.29 12.310910 5.20 84.60 190.0
12.28 12.302180 5.18750 84.650 183.333330
12.27 12.293450 5.1750 84.70 176.666670
12.26 12.280360 5.16250 84.750 170.0
12.25 12.267270 5.150 84.80 163.333330
12.24 12.258540 5.13750 84.850 156.666670
12.23 12.249810 5.1250 84.90 150.0
12.22 12.241080 5.11250 84.950 143.333330
12.21 12.232360 5.10 85.0 136.666670
12.20 12.223630 5.10 85.1750 140.0
12.19 12.21490 5.10 85.350 143.333330
12.18 12.201810 5.10 85.5250 146.666670
12.17 12.188710 5.10 85.70 150.0
12.16 12.179980 5.10 85.8750 153.333330
12.15 12.171260 5.10 86.050 156.666670
12.14 12.162530 5.10 86.2250 160.0
12.13 12.149440 5.10 86.40 163.333330
12.12 12.136340 5.03750 86.18750 158.333330
12.11 12.127610 4.9750 85.9750 153.333330
12.10 12.118890 4.91250 85.76250 148.333330
12.09 12.110160 4.850 85.550 143.333330
12.08 12.101130 4.78750 85.33750 138.333330
12.07 12.09210 4.7250 85.1250 133.333330
12.06 12.083070 4.66250 84.91250 128.333330
12.05 12.069980 4.60 84.70 123.333330
12.04 12.056880 4.61250 84.7750 127.083330
12.03 12.048160 4.6250 84.850 130.833330
12.02 12.039430 4.63750 84.9250 134.583330
12.01 12.03070 4.650 85.0 138.333330
12.00 12.021970 4.66250 85.0750 142.083330
11.99 12.013240 4.6750 85.150 145.833330
11.98 12.004510 4.68750 85.2250 149.583330
11.97 11.990970 4.70 85.30 153.333330
11.96 11.977430 4.71250 85.450 150.416670
11.95 11.96870 4.7250 85.60 147.50
11.94 11.959970 4.73750 85.750 144.583330
11.93 11.951240 4.750 85.90 141.666670
11.92 11.942510 4.76250 86.050 138.750
11.91 11.933780 4.7750 86.20 135.833330
11.90 11.925060 4.78750 86.350 132.916670
11.89 11.911960 4.80 86.50 130.0
11.88 11.898870 4.757140 86.142860 132.916670
11.87 11.889840 4.714290 85.785710 135.833330
11.86 11.880810 4.671430 85.428570 138.750
11.85 11.871780 4.628570 85.071430 141.666670
11.84 11.863050 4.585710 84.714290 144.583330
11.83 11.854330 4.542860 84.357140 147.50
11.82 11.84560 4.50 84.0 150.416670
11.81 11.832510 4.550 84.0750 153.333330
11.80 11.819410 4.60 84.150 152.083330
11.79 11.810380 4.650 84.2250 150.833330
11.78 11.801350 4.70 84.30 149.583330
11.77 11.792330 4.750 84.3750 148.333330
11.76 11.78360 4.80 84.450 147.083330
11.75 11.774870 4.850 84.5250 145.833330
11.74 11.766140 4.90 84.60 144.583330
11.73 11.75260 4.91250 84.70 143.333330
11.72 11.739050 4.9250 84.80 151.666670
11.71 11.730320 4.93750 84.90 160.0
11.70 11.72160 4.950 85.0 168.333330
11.69 11.712870 4.96250 85.10 176.666670
11.68 11.700230 4.9750 85.20 185.0
11.67 11.687580 4.98750 85.30 193.333330
11.66 11.678560 5.0 85.40 201.666670
11.65 11.669530 4.9750 85.750 210.0
11.64 11.66050 4.950 86.10 196.190480
11.63 11.651770 4.9250 86.450 182.380950
11.62 11.643040 4.90 86.80 168.571430
11.61 11.634310 4.8750 87.150 154.76190
11.60 11.621220 4.850 87.50 140.952380
11.59 11.608130 4.8250 87.850 127.142860
11.58 11.59940 4.80 88.20 113.333330
11.57 11.590670 4.80 87.93750 115.0
11.56 11.581940 4.80 87.6750 116.666670
11.55 11.573210 4.80 87.41250 118.333330
11.54 11.564480 4.80 87.150 120.0
11.53 11.555760 4.80 86.88750 121.666670
11.52 11.542660 4.80 86.6250 123.333330
11.51 11.529570 4.80 86.36250 125.0
11.50 11.520840 4.80 86.10 126.666670
11.49 11.512110 4.8250 85.91250 128.750
11.48 11.503390 4.850 85.7250 130.833330
11.47 11.490290 4.8750 85.53750 132.916670
11.46 11.47720 4.90 85.350 135.0
11.45 11.468770 4.9250 85.16250 137.083330
11.44 11.460350 4.950 84.9750 139.166670
11.43 11.451920 4.9750 84.78750 141.250
11.42 11.443190 5.0 84.60 143.333330
11.41 11.434460 4.96250 84.90 143.333330
11.40 11.425730 4.9250 85.20 143.333330
11.39 11.412640 4.88750 85.50 143.333330
11.38 11.399550 4.850 85.80 143.333330
11.37 11.390820 4.81250 86.10 143.333330
11.36 11.382090 4.7750 86.40 143.333330
11.35 11.373360 4.73750 86.70 143.333330
11.34 11.359820 4.70 87.0 143.333330
11.33 11.346280 4.73750 87.16250 143.750
11.32 11.337550 4.7750 87.3250 144.166670
11.31 11.328820 4.81250 87.48750 144.583330
11.30 11.320090 4.850 87.650 145.0
11.29 11.311360 4.88750 87.81250 145.416670
11.28 11.302630 4.9250 87.9750 145.833330
11.27 11.293910 4.96250 88.13750 146.250
11.26 11.280810 5.0 88.30 146.666670
11.25 11.267720 4.98750 87.98750 148.897850
11.24 11.258990 4.9750 87.6750 151.129030
11.23 11.250260 4.96250 87.36250 153.360220
11.22 11.241530 4.950 87.050 155.59140
11.21 11.232510 4.93750 86.73750 157.822580
11.20 11.223480 4.9250 86.4250 160.053760
11.19 11.214450 4.91250 86.11250 162.284950
11.18 11.201350 4.90 85.80 164.516130
11.17 11.188260 4.88750 85.81250 164.784950
11.16 11.179230 4.8750 85.8250 165.053760
11.15 11.17020 4.86250 85.83750 165.322580
11.14 11.161170 4.850 85.850 165.59140
11.13 11.152450 4.83750 85.86250 165.860220
11.12 11.143720 4.8250 85.8750 166.129030
11.11 11.134990 4.81250 85.88750 166.397850
11.10 11.12190 4.80 85.90 166.666670
11.09 11.10880 4.771430 86.50 162.50
11.08 11.099770 4.742860 87.10 158.333330
11.07 11.090740 4.714290 87.70 154.166670
11.06 11.081720 4.685710 88.30 150.0
11.05 11.072990 4.657140 88.90 145.833330
11.04 11.064260 4.628570 89.50 141.666670
11.03 11.055530 4.60 90.10 137.50
11.02 11.041990 4.61250 89.9250 133.333330
11.01 11.028440 4.6250 89.750 133.750
11.00 11.019710 4.63750 89.5750 134.166670
10.99 11.010990 4.650 89.40 134.583330
10.98 11.002260 4.66250 89.2250 135.0
10.97 10.993230 4.6750 89.050 135.416670
10.96 10.98420 4.68750 88.8750 135.833330
10.95 10.975170 4.70 88.70 136.250
