~VERSION INFORMATION SECTION
VERS. 2.0 : CWLS LAS-VERSION 2.0
WRAP. NO : One line per depth step
~WELL INFORMATION SECTION
# MNEM.UNIT VALUE/NAME DESCRIPTION
#-------- -------------- ---------------------
STRT.Metres 16 : Start
STOP.Metres 0.37 : Stop
STEP.Metres -0.01 : Step
NULL.  -999.25 :NULL VALUE
DATE. 2025-28-11 : DATE
~CURVE INFORMATION SECTION
DEPTH.Metres : 0 Depth
Depth. : 1 Depth
Incline.Deg : 2 Incline
Azimuth.Deg : 3 Azimuth
GR.CPS : 4 GR
~PARAMETER INFORMATION SECTION
~OTHER
#-------------------------------------------------
#Produced By: GeoVista Logger - Version 7.1.107.0
Natural Gamma Sonde - 6447
Verticality Sonde - 6292
#-------------------------------------------------
~ASCII LOG DATA
# ...
11.81 11.817610 5.0 86.433330 183.333330
11.80 11.804510 5.0 85.766670 173.333330
11.79 11.791420 5.0 85.10 163.333330
11.78 11.782390 5.0 84.933330 153.333330
11.77 11.774270 5.0 84.766670 140.0
11.76 11.765240 5.0 84.60 126.666670
11.75 11.756210 5.0 85.70 138.888890
11.74 11.748080 5.0 86.80 151.111110
11.73 11.734540 4.933330 86.266670 163.333330
11.72 11.72190 4.866670 85.733330 168.333330
11.71 11.712870 4.80 85.20 173.333330
11.70 11.703840 4.850 84.550 160.0
11.69 11.695710 4.90 83.90 146.666670
11.68 11.686680 4.866670 84.70 133.333330
11.67 11.678560 4.833330 85.50 133.333330
11.66 11.665010 4.80 86.30 133.333330
11.65 11.652370 4.80 85.950 138.888890
11.64 11.643340 4.80 85.60 144.444440
11.63 11.635210 4.80 85.30 150.0
11.62 11.626190 4.80 85.0 144.444440
11.61 11.618060 4.80 84.70 138.888890
11.60 11.604970 4.80 84.933330 133.333330
11.59 11.591870 4.80 85.166670 155.0
11.58 11.583750 4.80 85.40 176.666670
11.57 11.574720 4.80 85.450 157.777780
11.56 11.566590 4.80 85.50 138.888890
11.55 11.557560 4.80 85.933330 120.0
11.54 11.544920 4.80 86.366670 130.0
11.53 11.532280 4.80 86.80 140.0
11.52 11.523250 4.80 86.350 134.444440
11.51 11.514220 4.80 85.90 128.888890
11.50 11.506090 4.833330 85.60 123.333330
11.49 11.497070 4.866670 85.30 136.666670
11.48 11.488940 4.90 85.0 150.0
11.47 11.475850 4.933330 85.333330 136.666670
11.46 11.462750 4.966670 85.666670 123.333330
11.45 11.454630 5.0 86.0 110.0
11.44 11.44560 5.050 85.250 120.0
11.43 11.437470 5.10 84.50 130.0
11.42 11.424380 5.10 84.533330 140.0
11.41 11.411290 5.10 84.566670 123.333330
11.40 11.403160 5.10 84.60 106.666670
11.39 11.394130 5.066670 85.30 111.111110
11.38 11.3860 5.033330 86.0 115.555560
11.37 11.376980 5.0 86.70 120.0
11.36 11.368850 5.0 84.650 129.354840
11.35 11.355760 5.0 82.60 138.709680
11.34 11.343570 5.0 84.90 130.25090
11.33 11.334540 5.0 87.20 121.792110
11.32 11.326410 5.0 89.50 113.333330
11.31 11.317380 5.0 88.850 121.666670
11.30 11.304740 5.0 88.20 130.0
11.29 11.29210 5.0 85.933330 131.111110
11.28 11.283070 5.0 83.666670 132.222220
11.27 11.274940 5.0 81.40 133.333330
11.26 11.265910 5.0 84.150 124.444440
11.25 11.257790 5.0 86.90 115.555560
11.24 11.24470 5.0 87.40 106.666670
11.23 11.23160 5.0 87.90 110.0
11.22 11.223480 5.0 88.40 113.333330
11.21 11.214450 4.966670 87.266670 110.0
11.20 11.206320 4.933330 86.133330 106.666670
11.19 11.197290 4.90 85.0 103.333330
11.18 11.184650 4.90 86.150 106.666670
11.17 11.172010 4.90 87.30 110.0
11.16 11.162980 4.90 88.133330 112.222220
11.15 11.154850 4.90 88.966670 114.444440
11.14 11.145820 4.90 89.80 116.666670
11.13 11.13770 4.90 88.250 128.333330
11.12 11.12460 4.90 86.70 140.0
11.11 11.111510 4.90 86.033330 132.222220
11.10 11.103390 4.90 85.366670 124.444440
11.09 11.094360 4.90 84.70 116.666670
11.08 11.085330 4.90 87.40 123.333330
11.07 11.07720 4.90 90.10 130.0
11.06 11.064110 4.866670 90.40 136.666670
11.05 11.051020 4.833330 90.70 133.333330
11.04 11.042890 4.80 91.0 130.0
11.03 11.033860 4.833330 88.80 137.460320
11.02 11.025730 4.866670 86.60 144.920630
11.01 11.01670 4.90 84.40 152.380950
11.00 11.007670 4.90 85.050 153.968250
10.99 10.995030 4.90 85.70 155.555560
10.98 10.982390 4.90 87.40 151.481480
10.97 10.973360 4.90 89.10 147.407410
10.96 10.965240 4.90 90.80 143.333330
10.95 10.956210 4.90 89.40 121.111110
10.94 10.948080 4.90 88.0 98.888890
10.93 10.934540 4.90 87.233330 76.666670
10.92 10.92190 4.90 86.466670 130.0
10.91 10.912870 4.90 85.70 183.333330
10.90 10.903840 4.90 87.0 156.666670
10.89 10.895710 4.90 88.30 130.0
10.88 10.886680 4.90 88.633330 103.333330
10.87 10.878560 4.90 88.966670 119.40860
10.86 10.865010 4.90 89.30 135.483870
10.85 10.852370 4.90 88.466670 138.100360
10.84 10.843340 4.90 87.633330 140.716850
10.83 10.835210 4.90 86.80 143.333330
10.82 10.826190 4.90 86.60 146.666670
10.81 10.817160 4.90 86.40 150.0
10.80 10.809030 4.90 87.20 153.333330
10.79 10.795940 4.90 88.0 158.333330
10.78 10.782840 4.90 88.80 163.333330
10.77 10.774720 4.90 88.40 154.444440
10.76 10.765690 4.90 88.0 145.555560
10.75 10.756660 4.90 87.40 136.666670
10.74 10.748530 4.90 86.80 161.666670
10.73 10.735440 4.90 86.20 186.666670
10.72 10.722350 4.90 86.733330 178.888890
10.71 10.714220 4.90 87.266670 171.111110
10.70 10.705190 4.90 87.80 163.333330
10.69 10.697070 4.90 88.750 165.555560
10.68 10.688040 4.90 89.70 167.777780
10.67 10.675850 4.90 88.30 170.0
10.66 10.662750 4.90 86.90 150.0
10.65 10.654630 4.90 85.50 130.0
10.64 10.64560 4.90 86.650 142.222220
10.63 10.637470 4.90 87.80 154.444440
10.62 10.624380 4.866670 88.80 166.666670
10.61 10.611290 4.833330 89.80 158.333330
10.60 10.602260 4.80 90.80 150.0
10.59 10.594130 4.80 90.233330 140.0
10.58 10.58510 4.80 89.666670 130.0
10.57 10.576980 4.80 89.10 120.0
10.56 10.567950 4.80 86.90 143.333330
10.55 10.55530 4.80 84.70 166.666670
10.54 10.542660 4.80 86.633330 158.888890
10.53 10.533630 4.80 88.566670 151.111110
10.52 10.525510 4.80 90.50 143.333330
10.51 10.516480 4.750 88.850 144.444440
10.50 10.508350 4.70 87.20 145.555560
10.49 10.495260 4.733330 85.333330 146.666670
10.48 10.482170 4.766670 83.466670 135.0
10.47 10.474040 4.80 81.60 123.333330
10.46 10.465010 4.766670 83.766670 117.777780
10.45 10.456880 4.733330 85.933330 112.222220
10.44 10.447860 4.70 88.10 106.666670
10.43 10.435210 4.70 90.40 161.666670
10.42 10.422570 4.70 92.70 216.666670
10.41 10.413540 4.70 87.90 202.222220
10.40 10.405420 4.70 83.10 187.777780
10.39 10.396390 4.70 78.30 173.333330
10.38 10.387360 4.70 80.10 168.924730
10.37 10.374720 4.70 81.90 164.516130
10.36 10.362080 4.666670 84.866670 167.45520
10.35 10.353050 4.633330 87.833330 170.394270
10.34 10.344920 4.60 90.80 173.333330
10.33 10.335890 4.60 89.450 158.888890
10.32 10.327770 4.60 88.10 144.444440
10.31 10.318740 4.60 86.933330 130.0
10.30 10.305640 4.60 85.766670 153.333330
10.29 10.293450 4.60 84.60 176.666670
10.28 10.284420 4.60 87.40 180.0
10.27 10.27540 4.60 90.20 183.333330
10.26 10.267270 4.60 88.60 186.666670
10.25 10.254180 4.60 87.0 178.333330
10.24 10.241080 4.60 85.40 170.0
10.23 10.232960 4.60 85.633330 165.555560
10.22 10.223930 4.60 85.866670 161.111110
10.21 10.21580 4.60 86.10 156.666670
10.20 10.206770 4.60 87.20 161.666670
10.19 10.198650 4.60 88.30 166.666670
10.18 10.18510 4.60 87.80 167.777780
10.17 10.172460 4.60 87.30 168.888890
10.16 10.163430 4.60 86.80 170.0
10.15 10.15530 4.60 87.550 162.222220
10.14 10.146280 4.60 88.30 154.444440
10.13 10.137250 4.60 88.566670 146.666670
10.12 10.12460 4.60 88.833330 153.333330
10.11 10.111960 4.60 89.10 160.0
10.10 10.102930 4.60 88.966670 162.222220
10.09 10.094810 4.60 88.833330 164.444440
10.08 10.085780 4.60 88.70 166.666670
10.07 10.077650 4.60 87.550 171.666670
10.06 10.064560 4.60 86.40 176.666670
10.05 10.051470 4.60 87.30 173.333330
10.04 10.042440 4.60 88.20 170.0
10.03 10.034310 4.60 89.10 166.666670
10.02 10.025280 4.60 89.90 154.444440
10.01 10.017160 4.60 90.70 142.222220
10.00 10.008130 4.60 89.366670 130.0
9.99 9.995030 4.60 88.033330 124.523810
9.98 9.981940 4.60 86.70 119.047620
9.97 9.973810 4.60 87.050 146.031750
9.96 9.964790 4.60 87.40 173.015870
9.95 9.955760 4.566670 87.70 200.0
9.94 9.947630 4.533330 88.0 175.0
9.93 9.934540 4.50 88.30 150.0
9.92 9.921440 4.50 88.133330 151.111110
9.91 9.913320 4.50 87.966670 152.222220
9.90 9.904290 4.50 87.80 153.333330
9.89 9.896160 4.550 88.0 150.609320
9.88 9.887130 4.60 88.20 147.88530
9.87 9.879010 4.60 87.966670 145.161290
9.86 9.865460 4.60 87.733330 154.247310
9.85 9.852820 4.60 87.50 163.333330
9.84 9.843790 4.60 88.60 152.222220
9.83 9.835670 4.60 89.70 141.111110
9.82 9.827540 4.60 89.066670 130.0
9.81 9.814450 4.60 88.433330 140.0
9.80 9.801350 4.60 87.80 150.0
9.79 9.793230 4.60 86.833330 145.555560
9.78 9.78420 4.60 85.866670 141.111110
9.77 9.776070 4.60 84.90 136.666670
9.76 9.767950 4.60 86.150 135.0
9.75 9.754850 4.60 87.40 133.333330
9.74 9.741760 4.60 89.0 148.888890
9.73 9.733630 4.60 90.60 164.444440
9.72 9.72460 4.60 92.20 180.0
9.71 9.716480 4.550 89.50 165.555560
