~VERSION INFORMATION SECTION
VERS. 2.0 : CWLS LAS-VERSION 2.0
WRAP. NO : One line per depth step
~WELL INFORMATION SECTION
# MNEM.UNIT VALUE/NAME DESCRIPTION
#-------- -------------- ---------------------
STRT.Metres 15 : Start
STOP.Metres 0.45 : Stop
STEP.Metres -0.01 : Step
NULL.  -999.25 :NULL VALUE
DATE. 2025-33-11 : DATE
~CURVE INFORMATION SECTION
DEPTH.Metres : 0 Depth
Depth. : 1 Depth
Incline.Deg : 2 Incline
Azimuth.Deg : 3 Azimuth
GR.CPS : 4 GR
~PARAMETER INFORMATION SECTION
~OTHER
#-------------------------------------------------
#Produced By: GeoVista Logger - Version 7.1.107.0
Natural Gamma Sonde - 6447
Verticality Sonde - 6292
#-------------------------------------------------
~ASCII LOG DATA
# ...
10.68 10.694360 4.90 90.180 173.333330
10.67 10.686230 4.90 91.10 160.0
10.66 10.669980 4.90 90.820 146.666670
10.65 10.661850 4.90 90.540 133.333330
10.64 10.653720 4.90 90.260 136.666670
10.63 10.637470 4.90 89.980 140.0
10.62 10.628890 4.90 89.70 143.333330
10.61 10.620320 4.90 89.420 146.666670
10.60 10.612190 4.90 89.140 150.0
10.59 10.604060 4.90 88.860 143.333330
10.58 10.587810 4.90 88.580 136.666670
10.57 10.579680 4.90 88.30 130.0
10.56 10.571560 4.920 89.280 123.333330
10.55 10.563430 4.940 90.260 116.666670
10.54 10.55530 4.960 91.240 121.333330
10.53 10.539050 4.980 92.220 126.0
10.52 10.530930 5.0 93.20 130.666670
10.51 10.52280 4.940 92.440 135.333330
10.50 10.514670 4.880 91.680 140.0
10.49 10.506550 4.820 90.920 158.0
10.48 10.489390 4.760 90.160 176.0
10.47 10.481260 4.70 89.40 194.0
10.46 10.473140 4.680 87.880 212.0
10.45 10.456880 4.660 86.360 230.0
10.44 10.448760 4.640 84.840 217.333330
10.43 10.440630 4.620 83.320 204.666670
10.42 10.432510 4.60 81.80 192.0
10.41 10.424380 4.60 83.7750 179.333330
10.40 10.407220 4.60 85.750 166.666670
10.39 10.39910 4.60 87.7250 162.666670
10.38 10.390970 4.60 89.70 158.666670
10.37 10.382840 4.60 89.830 154.666670
10.36 10.374720 4.60 89.960 150.666670
10.35 10.358470 4.60 90.090 146.666670
10.34 10.350340 4.60 90.220 150.0
10.33 10.342210 4.60 90.350 153.333330
10.32 10.334090 4.60 90.480 156.666670
10.31 10.325960 4.60 90.610 160.0
10.30 10.309710 4.60 90.740 163.333330
10.29 10.301130 4.60 90.870 162.666670
10.28 10.292550 4.60 91.0 162.0
10.27 10.27630 4.60 90.80 161.333330
10.26 10.268170 4.60 90.60 160.666670
10.25 10.260050 4.60 90.40 160.0
10.24 10.251470 4.60 90.20 162.50
10.23 10.242890 4.60 90.0 165.0
10.22 10.226640 4.60 89.780 167.50
10.21 10.218510 4.60 89.560 170.0
10.20 10.210380 4.60 89.340 171.483870
10.19 10.202260 4.60 89.120 172.967740
10.18 10.194130 4.60 88.90 174.451610
10.17 10.177880 4.60 88.320 175.935480
10.16 10.169750 4.60 87.740 177.419350
10.15 10.161630 4.60 87.160 170.602150
10.14 10.153050 4.60 86.580 163.784950
10.13 10.144470 4.60 86.0 156.967740
10.12 10.128220 4.60 86.80 150.150540
10.11 10.120090 4.60 87.60 143.333330
10.10 10.111960 4.60 88.40 154.0
10.09 10.103840 4.60 89.20 164.666670
10.08 10.095710 4.60 90.0 175.333330
10.07 10.079460 4.60 90.50 186.0
10.06 10.070880 4.60 91.0 196.666670
10.05 10.06230 4.60 91.50 189.333330
10.04 10.054180 4.60 92.0 182.0
10.03 10.046050 4.60 92.50 174.666670
10.02 10.02980 4.590 91.810 167.333330
10.01 10.021670 4.580 91.120 160.0
10.00 10.013540 4.570 90.430 158.0
9.99 9.997290 4.560 89.740 156.0
9.98 9.989160 4.550 89.050 154.0
9.97 9.981040 4.540 88.360 152.0
9.96 9.972910 4.530 87.670 150.0
9.95 9.964790 4.520 86.980 143.0
9.94 9.948530 4.510 86.290 136.0
9.93 9.940410 4.50 85.60 129.0
9.92 9.932280 4.440 87.240 122.0
9.91 9.924150 4.380 88.880 115.0
9.90 9.916030 4.320 90.520 120.666670
9.89 9.899770 4.260 92.160 126.333330
9.88 9.891650 4.20 93.80 132.0
9.87 9.883520 4.260 93.040 137.666670
9.86 9.867270 4.320 92.280 143.333330
9.85 9.859140 4.380 91.520 153.333330
9.84 9.851020 4.440 90.760 163.333330
9.83 9.842890 4.50 90.0 173.333330
9.82 9.834760 4.480 89.840 183.333330
9.81 9.818510 4.460 89.680 193.333330
9.80 9.810380 4.440 89.520 186.0
9.79 9.802260 4.420 89.360 178.666670
9.78 9.794130 4.40 89.20 171.333330
9.77 9.7860 4.450 89.2750 164.0
9.76 9.769750 4.50 89.350 156.666670
9.75 9.761630 4.550 89.4250 154.666670
9.74 9.75350 4.60 89.50 152.666670
9.73 9.737250 4.580 89.360 150.666670
9.72 9.729120 4.560 89.220 148.666670
9.71 9.720990 4.540 89.080 146.666670
9.70 9.712870 4.520 88.940 155.515150
9.69 9.704740 4.50 88.80 164.363640
9.68 9.689390 4.480 89.360 173.212120
9.67 9.681260 4.460 89.920 182.060610
9.66 9.673140 4.440 90.480 190.909090
9.65 9.656880 4.420 91.040 174.832540
9.64 9.648760 4.40 91.60 158.755980
9.63 9.640630 4.40 90.540 142.679430
9.62 9.632510 4.40 89.480 126.602870
9.61 9.624380 4.40 88.420 110.526320
9.60 9.608130 4.40 87.360 128.728070
9.59 9.60 4.40 86.30 146.929820
9.58 9.591870 4.40 86.220 165.131580
9.57 9.583750 4.40 86.140 183.333330
9.56 9.575620 4.40 86.060 182.0
9.55 9.558470 4.40 85.980 180.666670
9.54 9.550340 4.40 85.90 179.333330
9.53 9.542210 4.40 86.50 178.0
9.52 9.534090 4.40 87.10 176.666670
9.51 9.525960 4.40 87.70 178.666670
9.50 9.509710 4.40 88.30 180.666670
9.49 9.501580 4.40 88.90 182.666670
9.48 9.493450 4.40 88.860 184.666670
9.47 9.47720 4.40 88.820 186.666670
9.46 9.469070 4.40 88.780 190.0
9.45 9.460950 4.40 88.740 193.333330
9.44 9.452820 4.40 88.70 196.666670
9.43 9.44470 4.40 88.080 200.0
9.42 9.428440 4.40 87.460 203.333330
9.41 9.420320 4.40 86.840 203.333330
9.40 9.412190 4.40 86.220 203.333330
9.39 9.403610 4.40 85.60 203.333330
9.38 9.395030 4.4250 86.0250 203.333330
9.37 9.378780 4.450 86.450 203.333330
9.36 9.37020 4.4750 86.8750 184.484850
9.35 9.361630 4.50 87.30 165.636360
9.34 9.35350 4.520 87.50 146.787880
9.33 9.345370 4.540 87.70 127.939390
9.32 9.328220 4.560 87.90 109.090910
9.31 9.320090 4.580 88.10 120.956940
9.30 9.311960 4.60 88.30 132.822970
9.29 9.303840 4.580 87.940 144.6890
9.28 9.295710 4.560 87.580 156.555020
9.27 9.279460 4.540 87.220 168.421050
9.26 9.270880 4.520 86.860 170.220710
9.25 9.26230 4.50 86.50 172.020370
9.24 9.254180 4.50 86.440 173.820030
9.23 9.246050 4.50 86.380 175.619690
9.22 9.22980 4.50 86.320 177.419350
9.21 9.221670 4.50 86.260 173.935480
9.20 9.213540 4.50 86.20 170.451610
9.19 9.196390 4.50 86.840 166.967740
9.18 9.188260 4.50 87.480 163.483870
9.17 9.180140 4.50 88.120 160.0
9.16 9.171560 4.50 88.760 168.0
9.15 9.162980 4.50 89.40 176.0
9.14 9.146730 4.50 88.80 184.0
9.13 9.13860 4.50 88.20 192.0
9.12 9.130470 4.50 87.60 200.0
9.11 9.122350 4.50 87.0 198.666670
9.10 9.114220 4.50 86.40 197.333330
9.09 9.097970 4.50 86.020 196.0
9.08 9.089390 4.50 85.640 194.666670
9.07 9.080810 4.50 85.260 193.333330
9.06 9.072690 4.50 84.880 177.50
9.05 9.064560 4.50 84.50 161.666670
9.04 9.048310 4.50 85.50 145.833330
9.03 9.040180 4.50 86.50 130.0
9.02 9.032050 4.50 87.50 138.0
9.01 9.023930 4.50 88.50 146.0
9.00 9.01580 4.50 89.50 154.0
8.99 8.999550 4.50 89.480 162.0
8.98 8.991420 4.50 89.460 170.0
8.97 8.98330 4.50 89.440 163.333330
8.96 8.967040 4.50 89.420 156.666670
8.95 8.958920 4.50 89.40 150.0
8.94 8.950790 4.480 88.60 143.333330
8.93 8.942660 4.460 87.80 136.666670
8.92 8.934540 4.440 87.0 137.333330
8.91 8.918280 4.420 86.20 138.0
8.90 8.910160 4.40 85.40 138.666670
8.89 8.902030 4.40 86.30 139.333330
8.88 8.893910 4.40 87.20 140.0
8.87 8.885780 4.40 88.10 137.333330
8.86 8.869530 4.40 89.0 134.666670
8.85 8.86140 4.40 89.90 132.0
8.84 8.853270 4.40 89.360 129.333330
8.83 8.837020 4.40 88.820 126.666670
8.82 8.828890 4.40 88.280 128.0
8.81 8.820770 4.40 87.740 129.333330
8.80 8.812640 4.40 87.20 130.666670
8.79 8.804510 4.40 86.50 132.0
8.78 8.788260 4.40 85.80 133.333330
8.77 8.780140 4.40 85.10 132.0
8.76 8.772010 4.40 84.40 130.666670
8.75 8.763880 4.40 83.70 129.333330
8.74 8.755760 4.380 85.40 128.0
8.73 8.73950 4.360 87.10 126.666670
8.72 8.731380 4.340 88.80 125.333330
8.71 8.723250 4.320 90.50 124.0
8.70 8.7070 4.30 92.20 122.666670
8.69 8.698870 4.30 90.9750 121.333330
8.68 8.690740 4.30 89.750 120.0
8.67 8.682620 4.30 88.5250 135.0
8.66 8.674490 4.30 87.30 150.0
8.65 8.658240 4.30 87.580 165.0
8.64 8.650110 4.30 87.860 180.0
8.63 8.641990 4.30 88.140 170.666670
8.62 8.633860 4.30 88.420 161.333330
8.61 8.625730 4.30 88.70 152.0
8.60 8.609480 4.30 88.550 142.666670
8.59 8.601350 4.30 88.40 133.333330
8.58 8.593230 4.30 88.250 142.666670
8.57 8.576980 4.30 88.10 152.0
8.56 8.568850 4.30 87.950 161.333330
8.55 8.560720 4.30 87.80 170.666670
8.54 8.55260 4.30 87.650 180.0
8.53 8.544470 4.30 87.50 180.0
8.52 8.528220 4.30 87.350 180.0
8.51 8.520090 4.30 87.20 180.0
8.50 8.511960 4.280 87.060 180.0
8.49 8.503840 4.260 86.920 180.0
8.48 8.495710 4.240 86.780 166.666670
8.47 8.478560 4.220 86.640 153.333330
8.46 8.470430 4.20 86.50 140.0
8.45 8.46230 4.20 86.980 126.666670
8.44 8.454180 4.20 87.460 113.333330
