~VERSION INFORMATION SECTION
VERS. 2.0 : CWLS LAS-VERSION 2.0
WRAP. NO : One line per depth step
~WELL INFORMATION SECTION
# MNEM.UNIT VALUE/NAME DESCRIPTION
#-------- -------------- ---------------------
STRT.Metres 16 : Start
STOP.Metres 0.37 : Stop
STEP.Metres -0.01 : Step
NULL.  -999.25 :NULL VALUE
DATE. 2025-28-11 : DATE
~CURVE INFORMATION SECTION
DEPTH.Metres : 0 Depth
Depth. : 1 Depth
Incline.Deg : 2 Incline
Azimuth.Deg : 3 Azimuth
GR.CPS : 4 GR
~PARAMETER INFORMATION SECTION
~OTHER
#-------------------------------------------------
#Produced By: GeoVista Logger - Version 7.1.107.0
Natural Gamma Sonde - 6447
Verticality Sonde - 6292
#-------------------------------------------------
~ASCII LOG DATA
16.00 -999.25 -999.25 -999.25 -999.25
15.99 15.995030 2.333330 27.466670 61.666670
15.98 15.982840 4.666670 54.933330 123.333330
15.97 15.973810 7.0 82.40 128.333330
15.96 15.965690 7.0 82.733330 133.333330
15.95 15.957560 7.0 83.066670 141.111110
15.94 15.944470 7.0 83.40 148.888890
15.93 15.931380 7.0 83.450 156.666670
15.92 15.923250 7.0 83.50 143.333330
15.91 15.914220 7.0 83.50 130.0
15.90 15.906090 7.0 83.50 116.666670
15.89 15.897070 7.0 83.50 134.523810
15.88 15.888940 7.033330 83.566670 152.380950
15.87 15.875850 7.066670 83.633330 160.846560
15.86 15.862750 7.10 83.70 169.312170
15.85 15.854630 7.050 83.150 177.777780
15.84 15.84650 7.0 82.60 166.29630
15.83 15.837470 7.0 82.90 154.814810
15.82 15.824830 7.0 83.20 143.333330
15.81 15.812190 7.0 83.50 143.333330
15.80 15.803160 7.0 84.233330 143.333330
15.79 15.795030 7.0 84.966670 147.168460
15.78 15.7860 7.0 85.70 151.003580
15.77 15.777880 6.950 84.30 154.838710
15.76 15.764790 6.90 82.90 144.336920
15.75 15.751690 6.90 83.633330 133.835130
15.74 15.743570 6.90 84.366670 123.333330
15.73 15.734540 6.90 85.10 125.0
15.72 15.726410 6.90 84.533330 126.666670
15.71 15.717380 6.90 83.966670 125.555560
15.70 15.704740 6.90 83.40 124.444440
15.69 15.69210 6.90 83.750 123.333330
15.68 15.683070 6.90 84.10 135.0
15.67 15.674940 6.90 84.333330 146.666670
15.66 15.665910 6.90 84.566670 158.888890
15.65 15.656880 6.90 84.80 171.111110
15.64 15.648760 6.950 84.750 183.333330
15.63 15.635210 7.0 84.70 167.777780
15.62 15.621670 7.0 84.033330 152.222220
15.61 15.612640 7.0 83.366670 136.666670
15.60 15.603610 7.0 82.70 128.333330
15.59 15.594580 7.0 83.80 120.0
15.58 15.585550 7.0 84.90 120.0
15.57 15.576520 7.0 84.80 120.0
15.56 15.567490 7.0 84.70 120.0
15.55 15.558470 7.0 84.60 131.111110
15.54 15.544920 7.0 84.50 142.222220
15.53 15.531380 7.0 84.40 153.333330
15.52 15.522350 7.0 84.20 144.166670
15.51 15.514220 7.0 84.0 135.0
15.50 15.505190 7.0 83.80 140.0
15.49 15.497070 7.0 83.80 145.0
15.48 15.488040 7.0 83.80 150.0
15.47 15.47540 7.0 83.80 154.444440
15.46 15.462750 6.950 83.850 158.888890
15.45 15.453720 6.90 83.90 163.333330
15.44 15.44560 6.90 83.90 145.0
15.43 15.436570 6.90 83.90 126.666670
15.42 15.428440 6.90 83.90 117.777780
15.41 15.41490 6.90 84.10 108.888890
15.40 15.402260 6.90 84.30 100.0
15.39 15.393230 6.90 84.20 105.555560
15.38 15.38420 6.90 84.10 111.111110
15.37 15.376070 6.90 84.0 116.666670
15.36 15.367040 6.90 84.066670 120.0
15.35 15.358920 6.90 84.133330 123.333330
15.34 15.345370 6.90 84.20 126.666670
15.33 15.332730 6.90 84.20 130.0
15.32 15.32370 6.90 84.20 133.333330
15.31 15.315580 6.90 84.166670 122.222220
15.30 15.306550 6.90 84.133330 111.111110
15.29 15.297520 6.90 84.10 100.0
15.28 15.284880 6.866670 84.233330 112.903230
15.27 15.272230 6.833330 84.366670 125.806450
15.26 15.263210 6.80 84.50 142.759860
15.25 15.255080 6.80 84.0 159.713260
15.24 15.246050 6.80 83.50 176.666670
15.23 15.237020 6.80 84.233330 162.222220
15.22 15.228890 6.80 84.966670 147.777780
15.21 15.21580 6.80 85.70 133.333330
15.20 15.203610 6.80 84.350 141.666670
15.19 15.194580 6.80 83.0 150.0
15.18 15.185550 6.833330 83.10 155.555560
15.17 15.177430 6.866670 83.20 161.111110
15.16 15.164330 6.90 83.30 166.666670
15.15 15.151240 6.90 84.20 172.222220
15.14 15.143120 6.90 85.10 177.777780
15.13 15.134090 6.90 86.0 183.333330
15.12 15.125960 6.850 84.450 188.333330
15.11 15.116930 6.80 82.90 193.333330
15.10 15.10880 6.80 83.20 187.777780
15.09 15.095260 6.80 83.50 182.222220
15.08 15.082620 6.80 83.80 176.666670
15.07 15.073590 6.80 84.40 166.666670
15.06 15.065460 6.80 85.0 156.666670
15.05 15.056430 6.766670 84.933330 161.111110
15.04 15.048310 6.733330 84.866670 165.555560
15.03 15.035210 6.70 84.80 170.0
15.02 15.022120 6.70 84.433330 165.0
15.01 15.0140 6.70 84.066670 160.0
15.00 15.004970 6.70 83.70 178.095240
14.99 14.996840 6.70 84.40 196.190480
14.98 14.987810 6.70 85.10 214.285710
14.97 14.975170 6.70 84.80 198.41270
14.96 14.961630 6.70 84.50 182.539680
14.95 14.95350 6.70 84.20 166.666670
14.94 14.944470 6.650 85.250 185.0
14.93 14.936340 6.60 86.30 203.333330
14.92 14.927310 6.633330 86.166670 182.222220
14.91 14.914220 6.666670 86.033330 161.111110
14.90 14.901130 6.70 85.90 140.0
14.89 14.8930 6.666670 84.333330 140.0
14.88 14.883970 6.633330 82.766670 140.0
14.87 14.875850 6.60 81.20 143.333330
14.86 14.866820 6.550 84.80 146.666670
14.85 14.858690 6.50 88.40 150.0
14.84 14.84560 6.50 86.966670 153.333330
14.83 14.832510 6.50 85.533330 156.666670
14.82 14.824380 6.50 84.10 151.111110
14.81 14.815350 6.50 84.0 145.555560
14.80 14.807220 6.50 83.90 140.0
14.79 14.794130 6.50 84.433330 156.774190
14.78 14.781040 6.50 84.966670 173.548390
14.77 14.772910 6.50 85.50 190.322580
14.76 14.763880 6.50 85.966670 178.494620
14.75 14.755760 6.50 86.433330 166.666670
14.74 14.746730 6.50 86.90 165.555560
14.73 14.73860 6.450 85.90 164.444440
14.72 14.725510 6.40 84.90 163.333330
14.71 14.712420 6.40 85.80 164.444440
14.70 14.703390 6.40 86.70 165.555560
14.69 14.695260 6.40 87.60 166.666670
14.68 14.686230 6.40 86.450 176.666670
14.67 14.67720 6.40 85.30 186.666670
14.66 14.664560 6.366670 84.966670 166.666670
14.65 14.651920 6.333330 84.633330 146.666670
14.64 14.642890 6.30 84.30 126.666670
14.63 14.634760 6.30 85.30 147.777780
14.62 14.625730 6.30 86.30 168.888890
14.61 14.617610 6.30 86.166670 190.0
14.60 14.608580 6.30 86.033330 165.0
14.59 14.595490 6.30 85.90 140.0
14.58 14.582390 6.30 85.366670 151.111110
14.57 14.574270 6.30 84.833330 162.222220
14.56 14.565240 6.30 84.30 173.333330
14.55 14.556210 6.250 84.80 168.333330
14.54 14.547180 6.20 85.30 163.333330
14.53 14.534540 6.20 86.30 155.555560
14.52 14.520990 6.20 87.30 147.777780
14.51 14.511960 6.20 88.30 140.0
14.50 14.502930 6.20 87.850 131.111110
14.49 14.493910 6.20 87.40 122.222220
14.48 14.484880 6.166670 86.90 113.333330
14.47 14.475850 6.133330 86.40 135.0
14.46 14.466820 6.10 85.90 156.666670
14.45 14.457790 6.066670 85.233330 150.476190
14.44 14.448760 6.033330 84.566670 144.285710
14.43 14.435210 6.0 83.90 138.095240
14.42 14.421670 6.050 86.50 135.714290
14.41 14.412640 6.10 89.10 133.333330
14.40 14.403610 6.066670 88.266670 176.190480
14.39 14.395490 6.033330 87.433330 219.047620
14.38 14.386460 6.0 86.60 261.904760
14.37 14.377430 6.0 87.350 222.751320
14.36 14.36840 6.0 88.10 183.597880
14.35 14.35530 6.0 87.0 144.444440
14.34 14.344020 6.0 85.90 167.222220
14.33 14.335890 6.0 84.80 190.0
14.32 14.326860 6.0 86.533330 192.222220
14.31 14.314670 6.0 88.266670 194.444440
14.30 14.301580 6.0 90.0 196.666670
14.29 14.293450 5.950 89.250 178.978490
14.28 14.284420 5.90 88.50 161.290320
14.27 14.27630 5.90 87.733330 171.971330
14.26 14.267270 5.90 86.966670 182.652330
14.25 14.254630 5.90 86.20 193.333330
14.24 14.241990 5.90 87.550 171.666670
14.23 14.232960 5.90 88.90 150.0
14.22 14.224830 5.90 88.966670 141.111110
14.21 14.21670 5.90 89.033330 132.222220
14.20 14.207670 5.90 89.10 123.333330
14.19 14.195030 5.90 88.40 121.111110
14.18 14.182390 5.90 87.70 118.888890
14.17 14.173360 5.90 87.0 116.666670
14.16 14.165240 5.90 86.533330 143.333330
14.15 14.156210 5.90 86.066670 170.0
14.14 14.148080 5.90 85.60 160.0
14.13 14.134990 5.850 86.650 150.0
14.12 14.12190 5.80 87.70 140.0
14.11 14.113770 5.833330 87.333330 148.333330
14.10 14.104740 5.866670 86.966670 156.666670
14.09 14.095710 5.90 86.60 154.444440
14.08 14.087580 5.90 86.633330 152.222220
14.07 14.074490 5.90 86.666670 150.0
14.06 14.06140 5.90 86.70 165.555560
14.05 14.053270 5.90 86.250 181.111110
14.04 14.044240 5.90 85.80 196.666670
14.03 14.036120 5.90 86.20 181.666670
14.02 14.027090 5.90 86.60 166.666670
14.01 14.018960 5.90 86.60 167.777780
14.00 14.005420 5.90 86.60 168.888890
13.99 13.992780 5.90 86.60 170.0
13.98 13.983750 5.90 86.333330 160.0
13.97 13.975620 5.90 86.066670 150.0
13.96 13.966590 5.90 85.80 152.222220
13.95 13.958470 5.90 86.0 154.444440
13.94 13.945370 5.90 86.20 156.666670
13.93 13.932280 5.866670 86.866670 146.666670
13.92 13.924150 5.833330 87.533330 136.666670
