~VERSION INFORMATION SECTION
VERS. 2.0 : CWLS LAS-VERSION 2.0
WRAP. NO : One line per depth step
~WELL INFORMATION SECTION
# MNEM.UNIT VALUE/NAME DESCRIPTION
#-------- -------------- ---------------------
STRT.Metres 15 : Start
STOP.Metres 0.28 : Stop
STEP.Metres -0.01 : Step
NULL.  -999.25 :NULL VALUE
DATE. 2025-38-11 : DATE
~CURVE INFORMATION SECTION
DEPTH.Metres : 0 Depth
Depth. : 1 Depth
Incline.Deg : 2 Incline
Azimuth.Deg : 3 Azimuth
GR.CPS : 4 GR
~PARAMETER INFORMATION SECTION
~OTHER
#-------------------------------------------------
#Produced By: GeoVista Logger - Version 7.1.107.0
Natural Gamma Sonde - 6447
Verticality Sonde - 6292
#-------------------------------------------------
~ASCII LOG DATA
# ...
1.73 1.768670 2.30 76.276920 120.0
1.72 1.760 2.30 75.915380 118.205130
1.71 1.751330 2.30 75.553850 116.410260
1.70 1.742660 2.30 75.192310 114.615380
1.69 1.731830 2.30 74.830770 112.820510
1.68 1.720990 2.30 74.469230 111.025640
1.67 1.710160 2.30 74.107690 109.230770
1.66 1.699320 2.30 73.746150 107.43590
1.65 1.688710 2.30 73.384620 105.641030
1.64 1.67810 2.30 73.023080 103.846150
1.63 1.667490 2.30 72.661540 102.051280
1.62 1.656880 2.30 72.30 100.256410
1.61 1.646050 2.307690 71.230770 98.461540
1.60 1.635210 2.315380 70.161540 96.666670
1.59 1.624380 2.323080 69.092310 101.538460
1.58 1.613540 2.330770 68.023080 106.410260
1.57 1.604880 2.338460 66.953850 111.282050
1.56 1.596210 2.346150 65.884620 116.153850
1.55 1.587540 2.353850 64.815380 121.025640
1.54 1.578870 2.361540 63.746150 125.897440
1.53 1.57020 2.369230 62.676920 130.769230
1.52 1.559370 2.376920 61.607690 135.641030
1.51 1.548530 2.384620 60.538460 140.512820
1.50 1.53770 2.392310 59.469230 145.384620
1.49 1.526860 2.40 58.40 150.256410
1.48 1.516030 2.365380 58.461540 155.128210
1.47 1.505190 2.330770 58.523080 160.0
1.46 1.494360 2.296150 58.584620 159.166670
1.45 1.483520 2.261540 58.646150 158.333330
1.44 1.475030 2.226920 58.707690 157.50
1.43 1.466550 2.192310 58.769230 156.666670
1.42 1.458060 2.157690 58.830770 155.833330
1.41 1.449570 2.123080 58.892310 155.0
1.40 1.441080 2.088460 58.953850 154.166670
1.39 1.430250 2.053850 59.015380 153.333330
1.38 1.419410 2.019230 59.076920 152.50
1.37 1.408580 1.984620 59.138460 151.666670
1.36 1.397740 1.950 59.20 150.833330
1.35 1.386910 1.915380 59.261540 150.0
1.34 1.376070 1.880770 59.323080 151.538460
1.33 1.365240 1.846150 59.384620 153.076920
1.32 1.35440 1.811540 59.446150 154.615380
1.31 1.344020 1.776920 59.507690 156.153850
1.30 1.333630 1.742310 59.569230 157.692310
1.29 1.323250 1.707690 59.630770 159.230770
1.28 1.312870 1.673080 59.692310 160.769230
1.27 1.295260 1.638460 59.753850 162.307690
1.26 1.277650 1.603850 59.815380 163.846150
1.25 1.264560 1.569230 59.876920 165.384620
1.24 1.251470 1.534620 59.938460 166.923080
1.23 1.241080 1.50 60.0 168.461540
1.22 1.23070 1.507690 60.276920 170.0
1.21 1.214450 1.515380 60.553850 170.909090
1.20 1.201810 1.523080 60.830770 171.818180
1.19 1.191870 1.530770 61.107690 172.727270
1.18 1.184650 1.538460 61.384620 173.636360
1.17 1.174120 1.546150 61.661540 174.545450
1.16 1.162870 1.553850 61.938460 175.454550
1.15 -999.25 1.561540 62.215380 176.363640
1.14 -999.25 1.569230 62.492310 177.272730
1.13 -999.25 1.576920 62.769230 178.181820
1.12 -999.25 1.584620 63.046150 179.090910
1.11 -999.25 1.592310 63.323080 180.0
1.10 -999.25 1.60 63.60 180.909090
1.09 -999.25 1.608330 62.950 181.818180
1.08 -999.25 1.616670 62.30 180.48530
1.07 -999.25 1.6250 61.650 179.152430
1.06 -999.25 1.633330 61.0 177.819550
1.05 -999.25 1.641670 60.350 176.486670
1.04 -999.25 1.650 59.70 175.153790
1.03 -999.25 1.658330 59.050 173.820920
1.02 -999.25 1.666670 58.40 172.488040
1.01 -999.25 1.6750 57.750 171.155160
1.00 -999.25 1.683330 57.10 169.822280
0.99 -999.25 1.691670 56.450 168.489410
0.98 -999.25 1.70 55.80 167.156530
0.97 -999.25 1.516670 56.90 165.823650
0.96 -999.25 1.333330 58.0 164.490770
0.95 -999.25 1.150 59.10 163.157890
0.94 -999.25 0.966670 60.20 161.120110
0.93 -999.25 0.783330 61.30 159.082320
0.92 -999.25 0.60 62.40 157.044530
0.91 -999.25 0.866670 64.20 155.006750
0.90 -999.25 1.133330 66.0 152.968960
0.89 -999.25 1.40 67.80 150.931170
0.88 -999.25 1.60 70.70 148.893390
0.87 -999.25 1.30 68.60 146.85560
0.86 -999.25 1.350 72.950 144.817810
0.85 -999.25 -999.25 -999.25 142.780030
0.84 -999.25 -999.25 -999.25 140.742240
0.83 -999.25 -999.25 -999.25 138.704450
0.82 -999.25 -999.25 -999.25 136.666670
0.81 -999.25 -999.25 -999.25 139.444440
0.80 -999.25 -999.25 -999.25 142.222220
0.79 -999.25 -999.25 -999.25 145.0
0.78 -999.25 -999.25 -999.25 147.777780
0.77 -999.25 -999.25 -999.25 150.555560
0.76 -999.25 -999.25 -999.25 153.333330
0.75 -999.25 -999.25 -999.25 156.111110
0.74 -999.25 -999.25 -999.25 158.888890
0.73 -999.25 -999.25 -999.25 161.666670
0.72 -999.25 -999.25 -999.25 164.444440
0.71 -999.25 -999.25 -999.25 167.222220
0.70 -999.25 -999.25 -999.25 170.0
0.69 -999.25 -999.25 -999.25 177.90210
0.68 -999.25 -999.25 -999.25 185.80420
0.67 -999.25 -999.25 -999.25 193.706290
0.66 -999.25 -999.25 -999.25 201.608390
0.65 -999.25 -999.25 -999.25 209.510490
0.64 -999.25 -999.25 -999.25 217.412590
0.63 -999.25 -999.25 -999.25 225.314690
0.62 -999.25 -999.25 -999.25 233.216780
0.61 -999.25 -999.25 -999.25 241.118880
0.60 -999.25 -999.25 -999.25 249.020980
0.59 -999.25 -999.25 -999.25 256.923080
0.58 -999.25 -999.25 -999.25 264.825170
0.57 -999.25 -999.25 -999.25 272.727270
0.56 -999.25 -999.25 -999.25 265.108580
0.55 -999.25 -999.25 -999.25 257.489880
0.54 -999.25 -999.25 -999.25 249.871180
0.53 -999.25 -999.25 -999.25 242.252480
0.52 -999.25 -999.25 -999.25 234.633790
0.51 -999.25 -999.25 -999.25 227.015090
0.50 -999.25 -999.25 -999.25 219.396390
0.49 -999.25 -999.25 -999.25 211.77770
0.48 -999.25 -999.25 -999.25 204.1590
0.47 -999.25 -999.25 -999.25 196.54030
0.46 -999.25 -999.25 -999.25 188.92160
0.45 -999.25 -999.25 -999.25 181.302910
0.44 -999.25 -999.25 -999.25 173.684210
0.43 -999.25 -999.25 -999.25 166.140350
0.42 -999.25 -999.25 -999.25 158.596490
0.41 -999.25 -999.25 -999.25 151.052630
0.40 -999.25 -999.25 -999.25 143.508770
0.39 -999.25 -999.25 -999.25 135.964910
0.38 -999.25 -999.25 -999.25 128.421050
0.37 -999.25 -999.25 -999.25 120.877190
0.36 -999.25 -999.25 -999.25 113.333330
0.35 -999.25 -999.25 -999.25 130.833330
0.34 -999.25 -999.25 -999.25 148.333330
0.33 -999.25 -999.25 -999.25 165.833330
0.32 -999.25 -999.25 -999.25 183.333330
0.31 -999.25 -999.25 -999.25 151.666670
0.30 -999.25 -999.25 -999.25 120.0
0.29 -999.25 -999.25 -999.25 120.0
0.28 -999.25 -999.25 -999.25 165.396830
