~VERSION INFORMATION SECTION
VERS. 2.0 : CWLS LAS-VERSION 2.0
WRAP. NO : One line per depth step
~WELL INFORMATION SECTION
# MNEM.UNIT VALUE/NAME DESCRIPTION
#-------- -------------- ---------------------
STRT.Metres 15 : Start
STOP.Metres 0.36 : Stop
STEP.Metres -0.01 : Step
NULL.  -999.25 :NULL VALUE
DATE. 2025-36-11 : DATE
~CURVE INFORMATION SECTION
DEPTH.Metres : 0 Depth
Depth. : 1 Depth
Incline.Deg : 2 Incline
Azimuth.Deg : 3 Azimuth
GR.CPS : 4 GR
~PARAMETER INFORMATION SECTION
~OTHER
#-------------------------------------------------
#Produced By: GeoVista Logger - Version 7.1.107.0
Natural Gamma Sonde - 6447
Verticality Sonde - 6292
#-------------------------------------------------
~ASCII LOG DATA
15.00 -999.25 -999.25 -999.25 -999.25
14.99 -999.25 0.8250 10.21250 -999.25
14.98 -999.25 1.650 20.4250 -999.25
14.97 14.994130 2.4750 30.63750 -999.25
14.96 14.98510 3.30 40.850 -999.25
14.95 14.976070 4.1250 51.06250 -999.25
14.94 14.962980 4.950 61.2750 -999.25
14.93 14.949890 5.7750 71.48750 -999.25
14.92 14.940860 6.60 81.70 -999.25
14.91 14.931830 6.61250 81.98750 -999.25
14.90 14.92280 6.6250 82.2750 -999.25
14.89 14.913770 6.63750 82.56250 -999.25
14.88 14.904740 6.650 82.850 -999.25
14.87 14.895710 6.66250 83.13750 -999.25
14.86 14.882620 6.6750 83.4250 -999.25
14.85 14.869530 6.68750 83.71250 -999.25
14.84 14.86050 6.70 84.0 -999.25
14.83 14.851470 6.681250 83.80 -999.25
14.82 14.842440 6.66250 83.60 -999.25
14.81 14.833710 6.643750 83.40 -999.25
14.80 14.824980 6.6250 83.20 -999.25
14.79 14.816250 6.606250 83.0 -999.25
14.78 14.802710 6.58750 82.80 -999.25
14.77 14.789160 6.568750 82.60 -999.25
14.76 14.780140 6.550 82.40 -999.25
14.75 14.771110 6.531250 82.20 -999.25
14.74 14.762080 6.51250 82.0 -999.25
14.73 14.753050 6.493750 81.80 -999.25
14.72 14.744020 6.4750 81.60 -999.25
14.71 14.734990 6.456250 81.40 -999.25
14.70 14.721440 6.43750 81.20 -999.25
14.69 14.70790 6.418750 81.0 151.001160
14.68 14.699170 6.40 80.80 170.0
14.67 14.690440 6.3250 80.83750 170.0
14.66 14.681720 6.250 80.8750 170.0
14.65 14.672690 6.1750 80.91250 158.333330
14.64 14.663660 6.10 80.950 146.666670
14.63 14.654630 6.0250 80.98750 142.50
14.62 14.641080 5.950 81.0250 138.333330
14.61 14.627540 5.8750 81.06250 134.166670
14.60 14.618510 5.80 81.10 130.0
14.59 14.609480 5.7750 81.46250 144.166670
14.58 14.600450 5.750 81.8250 158.333330
14.57 14.591120 5.7250 82.18750 172.50
14.56 14.581790 5.70 82.550 186.666670
14.55 14.572460 5.6750 82.91250 178.0
14.54 14.562830 5.650 83.2750 169.333330
14.53 14.55320 5.6250 83.63750 160.666670
14.52 14.543570 5.60 84.0 152.0
14.51 14.534240 5.650 84.58750 143.333330
14.50 14.524910 5.70 85.1750 146.666670
14.49 14.515580 5.750 85.76250 150.0
14.48 14.502030 5.80 86.350 153.333330
14.47 14.488490 5.850 86.93750 156.666670
14.46 14.479460 5.90 87.5250 160.0
14.45 14.470430 5.950 88.11250 163.333330
14.44 14.46140 6.0 88.70 166.666670
14.43 14.452070 6.0 88.50 168.571430
14.42 14.442740 6.0 88.30 170.476190
14.41 14.433410 6.0 88.10 172.380950
14.40 14.421220 6.0 87.90 174.285710
14.39 14.409030 6.0 87.70 176.190480
14.38 14.40 6.0 87.50 178.095240
14.37 14.390970 6.0 87.30 180.0
14.36 14.381940 6.0 87.10 178.333330
14.35 14.373210 6.0 86.750 176.666670
14.34 14.364480 6.0 86.40 175.0
14.33 14.355760 6.0 86.050 173.333330
14.32 14.342660 6.0 85.70 171.666670
14.31 14.329570 6.0 85.350 170.0
14.30 14.320540 6.0 85.0 168.333330
14.29 14.311510 6.0 84.650 166.666670
14.28 14.302480 6.0 84.30 166.397850
14.27 14.289390 5.933330 84.588890 166.129030
14.26 14.27630 5.866670 84.877780 165.860220
14.25 14.267570 5.80 85.166670 165.59140
14.24 14.258840 5.733330 85.455560 165.322580
14.23 14.250110 5.666670 85.744440 165.053760
14.22 14.241080 5.60 86.033330 164.784950
14.21 14.232050 5.533330 86.322220 164.516130
14.20 14.223020 5.466670 86.611110 161.451610
14.19 14.209930 5.40 86.90 158.38710
14.18 14.196840 5.450 86.6250 155.322580
14.17 14.188110 5.50 86.350 152.258060
14.16 14.179380 5.550 86.0750 149.193550
14.15 14.170650 5.60 85.80 146.129030
14.14 14.161630 5.650 85.5250 143.064520
14.13 14.15260 5.70 85.250 140.0
14.12 14.143570 5.750 84.9750 132.50
14.11 14.130470 5.80 84.70 125.0
14.10 14.117380 5.81250 84.8250 117.50
14.09 14.108650 5.8250 84.950 110.0
14.08 14.099920 5.83750 85.0750 102.50
14.07 14.09120 5.850 85.20 95.0
14.06 14.082470 5.86250 85.3250 87.50
14.05 14.073740 5.8750 85.450 80.0
14.04 14.065010 5.88750 85.5750 88.750
14.03 14.051470 5.90 85.70 97.50
14.02 14.037920 5.90 85.80 106.250
14.01 14.029190 5.90 85.90 115.0
14.00 14.020470 5.90 86.0 123.750
13.99 14.011740 5.90 86.10 132.50
13.98 14.003010 5.90 86.20 141.250
13.97 13.994280 5.90 86.30 150.0
13.96 13.985550 5.90 86.40 150.416670
13.95 13.972010 5.850 86.21250 150.833330
13.94 13.958470 5.80 86.0250 151.250
13.93 13.949740 5.750 85.83750 151.666670
13.92 13.941010 5.70 85.650 152.083330
13.91 13.932280 5.650 85.46250 152.50
13.90 13.923250 5.60 85.2750 152.916670
13.89 13.914220 5.550 85.08750 153.333330
13.88 13.905190 5.50 84.90 146.666670
13.87 13.891650 5.4750 84.9750 140.0
13.86 13.87810 5.450 85.050 133.333330
13.85 13.869380 5.4250 85.1250 126.666670
13.84 13.860650 5.40 85.20 120.0
13.83 13.851920 5.3750 85.2750 113.333330
13.82 13.842890 5.350 85.350 106.666670
13.81 13.833860 5.3250 85.4250 100.0
13.80 13.824830 5.30 85.50 111.250
13.79 13.811740 5.31250 85.21250 122.50
13.78 13.798650 5.3250 84.9250 133.750
13.77 13.789620 5.33750 84.63750 145.0
13.76 13.780590 5.350 84.350 156.250
13.75 13.771560 5.36250 84.06250 167.50
13.74 13.762830 5.3750 83.7750 178.750
13.73 13.75410 5.38750 83.48750 190.0
13.72 13.745370 5.40 83.20 186.29630
13.71 13.732280 5.38750 84.050 182.592590
13.70 13.719190 5.3750 84.90 178.888890
13.69 13.710160 5.36250 85.750 175.185190
13.68 13.701130 5.350 86.60 171.481480
13.67 13.69210 5.33750 87.450 167.777780
13.66 13.683370 5.3250 88.30 164.074070
13.65 13.674640 5.31250 89.150 160.370370
13.64 13.665910 5.30 90.0 156.666670
13.63 13.652370 5.2750 89.76250 157.083330
13.62 13.638830 5.250 89.5250 157.50
13.61 13.63010 5.2250 89.28750 157.916670
13.60 13.621370 5.20 89.050 158.333330
13.59 13.612640 5.1750 88.81250 158.750
13.58 13.603910 5.150 88.5750 159.166670
13.57 13.595180 5.1250 88.33750 159.583330
13.56 13.586460 5.10 88.10 160.0
13.55 13.572910 5.13750 88.0 158.750
13.54 13.559370 5.1750 87.90 157.50
13.53 13.550640 5.21250 87.80 156.250
13.52 13.541910 5.250 87.70 155.0
13.51 13.533180 5.28750 87.60 153.750
13.50 13.524150 5.3250 87.50 152.50
13.49 13.515120 5.36250 87.40 151.250
13.48 13.506090 5.40 87.30 150.0
13.47 13.492550 5.38750 87.33750 156.250
13.46 13.479010 5.3750 87.3750 162.50
13.45 13.469980 5.36250 87.41250 168.750
13.44 13.460950 5.350 87.450 175.0
13.43 13.451920 5.33750 87.48750 181.250
13.42 13.442890 5.3250 87.5250 187.50
13.41 13.433860 5.31250 87.56250 193.750
13.40 13.424830 5.30 87.60 200.0
13.39 13.411740 5.26250 87.26250 195.416670
13.38 13.398650 5.2250 86.9250 190.833330
13.37 13.390220 5.18750 86.58750 186.250
13.36 13.381790 5.150 86.250 181.666670
13.35 13.373360 5.11250 85.91250 177.083330
13.34 13.360270 5.0750 85.5750 172.50
13.33 13.347180 5.03750 85.23750 167.916670
13.32 13.338450 5.0 84.90 163.333330
13.31 13.329720 4.993750 84.856250 165.833330
13.30 13.320990 4.98750 84.81250 168.333330
13.29 13.312260 4.981250 84.768750 170.833330
13.28 13.303540 4.9750 84.7250 173.333330
13.27 13.294810 4.968750 84.681250 175.833330
13.26 13.281720 4.96250 84.63750 178.333330
13.25 13.268620 4.956250 84.593750 180.833330
13.24 13.259890 4.950 84.550 183.333330
13.23 13.251170 4.943750 84.506250 180.0
13.22 13.242440 4.93750 84.46250 176.666670
13.21 13.229350 4.931250 84.418750 173.333330
13.20 13.216250 4.9250 84.3750 170.0
13.19 13.207520 4.918750 84.331250 166.666670
13.18 13.19880 4.91250 84.28750 163.333330
13.17 13.190070 4.906250 84.243750 160.0
13.16 13.181340 4.90 84.20 156.666670
13.15 13.172610 4.91250 84.70 151.666670
13.14 13.163880 4.9250 85.20 146.666670
13.13 13.150790 4.93750 85.70 141.666670
13.12 13.13770 4.950 86.20 136.666670
13.11 13.128670 4.96250 86.70 131.666670
13.10 13.119640 4.9750 87.20 126.666670
13.09 13.110610 4.98750 87.70 121.666670
13.08 13.101880 5.0 88.20 116.666670
13.07 13.093150 5.0250 87.8250 120.416670
13.06 13.084420 5.050 87.450 124.166670
13.05 13.071330 5.0750 87.0750 127.916670
13.04 13.058240 5.10 86.70 131.666670
13.03 13.049510 5.1250 86.3250 135.416670
13.02 13.040780 5.150 85.950 139.166670
13.01 13.032050 5.1750 85.5750 142.916670
13.00 13.023330 5.20 85.20 146.666670
12.99 13.01460 5.20 85.2750 147.50
12.98 13.005870 5.20 85.350 148.333330
12.97 12.992330 5.20 85.4250 149.166670
12.96 12.978780 5.20 85.50 150.0
12.95 12.969750 5.20 85.5750 150.833330
