~VERSION INFORMATION SECTION
VERS. 2.0 : CWLS LAS-VERSION 2.0
WRAP. NO : One line per depth step
~WELL INFORMATION SECTION
# MNEM.UNIT VALUE/NAME DESCRIPTION
#-------- -------------- ---------------------
STRT.Metres 16 : Start
STOP.Metres 0.43 : Stop
STEP.Metres -0.01 : Step
NULL.  -999.25 :NULL VALUE
DATE. 2025-47-11 : DATE
~CURVE INFORMATION SECTION
DEPTH.Metres : 0 Depth
Depth. : 1 Depth
Incline.Deg : 2 Incline
Azimuth.Deg : 3 Azimuth
GR.CPS : 4 GR
~PARAMETER INFORMATION SECTION
~OTHER
#-------------------------------------------------
#Produced By: GeoVista Logger - Version 7.1.107.0
Natural Gamma Sonde - 6447
Verticality Sonde - 6292
#-------------------------------------------------
~ASCII LOG DATA
# ...
9.85 9.861850 3.40 80.20 108.666670
9.84 9.852820 3.416670 79.90 93.333330
9.83 9.843790 3.433330 79.60 105.0
9.82 9.834760 3.450 79.30 116.666670
9.81 9.825730 3.466670 79.0 128.333330
9.80 9.81670 3.483330 78.70 140.0
9.79 9.798650 3.50 78.40 151.666670
9.78 9.789620 3.540 78.740 163.333330
9.77 9.780590 3.580 79.080 154.476190
9.76 9.771560 3.620 79.420 145.619050
9.75 9.762530 3.660 79.760 136.76190
9.74 9.75350 3.70 80.10 127.904760
9.73 9.744470 3.70 79.50 119.047620
9.72 9.735440 3.70 78.90 128.835980
9.71 9.726410 3.70 78.30 138.624340
9.70 9.708350 3.70 77.70 148.41270
9.69 9.699320 3.70 77.10 158.201060
9.68 9.690290 3.70 76.50 167.989420
9.67 9.680810 3.720 76.90 177.777780
9.66 9.671330 3.740 77.30 171.555560
9.65 9.66230 3.760 77.70 165.333330
9.64 9.653270 3.780 78.10 159.111110
9.63 9.644240 3.80 78.50 152.888890
9.62 9.635210 3.780 77.640 146.666670
9.61 9.626190 3.760 76.780 150.555560
9.60 9.617160 3.740 75.920 154.444440
9.59 9.59910 3.720 75.060 158.333330
9.58 9.590070 3.70 74.20 162.222220
9.57 9.581040 3.70 74.90 166.111110
9.56 9.571560 3.70 75.60 170.0
9.55 9.562080 3.70 76.30 157.935480
9.54 9.553050 3.70 77.0 145.870970
9.53 9.544020 3.70 77.70 133.806450
9.52 9.534540 3.70 78.40 121.741940
9.51 9.525060 3.70 78.760 109.677420
9.50 9.516030 3.70 79.120 123.064520
9.49 9.5070 3.70 79.480 136.451610
9.48 9.488940 3.70 79.840 149.838710
9.47 9.479910 3.70 80.20 163.225810
9.46 9.470880 3.683330 79.20 176.61290
9.45 9.46140 3.666670 78.20 190.0
9.44 9.451920 3.650 77.20 181.333330
9.43 9.442890 3.633330 76.20 172.666670
9.42 9.433860 3.616670 75.20 164.0
9.41 9.424830 3.60 74.20 155.333330
9.40 9.41580 3.60 75.540 146.666670
9.39 9.406320 3.60 76.880 142.222220
9.38 9.396840 3.60 78.220 137.777780
9.37 9.387810 3.60 79.560 133.333330
9.36 9.378780 3.60 80.90 128.888890
9.35 9.359820 3.616670 80.333330 124.444440
9.34 9.350790 3.633330 79.766670 120.0
9.33 9.341760 3.650 79.20 124.666670
9.32 9.332280 3.666670 78.633330 129.333330
9.31 9.32280 3.683330 78.066670 134.0
9.30 9.313770 3.70 77.50 138.666670
9.29 9.304740 3.70 76.50 143.333330
9.28 9.295710 3.70 75.50 147.222220
9.27 9.286680 3.70 74.50 151.111110
9.26 9.277650 3.70 73.50 155.0
9.25 9.268620 3.70 72.50 158.888890
9.24 9.249660 3.70 73.266670 162.777780
9.23 9.240630 3.70 74.033330 166.666670
9.22 9.23160 3.70 74.80 170.0
9.21 9.222570 3.70 75.566670 173.333330
9.20 9.213540 3.70 76.333330 176.666670
9.19 9.204060 3.70 77.10 180.0
9.18 9.194580 3.660 77.160 183.333330
9.17 9.185550 3.620 77.220 178.888890
9.16 9.176520 3.580 77.280 174.444440
9.15 9.167040 3.540 77.340 170.0
9.14 9.157560 3.50 77.40 165.555560
9.13 9.13950 3.50 76.416670 161.111110
9.12 9.130470 3.50 75.433330 156.666670
9.11 9.121440 3.50 74.450 151.333330
9.10 9.112420 3.50 73.466670 146.0
9.09 9.103390 3.50 72.483330 140.666670
9.08 9.093910 3.50 71.50 135.333330
9.07 9.084420 3.50 73.160 130.0
9.06 9.07540 3.50 74.820 132.777780
9.05 9.066370 3.50 76.480 135.555560
9.04 9.048310 3.50 78.140 138.333330
9.03 9.039280 3.50 79.80 141.111110
9.02 9.030250 3.516670 79.683330 143.888890
9.01 9.021220 3.533330 79.566670 146.666670
9.00 9.012190 3.550 79.450 152.666670
8.99 9.003160 3.566670 79.333330 158.666670
8.98 8.994130 3.583330 79.216670 164.666670
8.97 8.98510 3.60 79.10 170.666670
8.96 8.976070 3.60 77.740 176.666670
8.95 8.967040 3.60 76.380 164.666670
8.94 8.958010 3.60 75.020 152.666670
8.93 8.939950 3.60 73.660 140.666670
8.92 8.930930 3.60 72.30 128.666670
8.91 8.92190 3.60 72.683330 116.666670
8.90 8.912870 3.60 73.066670 122.777780
8.89 8.903840 3.60 73.450 128.888890
8.88 8.894810 3.60 73.833330 135.0
8.87 8.885780 3.60 74.216670 141.111110
8.86 8.876750 3.60 74.60 147.222220
8.85 8.867720 3.60 75.120 153.333330
8.84 8.849660 3.60 75.640 152.0
8.83 8.840630 3.60 76.160 150.666670
8.82 8.83160 3.60 76.680 149.333330
8.81 8.822570 3.60 77.20 148.0
8.80 8.813540 3.616670 76.733330 146.666670
8.79 8.804510 3.633330 76.266670 138.888890
8.78 8.795490 3.650 75.80 131.111110
8.77 8.786460 3.666670 75.333330 123.333330
8.76 8.777430 3.683330 74.866670 115.555560
8.75 8.759370 3.70 74.40 107.777780
8.74 8.750340 3.70 75.020 100.0
8.73 8.741310 3.70 75.640 112.0
8.72 8.732280 3.70 76.260 124.0
8.71 8.723250 3.70 76.880 136.0
8.70 8.714220 3.70 77.50 148.0
8.69 8.705190 3.70 77.50 160.0
8.68 8.696160 3.70 77.50 164.444440
8.67 8.687130 3.70 77.50 168.888890
8.66 8.668170 3.70 77.50 173.333330
8.65 8.659140 3.70 77.50 177.777780
8.64 8.650110 3.716670 77.316670 182.222220
8.63 8.641080 3.733330 77.133330 186.666670
8.62 8.632050 3.750 76.950 176.0
8.61 8.623020 3.766670 76.766670 165.333330
8.60 8.6140 3.783330 76.583330 154.666670
8.59 8.604970 3.80 76.40 144.0
8.58 8.595940 3.760 76.30 133.333330
8.57 8.586910 3.720 76.20 135.0
8.56 8.577880 3.680 76.10 136.666670
8.55 8.558920 3.640 76.0 138.333330
8.54 8.549890 3.60 75.90 140.0
8.53 8.540860 3.650 76.433330 141.666670
8.52 8.531830 3.70 76.966670 143.333330
8.51 8.52280 3.750 77.50 146.924730
8.50 8.513770 3.80 78.033330 150.516130
8.49 8.504740 3.850 78.566670 154.107530
8.48 8.495260 3.90 79.10 157.698920
8.47 8.485780 3.920 79.080 161.290320
8.46 8.476750 3.940 79.060 158.853050
8.45 8.467720 3.960 79.040 156.415770
8.44 8.448760 3.980 79.020 153.978490
8.43 8.439730 4.0 79.0 151.541220
8.42 8.43070 3.983330 78.166670 149.103940
8.41 8.421220 3.966670 77.333330 146.666670
8.40 8.411740 3.950 76.50 149.333330
8.39 8.402710 3.933330 75.666670 152.0
8.38 8.393680 3.916670 74.833330 154.666670
8.37 8.38420 3.90 74.0 157.333330
8.36 8.374720 3.980 74.380 160.0
8.35 8.365690 4.060 74.760 164.444440
8.34 8.356660 4.140 75.140 168.888890
8.33 8.347630 4.220 75.520 173.333330
8.32 8.33860 4.30 75.90 177.777780
8.31 8.319640 4.233330 76.183330 182.222220
8.30 8.310610 4.166670 76.466670 186.666670
8.29 8.301580 4.10 76.750 180.0
8.28 8.29210 4.033330 77.033330 173.333330
8.27 8.282620 3.966670 77.316670 166.666670
8.26 8.273590 3.90 77.60 160.0
8.25 8.264560 3.940 77.30 153.333330
8.24 8.255080 3.980 77.0 155.0
8.23 8.24560 4.020 76.70 156.666670
8.22 8.236570 4.060 76.40 158.333330
8.21 8.227540 4.10 76.10 160.0
8.20 8.209480 4.116670 75.60 161.666670
8.19 8.20 4.133330 75.10 163.333330
8.18 8.190520 4.150 74.60 155.333330
8.17 8.181490 4.166670 74.10 147.333330
8.16 8.172460 4.183330 73.60 139.333330
8.15 8.163430 4.20 73.10 131.333330
8.14 8.15440 4.20 73.70 123.333330
8.13 8.145370 4.20 74.30 126.666670
8.12 8.136340 4.20 74.90 130.0
8.11 8.118280 4.20 75.50 133.333330
8.10 8.109710 4.20 76.10 136.666670
8.09 8.101130 4.20 76.116670 140.0
8.08 8.09210 4.20 76.133330 143.333330
8.07 8.083070 4.20 76.150 144.0
8.06 8.074040 4.20 76.166670 144.666670
8.05 8.065010 4.20 76.183330 145.333330
8.04 8.056430 4.20 76.20 146.0
8.03 8.047860 4.20 75.740 146.666670
8.02 8.02980 4.20 75.280 148.0
8.01 8.020770 4.20 74.820 149.333330
8.00 8.011740 4.20 74.360 150.666670
7.99 8.002710 4.20 73.90 152.0
7.98 7.993680 4.166670 74.233330 153.333330
7.97 7.984650 4.133330 74.566670 156.111110
7.96 7.975620 4.10 74.90 158.888890
7.95 7.966590 4.066670 75.233330 161.666670
7.94 7.957560 4.033330 75.566670 164.444440
7.93 7.93950 4.0 75.90 167.222220
7.92 7.930470 4.0 75.740 170.0
7.91 7.921440 4.0 75.580 176.666670
7.90 7.912420 4.0 75.420 183.333330
7.89 7.903390 4.0 75.260 190.0
7.88 7.894360 4.0 75.10 196.666670
7.87 7.885330 3.983330 74.80 203.333330
7.86 7.87630 3.966670 74.50 194.444440
7.85 7.867270 3.950 74.20 185.555560
7.84 7.849210 3.933330 73.90 176.666670
7.83 7.840180 3.916670 73.60 167.777780
7.82 7.831150 3.90 73.30 158.888890
7.81 7.822120 3.920 73.360 150.0
7.80 7.813090 3.940 73.420 160.0
7.79 7.804060 3.960 73.480 170.0
7.78 7.795030 3.980 73.540 180.0
7.77 7.7860 4.0 73.60 190.0
7.76 7.776980 4.020 73.340 200.0
7.75 7.758920 4.040 73.080 189.444440
7.74 7.749890 4.060 72.820 178.888890
7.73 7.740860 4.080 72.560 168.333330
7.72 7.731830 4.10 72.30 157.777780
7.71 7.72280 4.10 72.916670 147.222220
7.70 7.713770 4.10 73.533330 136.666670
7.69 7.704740 4.10 74.150 140.666670
