~VERSION INFORMATION SECTION
VERS. 2.0 : CWLS LAS-VERSION 2.0
WRAP. NO : One line per depth step
~WELL INFORMATION SECTION
# MNEM.UNIT VALUE/NAME DESCRIPTION
#-------- -------------- ---------------------
STRT.Metres 15 : Start
STOP.Metres 0.50 : Stop
STEP.Metres -0.01 : Step
NULL.  -999.25 :NULL VALUE
DATE. 2025-50-11 : DATE
~CURVE INFORMATION SECTION
DEPTH.Metres : 0 Depth
Depth. : 1 Depth
Incline.Deg : 2 Incline
Azimuth.Deg : 3 Azimuth
GR.CPS : 4 GR
~PARAMETER INFORMATION SECTION
~OTHER
#-------------------------------------------------
#Produced By: GeoVista Logger - Version 7.1.107.0
Natural Gamma Sonde - 6447
Verticality Sonde - 6292
#-------------------------------------------------
~ASCII LOG DATA
15.00 -999.25 -999.25 -999.25 -999.25
14.99 -999.25 -999.25 -999.25 -999.25
14.98 14.999550 0.650 9.88750 -999.25
14.97 14.990520 1.30 19.7750 -999.25
14.96 14.981490 1.950 29.66250 -999.25
14.95 14.972460 2.60 39.550 -999.25
14.94 14.963430 3.250 49.43750 -999.25
14.93 14.95440 3.90 59.3250 -999.25
14.92 14.940860 4.550 69.21250 -999.25
14.91 14.927310 5.20 79.10 -999.25
14.90 14.918280 5.111110 78.744440 -999.25
14.89 14.909260 5.022220 78.388890 -999.25
14.88 14.900230 4.933330 78.033330 -999.25
14.87 14.89090 4.844440 77.677780 -999.25
14.86 14.881570 4.755560 77.322220 -999.25
14.85 14.872230 4.666670 76.966670 -999.25
14.84 14.863210 4.577780 76.611110 -999.25
14.83 14.854180 4.488890 76.255560 -999.25
14.82 14.845150 4.40 75.90 -999.25
14.81 14.831150 4.4250 75.71250 -999.25
14.80 14.817160 4.450 75.5250 -999.25
14.79 14.808130 4.4750 75.33750 -999.25
14.78 14.79910 4.50 75.150 -999.25
14.77 14.790070 4.5250 74.96250 -999.25
14.76 14.781040 4.550 74.7750 -999.25
14.75 14.772010 4.5750 74.58750 -999.25
14.74 14.762980 4.60 74.40 -999.25
14.73 14.753650 4.6250 75.31250 -999.25
14.72 14.744320 4.650 76.2250 -999.25
14.71 14.734990 4.6750 77.13750 -999.25
14.70 14.721440 4.70 78.050 71.9970
14.69 14.70790 4.7250 78.96250 143.994010
14.68 14.698870 4.750 79.8750 130.495510
14.67 14.689840 4.7750 80.78750 116.9970
14.66 14.680810 4.80 81.70 103.49850
14.65 14.671480 4.81250 81.6250 90.0
14.64 14.662150 4.8250 81.550 105.0
14.63 14.652820 4.83750 81.4750 120.0
14.62 14.643490 4.850 81.40 135.0
14.61 14.634160 4.86250 81.3250 150.0
14.60 14.624830 4.8750 81.250 165.0
14.59 14.61520 4.88750 81.1750 180.0
14.58 14.605570 4.90 81.10 173.750
14.57 14.595940 4.91250 81.31250 167.50
14.56 14.586310 4.9250 81.5250 161.250
14.55 14.576670 4.93750 81.73750 155.0
14.54 14.567040 4.950 81.950 148.750
14.53 14.553050 4.96250 82.16250 142.50
14.52 14.539050 4.9750 82.3750 136.250
14.51 14.529720 4.98750 82.58750 130.0
14.50 14.520390 5.0 82.80 133.333330
14.49 14.511060 5.011110 82.322220 136.666670
14.48 14.501730 5.022220 81.844440 140.0
14.47 14.49240 5.033330 81.366670 143.333330
14.46 14.483070 5.044440 80.888890 146.666670
14.45 14.474340 5.055560 80.411110 150.0
14.44 14.465610 5.066670 79.933330 153.333330
14.43 14.456880 5.077780 79.455560 156.666670
14.42 14.443340 5.088890 78.977780 155.0
14.41 14.42980 5.10 78.50 153.333330
14.40 14.420770 5.0750 78.73750 151.666670
14.39 14.411740 5.050 78.9750 150.0
14.38 14.402710 5.0250 79.21250 148.333330
14.37 14.393680 5.0 79.450 146.666670
14.36 14.384650 4.9750 79.68750 145.0
14.35 14.375620 4.950 79.9250 143.333330
14.34 14.362080 4.9250 80.16250 147.083330
14.33 14.348530 4.90 80.40 150.833330
14.32 14.33950 4.877780 80.844440 154.583330
14.31 14.330470 4.855560 81.288890 158.333330
14.30 14.321440 4.833330 81.733330 162.083330
14.29 14.312420 4.811110 82.177780 165.833330
14.28 14.303390 4.788890 82.622220 169.583330
14.27 14.294360 4.766670 83.066670 173.333330
14.26 14.280810 4.744440 83.511110 167.916670
14.25 14.267270 4.722220 83.955560 162.50
14.24 14.258240 4.70 84.40 157.083330
14.23 14.249210 4.68750 83.80 151.666670
14.22 14.240180 4.6750 83.20 146.250
14.21 14.231150 4.66250 82.60 140.833330
14.20 14.222120 4.650 82.0 135.416670
14.19 14.213090 4.63750 81.40 130.0
14.18 14.203760 4.6250 80.80 132.916670
14.17 14.194430 4.61250 80.20 135.833330
14.16 14.18510 4.60 79.60 138.750
14.15 14.171560 4.550 79.30 141.666670
14.14 14.158010 4.50 79.0 144.583330
14.13 14.148680 4.450 78.70 147.50
14.12 14.139350 4.40 78.40 150.416670
14.11 14.130020 4.350 78.10 153.333330
14.10 14.120990 4.30 77.80 155.0
14.09 14.111960 4.250 77.50 156.666670
14.08 14.102930 4.20 77.20 158.333330
14.07 14.093910 4.250 77.50 160.0
14.06 14.084880 4.30 77.80 161.666670
14.05 14.075850 4.350 78.10 163.333330
14.04 14.06230 4.40 78.40 165.0
14.03 14.048760 4.450 78.70 166.666670
14.02 14.039730 4.50 79.0 166.666670
14.01 14.03070 4.550 79.30 166.666670
14.00 14.021670 4.60 79.60 166.666670
13.99 14.012640 4.550 79.9250 166.666670
13.98 14.003610 4.50 80.250 166.666670
13.97 13.994580 4.450 80.5750 166.666670
13.96 13.985250 4.40 80.90 166.666670
13.95 13.975920 4.350 81.2250 166.666670
13.94 13.966590 4.30 81.550 166.666670
13.93 13.953050 4.250 81.8750 167.50
13.92 13.93950 4.20 82.20 168.333330
13.91 13.930170 4.2250 81.9250 169.166670
13.90 13.920840 4.250 81.650 170.0
13.89 13.911510 4.2750 81.3750 170.833330
13.88 13.902180 4.30 81.10 171.666670
13.87 13.892850 4.3250 80.8250 172.50
13.86 13.883520 4.350 80.550 173.333330
13.85 13.874490 4.3750 80.2750 167.083330
13.84 13.865460 4.40 80.0 160.833330
13.83 13.856430 4.411110 79.655560 154.583330
13.82 13.842890 4.422220 79.311110 148.333330
13.81 13.829350 4.433330 78.966670 142.083330
13.80 13.820320 4.444440 78.622220 135.833330
13.79 13.811290 4.455560 78.277780 129.583330
13.78 13.802260 4.466670 77.933330 123.333330
13.77 13.792930 4.477780 77.588890 124.074070
13.76 13.78360 4.488890 77.244440 124.814810
13.75 13.774270 4.50 76.90 125.555560
13.74 13.765240 4.51250 77.450 126.29630
13.73 13.756210 4.5250 78.0 127.037040
13.72 13.747180 4.53750 78.550 127.777780
13.71 13.733180 4.550 79.10 128.518520
13.70 13.719190 4.56250 79.650 129.259260
13.69 13.710160 4.5750 80.20 130.0
13.68 13.701130 4.58750 80.750 135.416670
13.67 13.69210 4.60 81.30 140.833330
13.66 13.683070 4.60 81.3250 146.250
13.65 13.674040 4.60 81.350 151.666670
13.64 13.665010 4.60 81.3750 157.083330
13.63 13.655980 4.60 81.40 162.50
13.62 13.646950 4.60 81.4250 167.916670
13.61 13.637920 4.60 81.450 173.333330
13.60 13.623930 4.60 81.4750 166.666670
13.59 13.609930 4.60 81.50 160.0
13.58 13.60090 4.61250 81.950 153.333330
13.57 13.591870 4.6250 82.40 146.666670
13.56 13.582840 4.63750 82.850 140.0
13.55 13.573810 4.650 83.30 133.333330
13.54 13.564790 4.66250 83.750 126.666670
13.53 13.555760 4.6750 84.20 120.0
13.52 13.542210 4.68750 84.650 122.741940
13.51 13.528670 4.70 85.10 125.483870
13.50 13.519340 4.633330 84.522220 128.225810
13.49 13.510010 4.566670 83.944440 130.967740
13.48 13.500680 4.50 83.366670 133.709680
13.47 13.491050 4.433330 82.788890 136.451610
13.46 13.481410 4.366670 82.211110 139.193550
13.45 13.471780 4.30 81.633330 141.935480
13.44 13.462750 4.233330 81.055560 144.610220
13.43 13.453720 4.166670 80.477780 147.284950
13.42 13.44470 4.10 79.90 149.959680
13.41 13.43160 4.11250 80.13750 152.634410
13.40 13.418510 4.1250 80.3750 155.309140
13.39 13.409480 4.13750 80.61250 157.983870
13.38 13.400450 4.150 80.850 160.65860
13.37 13.391420 4.16250 81.08750 163.333330
13.36 13.382390 4.1750 81.3250 162.222220
13.35 13.373360 4.18750 81.56250 161.111110
13.34 13.364330 4.20 81.80 160.0
13.33 13.350790 4.18750 82.33750 158.888890
13.32 13.337250 4.1750 82.8750 157.777780
13.31 13.328220 4.16250 83.41250 156.666670
13.30 13.319190 4.150 83.950 155.555560
13.29 13.310160 4.13750 84.48750 154.444440
13.28 13.301130 4.1250 85.0250 153.333330
13.27 13.29210 4.11250 85.56250 150.0
13.26 13.283070 4.10 86.10 146.666670
13.25 13.274040 4.0750 85.51250 143.333330
13.24 13.265010 4.050 84.9250 140.0
13.23 13.255980 4.0250 84.33750 136.666670
13.22 13.242440 4.0 83.750 133.333330
13.21 13.228890 3.9750 83.16250 130.0
13.20 13.219860 3.950 82.5750 126.666670
13.19 13.210840 3.9250 81.98750 128.333330
13.18 13.201810 3.90 81.40 130.0
13.17 13.192780 3.9250 81.63750 131.666670
13.16 13.183750 3.950 81.8750 133.333330
13.15 13.174720 3.9750 82.11250 135.0
13.14 13.161170 4.0 82.350 136.666670
13.13 13.147630 4.0250 82.58750 138.333330
13.12 13.13860 4.050 82.8250 140.0
13.11 13.129570 4.0750 83.06250 140.416670
13.10 13.120540 4.10 83.30 140.833330
13.09 13.111510 4.10 82.48750 141.250
13.08 13.102480 4.10 81.6750 141.666670
13.07 13.093450 4.10 80.86250 142.083330
13.06 13.084120 4.10 80.050 142.50
13.05 13.074790 4.10 79.23750 142.916670
13.04 13.065460 4.10 78.4250 143.333330
13.03 13.051920 4.10 77.61250 142.592590
13.02 13.038370 4.10 76.80 141.851850
13.01 13.029040 4.111110 77.677780 141.111110
