~VERSION INFORMATION SECTION
VERS. 2.0 : CWLS LAS-VERSION 2.0
WRAP. NO : One line per depth step
~WELL INFORMATION SECTION
# MNEM.UNIT VALUE/NAME DESCRIPTION
#-------- -------------- ---------------------
STRT.Metres 17 : Start
STOP.Metres 0.38 : Stop
STEP.Metres -0.01 : Step
NULL.  -999.25 :NULL VALUE
DATE. 2025-42-11 : DATE
~CURVE INFORMATION SECTION
DEPTH.Metres : 0 Depth
Depth. : 1 Depth
Incline.Deg : 2 Incline
Azimuth.Deg : 3 Azimuth
GR.CPS : 4 GR
~PARAMETER INFORMATION SECTION
~OTHER
#-------------------------------------------------
#Produced By: GeoVista Logger - Version 7.1.107.0
Natural Gamma Sonde - 6447
Verticality Sonde - 6292
#-------------------------------------------------
~ASCII LOG DATA
# ...
2.20 2.208580 3.0250 68.20 133.333330
2.19 2.197740 3.0 69.0 133.333330
2.18 2.1860 3.0 69.250 133.333330
2.17 2.176070 3.0 69.50 140.0
2.16 2.165240 3.0 69.750 146.666670
2.15 2.15440 3.0 70.0 153.333330
2.14 2.143570 3.0 70.250 162.222220
2.13 2.132730 3.0 70.50 171.111110
2.12 2.12190 2.933330 71.233330 180.0
2.11 2.116030 2.866670 71.966670 157.50
2.10 2.110160 2.80 72.70 135.0
2.09 2.099320 2.8250 70.5250 112.50
2.08 2.088490 2.850 68.350 90.0
2.07 2.077650 2.8750 66.1750 100.740740
2.06 2.066820 2.90 64.0 111.481480
2.05 2.055080 2.916670 64.483330 122.222220
2.04 2.044240 2.933330 64.966670 135.925930
2.03 2.033410 2.950 65.450 149.629630
2.02 2.022570 2.966670 65.933330 163.333330
2.01 2.011740 2.983330 66.416670 159.426520
2.00 2.00090 3.0 66.90 155.519710
1.99 1.995490 2.966670 67.966670 151.61290
1.98 1.990070 2.933330 69.033330 147.876340
1.97 1.979230 2.90 70.10 144.139780
1.96 1.96840 2.8750 69.8250 140.403230
1.95 1.957560 2.850 69.550 136.666670
1.94 1.946730 2.8250 69.2750 154.444440
1.93 1.935890 2.80 69.0 172.222220
1.92 1.925060 2.80 70.766670 190.0
1.91 1.914220 2.80 72.533330 170.0
1.90 1.902480 2.80 74.30 150.0
1.89 1.891650 2.80 71.833330 130.0
1.88 1.886230 2.80 69.366670 135.0
1.87 1.880810 2.80 66.90 140.0
1.86 1.869980 2.766670 69.066670 145.0
1.85 1.859140 2.733330 71.233330 150.0
1.84 1.848310 2.70 73.40 137.777780
1.83 1.837470 2.70 72.1250 125.555560
1.82 1.826640 2.70 70.850 113.333330
1.81 1.81580 2.70 69.5750 118.888890
1.80 1.804970 2.70 68.30 124.444440
1.79 1.793230 2.666670 68.966670 130.0
1.78 1.782390 2.633330 69.633330 138.888890
1.77 1.771560 2.60 70.30 147.777780
1.76 1.766140 2.60 70.60 156.666670
1.75 1.760720 2.60 70.90 157.50
1.74 1.749890 2.60 71.20 158.333330
1.73 1.739050 2.60 71.271430 159.166670
1.72 1.728220 2.60 71.342860 160.0
1.71 1.717380 2.60 71.414290 153.333330
1.70 1.706550 2.60 71.485710 146.666670
1.69 1.696610 2.60 71.557140 140.0
1.68 1.685780 2.60 71.628570 136.666670
1.67 1.674940 2.60 71.70 133.333330
1.66 1.664110 2.60 72.233330 130.0
1.65 1.652370 2.60 72.766670 131.666670
1.64 1.642440 2.60 73.30 133.333330
1.63 1.63160 2.633330 71.366670 135.0
1.62 1.626190 2.666670 69.433330 136.666670
1.61 1.620770 2.70 67.50 152.222220
1.60 1.609030 2.70 68.833330 167.777780
1.59 1.59910 2.70 70.166670 183.333330
1.58 1.588260 2.70 71.50 167.777780
1.57 1.577430 2.70 71.342860 152.222220
1.56 1.566590 2.70 71.185710 136.666670
1.55 1.555760 2.70 71.028570 130.505050
1.54 1.544920 2.70 70.871430 124.343430
1.53 1.534090 2.70 70.714290 118.181820
1.52 1.523250 2.70 70.557140 121.53110
1.51 1.511510 2.70 70.40 124.880380
1.50 1.506090 2.666670 69.533330 128.229670
1.49 1.500680 2.633330 68.666670 131.578950
1.48 1.489840 2.60 67.80 162.322470
1.47 1.479010 2.5750 70.5250 193.0660
1.46 1.468170 2.550 73.250 223.809520
1.45 1.457340 2.5250 75.9750 178.835980
1.44 1.44650 2.50 78.70 133.862430
1.43 1.435670 2.566670 74.766670 88.888890
1.42 1.424830 2.633330 70.833330 92.592590
1.41 1.4140 2.70 66.90 96.29630
1.40 1.403160 2.70 67.866670 100.0
1.39 1.391420 2.70 68.833330 106.666670
1.38 1.3860 2.70 69.80 113.333330
1.37 1.380590 2.70 71.70 120.0
1.36 1.369750 2.70 73.60 134.166670
1.35 1.358920 2.70 75.50 148.333330
1.34 1.348080 2.7250 75.2250 162.50
1.33 1.337250 2.750 74.950 176.666670
1.32 1.326410 2.7750 74.6750 161.111110
1.31 1.315580 2.80 74.40 145.555560
1.30 1.303840 2.666670 73.433330 130.0
1.29 1.2930 2.533330 72.466670 133.333330
1.28 1.284880 2.40 71.50 136.666670
1.27 1.27540 2.466670 78.066670 140.0
1.26 1.263930 2.533330 84.633330 148.888890
1.25 -999.25 2.60 91.20 157.777780
1.24 -999.25 2.60 85.90 166.666670
1.23 -999.25 2.60 80.60 164.166670
1.22 -999.25 2.60 75.30 161.666670
1.21 -999.25 2.5250 76.650 159.166670
1.20 -999.25 2.450 78.0 156.666670
1.19 -999.25 2.3750 79.350 148.888890
1.18 -999.25 2.30 80.70 141.111110
1.17 -999.25 2.366670 77.566670 133.333330
1.16 -999.25 2.433330 74.433330 141.111110
1.15 -999.25 2.50 71.30 148.888890
1.14 -999.25 2.50 74.066670 156.666670
1.13 -999.25 2.50 76.833330 155.833330
1.12 -999.25 2.50 79.60 155.0
1.11 -999.25 2.366670 79.533330 154.166670
1.10 -999.25 2.233330 79.466670 153.333330
1.09 -999.25 2.10 79.40 165.858590
1.08 -999.25 2.0 78.40 178.383840
1.07 -999.25 1.90 77.40 190.909090
1.06 -999.25 1.80 76.40 174.891770
1.05 -999.25 1.70 75.40 158.874460
1.04 -999.25 1.90 78.233330 142.857140
1.03 -999.25 2.10 81.066670 135.978840
1.02 -999.25 2.30 83.90 129.100530
1.01 -999.25 2.30 84.60 122.222220
1.00 -999.25 2.30 85.30 123.333330
0.99 -999.25 2.30 86.0 124.444440
0.98 -999.25 2.30 87.950 125.555560
0.97 -999.25 2.30 89.90 126.666670
0.96 -999.25 2.30 87.40 137.777780
0.95 -999.25 -999.25 -999.25 148.888890
0.94 -999.25 -999.25 -999.25 160.0
0.93 -999.25 -999.25 -999.25 143.03030
0.92 -999.25 -999.25 -999.25 126.060610
0.91 -999.25 -999.25 -999.25 109.090910
0.90 -999.25 -999.25 -999.25 142.902710
0.89 -999.25 -999.25 -999.25 176.714510
0.88 -999.25 -999.25 -999.25 210.526320
0.87 -999.25 -999.25 -999.25 193.728070
0.86 -999.25 -999.25 -999.25 176.929820
0.85 -999.25 -999.25 -999.25 160.131580
0.84 -999.25 -999.25 -999.25 143.333330
0.83 -999.25 -999.25 -999.25 146.666670
0.82 -999.25 -999.25 -999.25 150.0
0.81 -999.25 -999.25 -999.25 153.333330
0.80 -999.25 -999.25 -999.25 146.308240
0.79 -999.25 -999.25 -999.25 139.283150
0.78 -999.25 -999.25 -999.25 132.258060
0.77 -999.25 -999.25 -999.25 139.283150
0.76 -999.25 -999.25 -999.25 146.308240
0.75 -999.25 -999.25 -999.25 153.333330
0.74 -999.25 -999.25 -999.25 153.333330
0.73 -999.25 -999.25 -999.25 153.333330
0.72 -999.25 -999.25 -999.25 153.333330
0.71 -999.25 -999.25 -999.25 153.333330
0.70 -999.25 -999.25 -999.25 150.0
0.69 -999.25 -999.25 -999.25 146.666670
0.68 -999.25 -999.25 -999.25 143.333330
0.67 -999.25 -999.25 -999.25 148.888890
0.66 -999.25 -999.25 -999.25 154.444440
0.65 -999.25 -999.25 -999.25 160.0
0.64 -999.25 -999.25 -999.25 160.0
0.63 -999.25 -999.25 -999.25 160.0
0.62 -999.25 -999.25 -999.25 160.0
0.61 -999.25 -999.25 -999.25 146.666670
0.60 -999.25 -999.25 -999.25 133.333330
0.59 -999.25 -999.25 -999.25 120.0
0.58 -999.25 -999.25 -999.25 106.666670
0.57 -999.25 -999.25 -999.25 110.0
0.56 -999.25 -999.25 -999.25 113.333330
0.55 -999.25 -999.25 -999.25 116.666670
0.54 -999.25 -999.25 -999.25 130.0
0.53 -999.25 -999.25 -999.25 143.333330
0.52 -999.25 -999.25 -999.25 156.666670
0.51 -999.25 -999.25 -999.25 150.0
0.50 -999.25 -999.25 -999.25 143.333330
0.49 -999.25 -999.25 -999.25 136.666670
0.48 -999.25 -999.25 -999.25 130.0
0.47 -999.25 -999.25 -999.25 128.888890
0.46 -999.25 -999.25 -999.25 127.777780
0.45 -999.25 -999.25 -999.25 126.666670
0.44 -999.25 -999.25 -999.25 124.444440
0.43 -999.25 -999.25 -999.25 122.222220
0.42 -999.25 -999.25 -999.25 120.0
0.41 -999.25 -999.25 -999.25 115.0
0.40 -999.25 -999.25 -999.25 110.0
0.39 -999.25 -999.25 -999.25 150.0
0.38 -999.25 -999.25 -999.25 160.0
