~VERSION INFORMATION SECTION
VERS. 2.0 : CWLS LAS-VERSION 2.0
WRAP. NO : One line per depth step
~WELL INFORMATION SECTION
# MNEM.UNIT VALUE/NAME DESCRIPTION
#-------- -------------- ---------------------
STRT.Metres 17 : Start
STOP.Metres 0.38 : Stop
STEP.Metres -0.01 : Step
NULL.  -999.25 :NULL VALUE
DATE. 2025-42-11 : DATE
~CURVE INFORMATION SECTION
DEPTH.Metres : 0 Depth
Depth. : 1 Depth
Incline.Deg : 2 Incline
Azimuth.Deg : 3 Azimuth
GR.CPS : 4 GR
~PARAMETER INFORMATION SECTION
~OTHER
#-------------------------------------------------
#Produced By: GeoVista Logger - Version 7.1.107.0
Natural Gamma Sonde - 6447
Verticality Sonde - 6292
#-------------------------------------------------
~ASCII LOG DATA
# ...
12.86 12.869530 4.133330 83.60 128.709680
12.85 12.858690 4.10 84.60 120.0
12.84 12.848760 4.133330 83.70 128.888890
12.83 12.837920 4.166670 82.80 137.777780
12.82 12.827090 4.20 81.90 146.666670
12.81 12.816250 4.20 81.466670 136.666670
12.80 12.805420 4.20 81.033330 126.666670
12.79 12.794580 4.20 80.60 116.666670
12.78 12.783750 4.20 81.266670 131.111110
12.77 12.773810 4.20 81.933330 145.555560
12.76 12.762980 4.20 82.60 160.0
12.75 12.752140 4.20 83.3250 144.444440
12.74 12.741310 4.20 84.050 128.888890
12.73 12.735890 4.20 84.7750 113.333330
12.72 12.730470 4.20 85.50 123.333330
12.71 12.719640 4.20 83.933330 133.333330
12.70 12.70880 4.20 82.366670 143.333330
12.69 12.697970 4.20 80.80 153.333330
12.68 12.688040 4.033330 80.10 153.888890
12.67 12.67720 3.866670 79.40 154.444440
12.66 12.666370 3.70 78.70 155.0
12.65 12.655530 3.833330 80.933330 140.0
12.64 12.64470 3.966670 83.166670 125.0
12.63 12.633860 4.10 85.40 110.0
12.62 12.623930 4.066670 84.60 136.666670
12.61 12.613090 4.033330 83.80 163.333330
12.60 12.602260 4.0 83.0 190.0
12.59 12.591420 4.0 82.50 183.333330
12.58 12.581490 4.0 82.0 176.666670
12.57 12.570650 4.0 81.50 170.0
12.56 12.565690 4.0 81.0 166.666670
12.55 12.560720 4.0 81.266670 163.333330
12.54 12.549890 4.0 81.533330 160.0
12.53 12.539050 4.0 81.80 163.333330
12.52 12.529120 4.0 81.50 166.666670
12.51 12.518280 4.0 81.20 170.0
12.50 12.508350 4.0 80.90 173.333330
12.49 12.497520 4.033330 81.033330 154.444440
12.48 12.486680 4.066670 81.166670 135.555560
12.47 12.476750 4.10 81.30 116.666670
12.46 12.465910 4.066670 81.333330 122.222220
12.45 12.455980 4.033330 81.366670 127.777780
12.44 12.445150 4.0 81.40 133.333330
12.43 12.434310 4.0 80.6250 135.555560
12.42 12.424380 4.0 79.850 137.777780
12.41 12.413540 4.0 79.0750 140.0
12.40 12.403610 4.0 78.30 140.0
12.39 12.392780 4.0 78.80 140.0
12.38 12.381940 4.0 79.30 140.0
12.37 12.372010 4.0 79.80 144.444440
12.36 12.361170 4.0 80.566670 148.888890
12.35 12.351240 4.0 81.333330 153.333330
12.34 12.345820 4.0 82.10 137.580650
12.33 12.340410 4.0 81.466670 121.827960
12.32 12.329570 4.0 80.833330 106.075270
12.31 12.319640 4.0 80.20 90.322580
12.30 12.30880 4.0 79.633330 111.326160
12.29 12.298870 4.0 79.066670 132.329750
12.28 12.288040 4.0 78.50 153.333330
12.27 12.27720 4.0 78.728570 140.0
12.26 12.267270 4.0 78.957140 126.666670
12.25 12.256430 4.0 79.185710 113.333330
12.24 12.24650 4.0 79.414290 133.333330
12.23 12.235670 4.0 79.642860 153.333330
12.22 12.224830 4.0 79.871430 173.333330
12.21 12.21490 4.0 80.10 160.0
12.20 12.204060 4.0 81.533330 146.666670
12.19 12.194130 4.0 82.966670 133.333330
12.18 12.18330 4.0 84.40 151.111110
12.17 12.172460 4.0 81.80 168.888890
12.16 12.162530 4.0 79.20 186.666670
12.15 12.151690 4.0 76.60 179.166670
12.14 12.140860 3.966670 76.733330 171.666670
12.13 12.130930 3.933330 76.866670 164.166670
12.12 12.120090 3.90 77.0 156.666670
12.11 12.115120 3.866670 79.0 160.0
12.10 12.110160 3.833330 81.0 163.333330
12.09 12.099320 3.80 83.0 166.666670
12.08 12.088490 3.833330 82.866670 166.666670
12.07 12.078560 3.866670 82.733330 166.666670
12.06 12.067720 3.90 82.60 166.666670
12.05 12.056880 3.9250 81.850 151.111110
12.04 12.046950 3.950 81.10 135.555560
12.03 12.036120 3.9750 80.350 120.0
12.02 12.025280 4.0 79.60 117.777780
12.01 12.014450 4.0 78.866670 115.555560
12.00 12.004510 4.0 78.133330 113.333330
11.99 11.993680 4.0 77.40 130.0
11.98 11.982840 3.966670 76.90 146.666670
11.97 11.972010 3.933330 76.40 163.333330
11.96 11.962080 3.90 75.90 180.0
11.95 11.951240 3.966670 76.80 167.777780
11.94 11.940410 4.033330 77.70 155.555560
11.93 11.935440 4.10 78.60 143.333330
11.92 11.930470 4.066670 79.50 141.111110
11.91 11.919640 4.033330 80.40 138.888890
11.90 11.90880 4.0 81.30 136.666670
11.89 11.898870 4.0 80.266670 143.492060
11.88 11.888040 4.0 79.233330 150.317460
11.87 11.87720 4.0 78.20 157.142860
11.86 11.866370 4.0 77.066670 155.952380
11.85 11.856430 4.0 75.933330 154.76190
11.84 11.84560 4.0 74.80 153.571430
11.83 11.834760 4.0 75.7250 152.380950
11.82 11.823930 4.0 76.650 131.216930
11.81 11.813090 4.0 77.5750 110.052910
11.80 11.803160 4.0 78.50 88.888890
11.79 11.792330 4.0 79.333330 123.70370
11.78 11.781490 4.0 80.166670 158.518520
11.77 11.776070 4.0 81.0 193.333330
11.76 11.770650 4.0 80.066670 174.444440
11.75 11.759820 4.0 79.133330 155.555560
11.74 11.748980 4.0 78.20 136.666670
11.73 11.738150 4.0 78.033330 138.422940
11.72 11.727310 4.0 77.866670 140.179210
11.71 11.716480 4.0 77.70 141.935480
11.70 11.705640 3.966670 78.133330 140.179210
11.69 11.694810 3.933330 78.566670 138.422940
11.68 11.683970 3.90 79.0 136.666670
11.67 11.673140 3.933330 79.20 140.833330
11.66 11.66230 3.966670 79.40 145.0
11.65 11.651470 4.0 79.60 149.166670
11.64 11.641530 4.0 79.50 153.333330
11.63 11.636120 4.0 79.40 158.888890
11.62 11.63070 4.0 79.30 164.444440
11.61 11.619860 4.0 79.20 170.0
11.60 11.609030 4.0 78.90 153.333330
11.59 11.598190 4.0 78.60 136.666670
11.58 11.587360 4.0 78.30 120.0
11.57 11.577430 4.0 78.333330 117.777780
11.56 11.566590 4.0 78.366670 115.555560
11.55 11.555760 4.0 78.40 113.333330
11.54 11.544920 4.0 78.50 123.333330
11.53 11.534090 4.0 78.60 133.333330
11.52 11.524150 4.0 78.70 143.333330
11.51 11.513320 4.0 79.133330 151.111110
11.50 11.502480 4.0 79.566670 158.888890
11.49 11.491650 4.0 80.0 166.666670
11.48 11.486230 3.9750 78.90 161.111110
11.47 11.480810 3.950 77.80 155.555560
11.46 11.472910 3.9250 76.70 150.0
11.45 11.465010 3.90 75.60 169.166670
11.44 11.449210 3.933330 75.50 188.333330
11.43 11.438370 3.966670 75.40 207.50
11.42 11.427540 4.0 75.30 226.666670
11.41 11.417610 4.0 75.433330 210.0
11.40 11.406770 4.0 75.566670 193.333330
11.39 11.395940 4.0 75.70 176.666670
11.38 11.3860 4.0 76.50 157.777780
11.37 11.375170 4.0 77.30 138.888890
11.36 11.364330 4.0 78.10 120.0
11.35 11.35350 4.0 77.70 124.444440
11.34 11.342660 4.0 77.30 128.888890
11.33 11.332730 4.0 76.90 133.333330
11.32 11.32190 4.0250 76.650 143.333330
11.31 11.311060 4.050 76.40 153.333330
11.30 11.300230 4.0750 76.150 163.333330
11.29 11.295260 4.10 75.90 153.333330
11.28 11.290290 4.066670 76.90 143.333330
11.27 11.279460 4.033330 77.90 133.333330
11.26 11.268620 4.0 78.90 146.666670
11.25 11.257790 4.0 79.30 160.0
11.24 11.246950 4.0 79.70 173.333330
11.23 11.237020 4.0 80.10 167.50
11.22 11.226190 4.033330 77.833330 161.666670
11.21 11.215350 4.066670 75.566670 155.833330
11.20 11.204510 4.10 73.30 150.0
11.19 11.194580 4.10 74.433330 150.0
11.18 11.183750 4.10 75.566670 150.0
11.17 11.172910 4.10 76.70 150.0
11.16 11.162080 4.10 77.0250 142.222220
11.15 11.151240 4.10 77.350 134.444440
11.14 11.141310 4.10 77.6750 126.666670
11.13 11.135890 4.10 78.0 130.6810
11.12 11.130470 4.10 77.033330 134.695340
11.11 11.119640 4.10 76.066670 138.709680
11.10 11.10880 4.10 75.10 149.139780
11.09 11.097970 4.10 75.066670 159.569890
11.08 11.087130 4.10 75.033330 170.0
11.07 11.07630 4.10 75.0 180.0
11.06 11.065460 4.10 74.966670 190.0
11.05 11.055530 4.10 74.933330 200.0
11.04 11.04470 4.10 74.90 188.333330
11.03 11.033860 4.10 74.70 176.666670
11.02 11.023020 4.10 74.50 165.0
11.01 11.012190 4.10 74.30 153.333330
11.00 11.001350 4.1250 74.90 151.111110
10.99 10.991420 4.150 75.50 148.888890
10.98 10.9860 4.1750 76.10 146.666670
10.97 10.980590 4.20 76.70 153.333330
10.96 10.969750 4.166670 75.966670 160.0
10.95 10.958920 4.133330 75.233330 166.666670
10.94 10.948080 4.10 74.50 166.666670
10.93 10.937250 4.133330 74.633330 166.666670
10.92 10.926410 4.166670 74.766670 166.666670
10.91 10.915580 4.20 74.90 161.111110
10.90 10.904740 4.20 75.633330 155.555560
10.89 10.893910 4.20 76.366670 150.0
10.88 10.883970 4.20 77.10 152.50
10.87 10.873140 4.20 76.533330 155.0
10.86 10.86230 4.20 75.966670 157.50
10.85 10.851470 4.20 75.40 160.0
10.84 10.846050 4.20 75.1750 173.333330
10.83 10.840630 4.20 74.950 186.666670
10.82 10.82980 4.20 74.7250 200.0
10.81 10.819860 4.20 74.50 196.666670
10.80 10.809030 4.166670 74.733330 193.333330
