~VERSION INFORMATION SECTION
VERS. 2.0 : CWLS LAS-VERSION 2.0
WRAP. NO : One line per depth step
~WELL INFORMATION SECTION
# MNEM.UNIT VALUE/NAME DESCRIPTION
#-------- -------------- ---------------------
STRT.Metres 15 : Start
STOP.Metres 0.50 : Stop
STEP.Metres -0.01 : Step
NULL.  -999.25 :NULL VALUE
DATE. 2025-50-11 : DATE
~CURVE INFORMATION SECTION
DEPTH.Metres : 0 Depth
Depth. : 1 Depth
Incline.Deg : 2 Incline
Azimuth.Deg : 3 Azimuth
GR.CPS : 4 GR
~PARAMETER INFORMATION SECTION
~OTHER
#-------------------------------------------------
#Produced By: GeoVista Logger - Version 7.1.107.0
Natural Gamma Sonde - 6447
Verticality Sonde - 6292
#-------------------------------------------------
~ASCII LOG DATA
# ...
8.92 8.942660 3.60 73.71250 146.572580
8.91 8.929120 3.60 73.5250 152.096770
8.90 8.920090 3.60 73.33750 157.620970
8.89 8.911060 3.60 73.150 163.145160
8.88 8.902030 3.60 72.96250 168.669350
8.87 8.89330 3.60 72.7750 174.193550
8.86 8.884570 3.60 72.58750 172.419350
8.85 8.875850 3.60 72.40 170.645160
8.84 8.86230 3.60 73.3250 168.870970
8.83 8.848760 3.60 74.250 167.096770
8.82 8.839730 3.60 75.1750 165.322580
8.81 8.83070 3.60 76.10 163.548390
8.80 8.821670 3.60 77.0250 161.774190
8.79 8.812640 3.60 77.950 160.0
8.78 8.803610 3.60 78.8750 162.916670
8.77 8.794580 3.60 79.80 165.833330
8.76 8.781040 3.61250 79.250 168.750
8.75 8.767490 3.6250 78.70 171.666670
8.74 8.758770 3.63750 78.150 174.583330
8.73 8.750040 3.650 77.60 177.50
8.72 8.741310 3.66250 77.050 180.416670
8.71 8.732280 3.6750 76.50 183.333330
8.70 8.723250 3.68750 75.950 176.250
8.69 8.714220 3.70 75.40 169.166670
8.68 8.700680 3.68750 75.2750 162.083330
8.67 8.687130 3.6750 75.150 155.0
8.66 8.67810 3.66250 75.0250 147.916670
8.65 8.669070 3.650 74.90 140.833330
8.64 8.660050 3.63750 74.7750 133.750
8.63 8.651020 3.6250 74.650 126.666670
8.62 8.641990 3.61250 74.5250 133.333330
8.61 8.632960 3.60 74.40 140.0
8.60 8.623930 3.6250 75.11250 146.666670
8.59 8.61490 3.650 75.8250 153.333330
8.58 8.605870 3.6750 76.53750 160.0
8.57 8.592330 3.70 77.250 166.666670
8.56 8.578780 3.7250 77.96250 173.333330
8.55 8.569750 3.750 78.6750 180.0
8.54 8.560720 3.7750 79.38750 186.666670
8.53 8.551690 3.80 80.10 184.166670
8.52 8.542360 3.78750 79.650 181.666670
8.51 8.533030 3.7750 79.20 179.166670
8.50 8.52370 3.76250 78.750 176.666670
8.49 8.514670 3.750 78.30 174.166670
8.48 8.505640 3.73750 77.850 171.666670
8.47 8.496610 3.7250 77.40 169.166670
8.46 8.482620 3.71250 76.950 166.666670
8.45 8.468620 3.70 76.50 167.916670
8.44 8.459590 3.73750 76.38750 169.166670
8.43 8.450560 3.7750 76.2750 170.416670
8.42 8.441530 3.81250 76.16250 171.666670
8.41 8.43220 3.850 76.050 172.916670
8.40 8.422870 3.88750 75.93750 174.166670
8.39 8.413540 3.9250 75.8250 175.416670
8.38 8.404510 3.96250 75.71250 176.666670
8.37 8.395490 4.0 75.60 171.666670
8.36 8.386460 4.0 75.733330 166.666670
8.35 8.372910 4.0 75.866670 161.666670
8.34 8.359370 4.0 76.0 156.666670
8.33 8.350340 4.0 76.133330 151.666670
8.32 8.341310 4.0 76.266670 146.666670
8.31 8.332280 4.0 76.40 141.666670
8.30 8.322950 4.0 76.533330 136.666670
8.29 8.313620 4.0 76.666670 138.750
8.28 8.304290 4.0 76.80 140.833330
8.27 8.295260 4.0 77.1250 142.916670
8.26 8.286230 4.0 77.450 145.0
8.25 8.27720 4.0 77.7750 147.083330
8.24 8.263210 4.0 78.10 149.166670
8.23 8.249210 4.0 78.4250 151.250
8.22 8.240180 4.0 78.750 153.333330
8.21 8.231150 4.0 79.0750 148.750
8.20 8.222120 4.0 79.40 144.166670
8.19 8.213090 4.0250 78.7250 139.583330
8.18 8.204060 4.050 78.050 135.0
8.17 8.195030 4.0750 77.3750 130.416670
8.16 8.181490 4.10 76.70 125.833330
8.15 8.167950 4.1250 76.0250 121.250
8.14 8.158920 4.150 75.350 116.666670
8.13 8.149890 4.1750 74.6750 121.851850
8.12 8.140860 4.20 74.0 127.037040
8.11 8.132130 4.20 73.96250 132.222220
8.10 8.12340 4.20 73.9250 137.407410
8.09 8.114670 4.20 73.88750 142.592590
8.08 8.101580 4.20 73.850 147.777780
8.07 8.088490 4.20 73.81250 152.962960
8.06 8.079760 4.20 73.7750 158.148150
8.05 8.071030 4.20 73.73750 163.333330
8.04 8.06230 4.20 73.70 155.833330
8.03 8.053570 4.20 74.077780 148.333330
8.02 8.044850 4.20 74.455560 140.833330
8.01 8.036120 4.20 74.833330 133.333330
8.00 8.022570 4.20 75.211110 125.833330
7.99 8.009030 4.20 75.588890 118.333330
7.98 8.0 4.20 75.966670 110.833330
7.97 7.990970 4.20 76.344440 103.333330
7.96 7.981940 4.20 76.722220 111.250
7.95 7.973210 4.20 77.10 119.166670
7.94 7.964480 4.20 76.83750 127.083330
7.93 7.955760 4.20 76.5750 135.0
7.92 7.942210 4.20 76.31250 142.916670
7.91 7.928670 4.20 76.050 150.833330
7.90 7.919640 4.20 75.78750 158.750
7.89 7.910610 4.20 75.5250 166.666670
7.88 7.901580 4.20 75.26250 162.50
7.87 7.892550 4.20 75.0 158.333330
7.86 7.883520 4.1750 75.0 154.166670
7.85 7.874490 4.150 75.0 150.0
7.84 7.860950 4.1250 75.0 145.833330
7.83 7.84740 4.10 75.0 141.666670
7.82 7.838680 4.0750 75.0 137.50
7.81 7.829950 4.050 75.0 133.333330
7.80 7.821220 4.0250 75.0 139.166670
7.79 7.812190 4.0 75.0 145.0
7.78 7.803160 3.98750 74.96250 150.833330
7.77 7.794130 3.9750 74.9250 156.666670
7.76 7.78510 3.96250 74.88750 162.50
7.75 7.776070 3.950 74.850 168.333330
7.74 7.767040 3.93750 74.81250 174.166670
7.73 7.75350 3.9250 74.7750 180.0
7.72 7.739950 3.91250 74.73750 180.416670
7.71 7.730930 3.90 74.70 180.833330
7.70 7.72190 3.9250 74.48750 181.250
7.69 7.712870 3.950 74.2750 181.666670
7.68 7.704140 3.9750 74.06250 182.083330
7.67 7.695410 4.0 73.850 182.50
7.66 7.686680 4.0250 73.63750 182.916670
7.65 7.673140 4.050 73.4250 183.333330
7.64 7.659590 4.0750 73.21250 178.750
7.63 7.650560 4.10 73.0 174.166670
7.62 7.641530 4.08750 73.050 169.583330
7.61 7.632510 4.0750 73.10 165.0
7.60 7.623180 4.06250 73.150 160.416670
7.59 7.613840 4.050 73.20 155.833330
7.58 7.604510 4.03750 73.250 151.250
7.57 7.590970 4.0250 73.30 146.666670
7.56 7.577430 4.01250 73.350 144.814810
7.55 7.56840 4.0 73.40 142.962960
7.54 7.559370 3.9250 73.50 141.111110
7.53 7.550340 3.850 73.60 139.259260
7.52 7.541310 3.7750 73.70 137.407410
7.51 7.532280 3.70 73.80 135.555560
7.50 7.523250 3.6250 73.90 133.70370
7.49 7.514220 3.550 74.0 131.851850
7.48 7.505190 3.4750 74.10 130.0
7.47 7.496160 3.40 74.20 130.416670
7.46 7.482620 3.3250 73.81250 130.833330
7.45 7.469070 3.250 73.4250 131.250
7.44 7.460050 3.1750 73.03750 131.666670
7.43 7.451020 3.10 72.650 132.083330
7.42 7.441990 3.0250 72.26250 132.50
7.41 7.432660 2.950 71.8750 132.916670
7.40 7.423330 2.8750 71.48750 133.333330
7.39 7.4140 2.80 71.10 138.037630
7.38 7.404970 2.88750 71.9250 142.741940
7.37 7.395940 2.9750 72.750 147.446240
7.36 7.386910 3.06250 73.5750 152.150540
7.35 7.372910 3.150 74.40 156.854840
7.34 7.358920 3.23750 75.2250 161.559140
7.33 7.349890 3.3250 76.050 166.263440
7.32 7.340860 3.41250 76.8750 170.967740
7.31 7.331830 3.50 77.70 169.180110
7.30 7.32250 3.48750 77.31250 167.392470
7.29 7.313170 3.4750 76.9250 165.604840
7.28 7.303840 3.46250 76.53750 163.81720
7.27 7.294810 3.450 76.150 162.029570
7.26 7.285780 3.43750 75.76250 160.241940
7.25 7.276750 3.4250 75.3750 158.45430
7.24 7.263210 3.41250 74.98750 156.666670
7.23 7.249660 3.40 74.60 155.833330
7.22 7.240630 3.3750 74.250 155.0
7.21 7.23160 3.350 73.90 154.166670
7.20 7.222570 3.3250 73.550 153.333330
7.19 7.213840 3.30 73.20 152.50
7.18 7.205120 3.2750 72.850 151.666670
7.17 7.196390 3.250 72.50 150.833330
7.16 7.182840 3.2250 72.150 150.0
7.15 7.16930 3.20 71.80 149.166670
7.14 7.160270 3.211110 71.322220 148.333330
7.13 7.151240 3.222220 70.844440 147.50
7.12 7.142210 3.233330 70.366670 146.666670
7.11 7.133180 3.244440 69.888890 145.833330
7.10 7.124150 3.255560 69.411110 145.0
7.09 7.115120 3.266670 68.933330 144.166670
7.08 7.101580 3.277780 68.455560 143.333330
7.07 7.088040 3.288890 67.977780 144.166670
7.06 7.079010 3.30 67.50 145.0
7.05 7.069980 3.31250 69.40 145.833330
7.04 7.060950 3.3250 71.30 146.666670
7.03 7.051920 3.33750 73.20 147.50
7.02 7.042890 3.350 75.10 148.333330
7.01 7.033860 3.36250 77.0 149.166670
7.00 7.020770 3.3750 78.90 150.0
6.99 7.007670 3.38750 80.80 149.166670
6.98 6.998950 3.40 82.70 148.333330
6.97 6.990220 3.40 81.750 147.50
6.96 6.981490 3.40 80.80 146.666670
6.95 6.972760 3.40 79.850 145.833330
6.94 6.964030 3.40 78.90 145.0
6.93 6.95530 3.40 77.950 144.166670
6.92 6.942210 3.40 77.0 143.333330
6.91 6.929120 3.40 76.050 145.416670
6.90 6.920090 3.40 75.10 147.50
6.89 6.911060 3.3750 73.950 149.583330
6.88 6.902030 3.350 72.80 151.666670
6.87 6.89330 3.3250 71.650 153.750
6.86 6.884570 3.30 70.50 155.833330
6.85 6.875850 3.2750 69.350 157.916670
6.84 6.86230 3.250 68.20 160.0
6.83 6.848760 3.2250 67.050 165.0
6.82 6.839730 3.20 65.90 170.0
6.81 6.83070 3.2250 67.350 175.0
6.80 6.821670 3.250 68.80 180.0
6.79 6.812640 3.2750 70.250 185.0
