~VERSION INFORMATION SECTION
VERS. 2.0 : CWLS LAS-VERSION 2.0
WRAP. NO : One line per depth step
~WELL INFORMATION SECTION
# MNEM.UNIT VALUE/NAME DESCRIPTION
#-------- -------------- ---------------------
STRT.Metres 16 : Start
STOP.Metres 0.43 : Stop
STEP.Metres -0.01 : Step
NULL.  -999.25 :NULL VALUE
DATE. 2025-47-11 : DATE
~CURVE INFORMATION SECTION
DEPTH.Metres : 0 Depth
Depth. : 1 Depth
Incline.Deg : 2 Incline
Azimuth.Deg : 3 Azimuth
GR.CPS : 4 GR
~PARAMETER INFORMATION SECTION
~OTHER
#-------------------------------------------------
#Produced By: GeoVista Logger - Version 7.1.107.0
Natural Gamma Sonde - 6447
Verticality Sonde - 6292
#-------------------------------------------------
~ASCII LOG DATA
# ...
5.53 5.53950 3.616670 69.533330 193.333330
5.52 5.530470 3.633330 68.466670 200.0
5.51 5.521440 3.650 67.40 190.350880
5.50 5.512420 3.666670 66.333330 180.701750
5.49 5.503390 3.683330 65.266670 171.052630
5.48 5.494360 3.70 64.20 161.403510
5.47 5.485330 3.70 65.70 151.754390
5.46 5.47630 3.70 67.20 142.105260
5.45 5.467270 3.70 68.70 141.017540
5.44 5.448310 3.70 70.20 139.929820
5.43 5.439280 3.70 71.70 138.842110
5.42 5.430250 3.666670 71.350 137.754390
5.41 5.421220 3.633330 71.0 136.666670
5.40 5.412190 3.60 70.650 140.946240
5.39 5.403160 3.566670 70.30 145.225810
5.38 5.394130 3.533330 69.950 149.505380
5.37 5.38510 3.50 69.60 153.784950
5.36 5.376070 3.480 69.240 158.064520
5.35 5.367040 3.460 68.880 155.609320
5.34 5.358010 3.440 68.520 153.154120
5.33 5.339950 3.420 68.160 150.698920
5.32 5.330930 3.40 67.80 148.243730
5.31 5.32190 3.433330 68.066670 145.788530
5.30 5.313320 3.466670 68.333330 143.333330
5.29 5.304740 3.50 68.60 142.0
5.28 5.295260 3.533330 68.866670 140.666670
5.27 5.285780 3.566670 69.133330 139.333330
5.26 5.276750 3.60 69.40 138.0
5.25 5.267720 3.580 70.040 136.666670
5.24 5.249660 3.560 70.680 137.777780
5.23 5.240630 3.540 71.320 138.888890
5.22 5.23160 3.520 71.960 140.0
5.21 5.222570 3.50 72.60 141.111110
5.20 5.213540 3.483330 72.166670 142.222220
5.19 5.204510 3.466670 71.733330 143.333330
5.18 5.195490 3.450 71.30 140.666670
5.17 5.186460 3.433330 70.866670 138.0
5.16 5.177430 3.416670 70.433330 135.333330
5.15 5.159370 3.40 70.0 132.666670
5.14 5.150340 3.40 69.920 130.0
5.13 5.141310 3.40 69.840 148.333330
5.12 5.132280 3.40 69.760 166.666670
5.11 5.123250 3.40 69.680 185.0
5.10 5.114220 3.40 69.60 203.333330
5.09 5.105190 3.380 69.440 221.666670
5.08 5.096160 3.360 69.280 240.0
5.07 5.087130 3.340 69.120 232.0
5.06 5.069070 3.320 68.960 224.0
5.05 5.059590 3.30 68.80 216.0
5.04 5.050110 3.266670 68.90 208.0
5.03 5.041080 3.233330 69.0 200.0
5.02 5.032050 3.20 69.10 188.888890
5.01 5.022570 3.166670 69.20 177.777780
5.00 5.013090 3.133330 69.30 166.666670
4.99 5.004060 3.10 69.40 155.555560
4.98 4.995030 3.120 68.380 144.444440
4.97 4.985550 3.140 67.360 133.333330
4.96 4.976070 3.160 66.340 140.0
4.95 4.966590 3.180 65.320 146.666670
4.94 4.957110 3.20 64.30 153.333330
4.93 4.939050 3.150 64.766670 160.0
4.92 4.929570 3.10 65.233330 166.666670
4.91 4.920090 3.050 65.70 171.333330
4.90 4.911060 3.0 66.166670 176.0
4.89 4.902030 2.950 66.633330 180.666670
4.88 4.892550 2.90 67.10 185.333330
4.87 4.883070 2.920 67.520 190.0
4.86 4.873590 2.940 67.940 185.555560
4.85 4.864110 2.960 68.360 181.111110
4.84 4.854630 2.980 68.780 176.666670
4.83 4.845150 3.0 69.20 172.222220
4.82 4.835670 3.033330 68.150 167.777780
4.81 4.826190 3.066670 67.10 163.333330
4.80 4.81670 3.10 66.050 166.666670
4.79 4.807220 3.133330 65.0 170.0
4.78 4.788260 3.166670 63.950 173.333330
4.77 4.779230 3.20 62.90 176.666670
4.76 4.77020 3.20 63.580 180.0
4.75 4.760720 3.20 64.260 168.888890
4.74 4.751240 3.20 64.940 157.777780
4.73 4.741760 3.20 65.620 146.666670
4.72 4.732280 3.20 66.30 135.555560
4.71 4.72280 3.20 66.966670 124.444440
4.70 4.713320 3.20 67.633330 113.333330
4.69 4.704290 3.20 68.30 117.333330
4.68 4.695260 3.20 68.966670 121.333330
4.67 4.685780 3.20 69.633330 125.333330
4.66 4.67630 3.20 70.30 129.333330
4.65 4.666820 3.220 70.060 133.333330
4.64 4.657340 3.240 69.820 137.777780
4.63 4.638370 3.260 69.580 142.222220
4.62 4.629350 3.280 69.340 146.666670
4.61 4.620320 3.30 69.10 151.111110
4.60 4.610840 3.30 68.0 155.555560
4.59 4.601350 3.30 66.90 160.0
4.58 4.591870 3.30 65.80 156.0
4.57 4.582390 3.30 64.70 152.0
4.56 4.572910 3.30 63.60 148.0
4.55 4.563430 3.30 62.50 144.0
4.54 4.553950 3.316670 63.183330 140.0
4.53 4.544470 3.333330 63.866670 140.0
4.52 4.534990 3.350 64.550 140.0
4.51 4.525510 3.366670 65.233330 140.0
4.50 4.516030 3.383330 65.916670 140.0
4.49 4.506550 3.40 66.60 140.0
4.48 4.497520 3.460 67.20 140.0
4.47 4.488490 3.520 67.80 142.0
4.46 4.469530 3.580 68.40 144.0
4.45 4.460050 3.640 69.0 146.0
4.44 4.450560 3.70 69.60 148.0
4.43 4.441530 3.70 68.50 150.0
4.42 4.432510 3.70 67.40 147.333330
4.41 4.423020 3.70 66.30 144.666670
4.40 4.413540 3.70 65.20 142.0
4.39 4.404060 3.70 64.10 139.333330
4.38 4.394580 3.70 63.0 136.666670
4.37 4.38510 3.680 64.320 144.534050
4.36 4.375620 3.660 65.640 152.401430
4.35 4.366590 3.640 66.960 160.268820
4.34 4.357560 3.620 68.280 168.13620
4.33 4.348080 3.60 69.60 176.003580
4.32 4.33860 3.60 69.366670 183.870970
4.31 4.319640 3.60 69.133330 178.430110
4.30 4.310160 3.60 68.90 172.989250
4.29 4.300680 3.60 68.666670 167.548390
4.28 4.291650 3.60 68.433330 162.107530
4.27 4.282620 3.60 68.20 156.666670
4.26 4.273140 3.583330 67.866670 146.111110
4.25 4.263660 3.566670 67.533330 135.555560
4.24 4.254180 3.550 67.20 125.0
4.23 4.24470 3.533330 66.866670 114.444440
4.22 4.235210 3.516670 66.533330 103.888890
4.21 4.225730 3.50 66.20 93.333330
4.20 4.216250 3.440 66.0 102.0
4.19 4.206770 3.380 65.80 110.666670
4.18 4.197290 3.320 65.60 119.333330
4.17 4.187810 3.260 65.40 128.0
4.16 4.169750 3.20 65.20 136.666670
4.15 4.160270 3.250 65.566670 136.111110
4.14 4.150790 3.30 65.933330 135.555560
4.13 4.141310 3.350 66.30 135.0
4.12 4.131830 3.40 66.666670 134.444440
4.11 4.122350 3.450 67.033330 133.888890
4.10 4.112870 3.50 67.40 133.333330
4.09 4.103390 3.516670 67.30 142.0
4.08 4.093910 3.533330 67.20 150.666670
4.07 4.084420 3.550 67.10 159.333330
4.06 4.074940 3.566670 67.0 168.0
4.05 4.065460 3.583330 66.90 176.666670
4.04 4.055980 3.60 66.80 171.666670
4.03 4.04650 3.60 67.040 166.666670
4.02 4.037020 3.60 67.280 161.666670
4.01 4.027540 3.60 67.520 156.666670
4.00 4.018060 3.60 67.760 151.666670
3.99 3.99910 3.60 68.0 146.666670
3.98 3.989620 3.583330 67.70 138.888890
3.97 3.980140 3.566670 67.40 131.111110
3.96 3.970650 3.550 67.10 123.333330
3.95 3.961170 3.533330 66.80 115.555560
3.94 3.951690 3.516670 66.50 107.777780
3.93 3.942210 3.50 66.20 100.0
3.92 3.932730 3.516670 66.30 108.666670
3.91 3.923250 3.533330 66.40 117.333330
3.90 3.913320 3.550 66.50 126.0
3.89 3.903390 3.566670 66.60 134.666670
3.88 3.893910 3.583330 66.70 143.333330
3.87 3.884420 3.60 66.80 140.0
3.86 3.874490 3.60 67.060 136.666670
3.85 3.864560 3.60 67.320 133.333330
3.84 3.855080 3.60 67.580 130.0
3.83 3.84560 3.60 67.840 126.666670
3.82 3.836120 3.60 68.10 123.333330
3.81 3.826640 3.616670 67.283330 129.444440
3.80 3.817160 3.633330 66.466670 135.555560
3.79 3.807670 3.650 65.650 141.666670
3.78 3.798190 3.666670 64.833330 147.777780
3.77 3.788710 3.683330 64.016670 153.888890
3.76 3.778780 3.70 63.20 160.0
3.75 3.768850 3.683330 63.850 160.666670
3.74 3.749890 3.666670 64.50 161.333330
3.73 3.740410 3.650 65.150 162.0
3.72 3.730930 3.633330 65.80 162.666670
3.71 3.721440 3.616670 66.450 163.333330
3.70 3.711960 3.60 67.10 163.888890
3.69 3.702480 3.60 67.10 164.444440
3.68 3.6930 3.60 67.10 165.0
3.67 3.683070 3.60 67.10 165.555560
3.66 3.673140 3.60 67.10 166.111110
3.65 3.663660 3.60 67.10 166.666670
3.64 3.654180 3.550 66.616670 156.666670
3.63 3.64470 3.50 66.133330 146.666670
3.62 3.635210 3.450 65.650 136.666670
3.61 3.625730 3.40 65.166670 126.666670
3.60 3.616250 3.350 64.683330 116.666670
3.59 3.607220 3.30 64.20 121.666670
3.58 3.598190 3.283330 64.583330 126.666670
3.57 3.579230 3.266670 64.966670 131.666670
3.56 3.57020 3.250 65.350 136.666670
3.55 3.561170 3.233330 65.733330 141.666670
3.54 3.552140 3.216670 66.116670 146.666670
3.53 3.543120 3.20 66.50 151.111110
3.52 3.533630 3.20 66.354550 155.555560
3.51 3.524150 3.20 66.209090 160.0
3.50 3.515120 3.20 66.063640 164.444440
3.49 3.506090 3.20 65.918180 168.888890
3.48 3.496610 3.20 65.772730 173.333330
3.47 3.487130 3.20 65.627270 172.0
3.46 3.469070 3.20 65.481820 170.666670
3.45 3.459590 3.20 65.336360 169.333330
3.44 3.450110 3.20 65.190910 168.0
3.43 3.440630 3.20 65.045450 166.666670
3.42 3.431150 3.20 64.90 163.888890
3.41 3.422120 3.20 65.50 161.111110
3.40 3.413090 3.20 66.10 158.333330
3.39 3.403610 3.20 66.70 155.555560
