~VERSION INFORMATION SECTION
VERS. 2.0 : CWLS LAS-VERSION 2.0
WRAP. NO : One line per depth step
~WELL INFORMATION SECTION
# MNEM.UNIT VALUE/NAME DESCRIPTION
#-------- -------------- ---------------------
STRT.Metres 16 : Start
STOP.Metres 0.43 : Stop
STEP.Metres -0.01 : Step
NULL.  -999.25 :NULL VALUE
DATE. 2025-47-11 : DATE
~CURVE INFORMATION SECTION
DEPTH.Metres : 0 Depth
Depth. : 1 Depth
Incline.Deg : 2 Incline
Azimuth.Deg : 3 Azimuth
GR.CPS : 4 GR
~PARAMETER INFORMATION SECTION
~OTHER
#-------------------------------------------------
#Produced By: GeoVista Logger - Version 7.1.107.0
Natural Gamma Sonde - 6447
Verticality Sonde - 6292
#-------------------------------------------------
~ASCII LOG DATA
16.00 -999.25 -999.25 -999.25 -999.25
15.99 15.999550 -999.25 -999.25 -999.25
15.98 15.991870 -999.25 -999.25 -999.25
15.97 15.983750 -999.25 -999.25 -999.25
15.96 15.975620 -999.25 -999.25 -999.25
15.95 15.959370 -999.25 -999.25 -999.25
15.94 15.950790 -999.25 -999.25 -999.25
15.93 15.942210 -999.25 -999.25 -999.25
15.92 15.933180 -999.25 -999.25 -999.25
15.91 15.924150 -999.25 -999.25 -999.25
15.90 15.915580 -999.25 -999.25 -999.25
15.89 15.9070 -999.25 -999.25 -999.25
15.88 15.888940 -999.25 -999.25 -999.25
15.87 15.879910 -999.25 -999.25 -999.25
15.86 15.870880 -999.25 -999.25 -999.25
15.85 15.861850 -999.25 -999.25 -999.25
15.84 15.852820 -999.25 -999.25 -999.25
15.83 15.843790 -999.25 -999.25 -999.25
15.82 15.834760 -999.25 -999.25 -999.25
15.81 15.825730 -999.25 -999.25 -999.25
15.80 15.81670 -999.25 -999.25 -999.25
15.79 15.807220 -999.25 -999.25 -999.25
15.78 15.797740 -999.25 -999.25 -999.25
15.77 15.779680 5.50 78.429170 -999.25
15.76 15.77020 5.50 78.452780 -999.25
15.75 15.760720 5.50 78.476390 -999.25
15.74 15.751690 5.50 78.50 -999.25
15.73 15.742660 5.50 78.4750 -999.25
15.72 15.733180 5.50 78.450 -999.25
15.71 15.72370 5.50 78.4250 -999.25
15.70 15.713770 5.50 78.40 -999.25
15.69 15.703840 5.520 78.920 -999.25
15.68 15.693910 5.540 79.440 -999.25
15.67 15.683970 5.560 79.960 -999.25
15.66 15.674490 5.580 80.480 -999.25
15.65 15.665010 5.60 81.0 -999.25
15.64 15.655080 5.566670 80.683330 -999.25
15.63 15.645150 5.533330 80.366670 -999.25
15.62 15.635670 5.50 80.050 -999.25
15.61 15.626190 5.466670 79.733330 -999.25
15.60 15.61670 5.433330 79.416670 -999.25
15.59 15.607220 5.40 79.10 -999.25
15.58 15.589160 5.420 78.440 -999.25
15.57 15.579680 5.440 77.780 -999.25
15.56 15.57020 5.460 77.120 -999.25
15.55 15.560720 5.480 76.460 -999.25
15.54 15.551240 5.50 75.80 -999.25
15.53 15.542210 5.50 76.533330 -999.25
15.52 15.533180 5.50 77.266670 -999.25
15.51 15.52370 5.50 78.0 -999.25
15.50 15.514220 5.50 78.733330 -999.25
15.49 15.505190 5.50 79.466670 -999.25
15.48 15.496160 5.50 80.20 -999.25
15.47 15.486680 5.50 79.940 -999.25
15.46 15.47720 5.50 79.680 -999.25
15.45 15.458240 5.50 79.420 -999.25
15.44 15.449210 5.50 79.160 -999.25
15.43 15.440180 5.50 78.90 -999.25
15.42 15.43070 5.491670 78.508330 -999.25
15.41 15.421220 5.483330 78.116670 -999.25
15.40 15.412190 5.4750 77.7250 -999.25
15.39 15.403160 5.466670 77.333330 -999.25
15.38 15.393680 5.458330 76.941670 -999.25
15.37 15.38420 5.450 76.550 -999.25
15.36 15.375170 5.441670 76.158330 -999.25
15.35 15.366140 5.433330 75.766670 -999.25
15.34 15.356660 5.4250 75.3750 -999.25
15.33 15.347180 5.416670 74.983330 -999.25
15.32 15.329120 5.408330 74.591670 -999.25
15.31 15.319640 5.40 74.20 -999.25
15.30 15.310160 5.420 75.80 -999.25
15.29 15.301130 5.440 77.40 -999.25
15.28 15.29210 5.460 79.0 -999.25
15.27 15.282620 5.480 80.60 -999.25
15.26 15.273140 5.50 82.20 -999.25
15.25 15.264110 5.466670 81.416670 -999.25
15.24 15.255080 5.433330 80.633330 -999.25
15.23 15.246050 5.40 79.850 -999.25
15.22 15.237020 5.366670 79.066670 -999.25
15.21 15.227540 5.333330 78.283330 -999.25
15.20 15.218060 5.30 77.50 -999.25
15.19 15.20 5.30 77.380 134.76740
15.18 15.190520 5.30 77.260 147.38370
15.17 15.181040 5.30 77.140 160.0
15.16 15.172010 5.30 77.020 147.50
15.15 15.162980 5.30 76.90 135.0
15.14 15.153950 5.283330 77.833330 122.50
15.13 15.144920 5.266670 78.766670 110.0
15.12 15.135440 5.250 79.70 120.0
15.11 15.125960 5.233330 80.633330 130.0
15.10 15.116930 5.216670 81.566670 140.0
15.09 15.10790 5.20 82.50 150.0
15.08 15.088940 5.216670 82.050 160.0
15.07 15.079910 5.233330 81.60 153.333330
15.06 15.070880 5.250 81.150 146.666670
15.05 15.061850 5.266670 80.70 140.0
15.04 15.052820 5.283330 80.250 133.333330
15.03 15.043340 5.30 79.80 126.666670
15.02 15.033860 5.30 79.820 124.0
15.01 15.024830 5.30 79.840 121.333330
15.00 15.01580 5.30 79.860 118.666670
14.99 15.006320 5.30 79.880 116.0
14.98 14.996840 5.30 79.90 113.333330
14.97 14.978780 5.30 79.616670 130.0
14.96 14.969750 5.30 79.333330 146.666670
14.95 14.960720 5.30 79.050 163.333330
14.94 14.951240 5.30 78.766670 180.0
14.93 14.941760 5.30 78.483330 196.666670
14.92 14.932730 5.30 78.20 213.333330
14.91 14.92370 5.280 78.480 203.333330
14.90 14.914220 5.260 78.760 193.333330
14.89 14.904740 5.240 79.040 183.333330
14.88 14.895710 5.220 79.320 173.333330
14.87 14.886680 5.20 79.60 163.333330
14.86 14.868620 5.150 79.650 162.777780
14.85 14.859590 5.10 79.70 162.222220
14.84 14.850560 5.050 79.750 161.666670
14.83 14.841080 5.0 79.80 161.111110
14.82 14.83160 4.950 79.850 160.555560
14.81 14.822120 4.90 79.90 160.0
14.80 14.812640 4.90 79.420 155.0
14.79 14.803610 4.90 78.940 150.0
14.78 14.794580 4.90 78.460 145.0
14.77 14.78510 4.90 77.980 140.0
14.76 14.775620 4.90 77.50 135.0
14.75 14.766590 4.90 78.133330 130.0
14.74 14.757560 4.90 78.766670 137.548390
14.73 14.73860 4.90 79.40 145.096770
14.72 14.729570 4.90 80.033330 152.645160
14.71 14.720540 4.90 80.666670 160.193550
14.70 14.711510 4.90 81.30 167.741940
14.69 14.702480 4.940 81.240 165.896060
14.68 14.6930 4.980 81.180 164.050180
14.67 14.683520 5.020 81.120 162.20430
14.66 14.674490 5.060 81.060 160.358420
14.65 14.665460 5.10 81.0 158.512540
14.64 14.655980 5.116670 81.133330 156.666670
14.63 14.64650 5.133330 81.266670 151.111110
14.62 14.637020 5.150 81.40 145.555560
14.61 14.627540 5.166670 81.533330 140.0
14.60 14.618060 5.183330 81.666670 134.444440
14.59 14.608580 5.20 81.80 128.888890
14.58 14.59910 5.180 81.220 123.333330
14.57 14.589620 5.160 80.640 130.666670
14.56 14.569750 5.140 80.060 138.0
14.55 14.560270 5.120 79.480 145.333330
14.54 14.550790 5.10 78.90 152.666670
14.53 14.541310 5.116670 79.316670 160.0
14.52 14.531830 5.133330 79.733330 153.333330
14.51 14.522350 5.150 80.150 146.666670
14.50 14.512870 5.166670 80.566670 140.0
14.49 14.503390 5.183330 80.983330 133.333330
14.48 14.493910 5.20 81.40 126.666670
14.47 14.484420 5.180 82.020 120.0
14.46 14.474940 5.160 82.640 132.666670
14.45 14.465460 5.140 83.260 145.333330
14.44 14.455980 5.120 83.880 158.0
14.43 14.437920 5.10 84.50 170.666670
14.42 14.429350 5.083330 83.30 183.333330
14.41 14.420770 5.066670 82.10 181.111110
14.40 14.411740 5.050 80.90 178.888890
14.39 14.402710 5.033330 79.70 176.666670
14.38 14.393680 5.016670 78.50 174.444440
14.37 14.384650 5.0 77.30 172.222220
14.36 14.375170 4.966670 78.750 170.0
14.35 14.365690 4.933330 80.20 164.666670
14.34 14.356660 4.90 81.650 159.333330
14.33 14.347630 4.866670 83.10 154.0
14.32 14.329570 4.833330 84.550 148.666670
14.31 14.320540 4.80 86.0 143.333330
14.30 14.311510 4.820 86.0 150.555560
14.29 14.302030 4.840 86.0 157.777780
14.28 14.292550 4.860 86.0 165.0
14.27 14.283520 4.880 86.0 172.222220
14.26 14.274490 4.90 86.0 179.444440
14.25 14.265460 4.850 84.916670 186.666670
14.24 14.256430 4.80 83.833330 179.333330
14.23 14.24740 4.750 82.750 172.0
14.22 14.238370 4.70 81.666670 164.666670
14.21 14.219410 4.650 80.583330 157.333330
14.20 14.210380 4.60 79.50 150.0
14.19 14.201350 4.583330 80.40 148.333330
14.18 14.191870 4.566670 81.30 146.666670
14.17 14.182390 4.550 82.20 145.0
14.16 14.173360 4.533330 83.10 143.333330
14.15 14.164330 4.516670 84.0 141.666670
14.14 14.154850 4.50 84.90 140.0
14.13 14.145370 4.540 84.380 136.666670
14.12 14.136340 4.580 83.860 133.333330
14.11 14.127310 4.620 83.340 130.0
14.10 14.117830 4.660 82.820 126.666670
14.09 14.108350 4.70 82.30 123.333330
14.08 14.089390 4.666670 82.583330 127.222220
14.07 14.079910 4.633330 82.866670 131.111110
14.06 14.070430 4.60 83.150 135.0
14.05 14.060950 4.566670 83.433330 138.888890
14.04 14.051470 4.533330 83.716670 142.777780
14.03 14.041990 4.50 84.0 146.666670
14.02 14.032510 4.520 83.260 151.333330
14.01 14.023480 4.540 82.520 156.0
14.00 14.014450 4.560 81.780 160.666670
13.99 14.004970 4.580 81.040 165.333330
13.98 13.995490 4.60 80.30 170.0
13.97 13.9860 4.650 80.850 160.555560
13.96 13.976520 4.70 81.40 151.111110
13.95 13.958470 4.750 81.950 141.666670
13.94 13.949440 4.80 82.50 132.222220
