~VERSION INFORMATION SECTION
VERS. 2.0 : CWLS LAS-VERSION 2.0
WRAP. NO : One line per depth step
~WELL INFORMATION SECTION
# MNEM.UNIT VALUE/NAME DESCRIPTION
#-------- -------------- ---------------------
STRT.Metres 15 : Start
STOP.Metres 0.33 : Stop
STEP.Metres -0.01 : Step
NULL.  -999.25 :NULL VALUE
DATE. 2025-53-11 : DATE
~CURVE INFORMATION SECTION
DEPTH.Metres : 0 Depth
Depth. : 1 Depth
Incline.Deg : 2 Incline
Azimuth.Deg : 3 Azimuth
GR.CPS : 4 GR
~PARAMETER INFORMATION SECTION
~OTHER
#-------------------------------------------------
#Produced By: GeoVista Logger - Version 7.1.107.0
Natural Gamma Sonde - 6447
Verticality Sonde - 6292
#-------------------------------------------------
~ASCII LOG DATA
# ...
7.32 7.35350 3.20 70.50 159.047620
7.31 7.344830 3.176920 71.053850 158.571430
7.30 7.336160 3.153850 71.607690 158.095240
7.29 7.327490 3.130770 72.161540 157.619050
7.28 7.318830 3.107690 72.715380 157.142860
7.27 7.310160 3.084620 73.269230 152.380950
7.26 7.299550 3.061540 73.823080 147.619050
7.25 7.288940 3.038460 74.376920 142.857140
7.24 7.278330 3.015380 74.930770 138.095240
7.23 7.267720 2.992310 75.484620 133.333330
7.22 7.256880 2.969230 76.038460 128.571430
7.21 7.246050 2.946150 76.592310 123.809520
7.20 7.235210 2.923080 77.146150 119.047620
7.19 7.224380 2.90 77.70 114.285710
7.18 7.213770 2.915380 76.823080 109.523810
7.17 7.203160 2.930770 75.946150 104.76190
7.16 7.192550 2.946150 75.069230 100.0
7.15 7.181940 2.961540 74.192310 103.970220
7.14 7.173630 2.976920 73.315380 107.940450
7.13 7.165330 2.992310 72.438460 111.910670
7.12 7.157020 3.007690 71.561540 115.880890
7.11 7.148710 3.023080 70.684620 119.851120
7.10 7.140410 3.038460 69.807690 123.821340
7.09 7.12980 3.053850 68.930770 127.791560
7.08 7.119190 3.069230 68.053850 131.761790
7.07 7.108580 3.084620 67.176920 135.732010
7.06 7.097970 3.10 66.30 139.702230
7.05 7.087130 3.10 67.223080 143.672460
7.04 7.07630 3.10 68.146150 147.642680
7.03 7.065460 3.10 69.069230 151.61290
7.02 7.054630 3.10 69.992310 150.206780
7.01 7.044240 3.10 70.915380 148.800660
7.00 7.033860 3.10 71.838460 147.394540
6.99 7.023480 3.10 72.761540 145.988420
6.98 7.013090 3.10 73.684620 144.58230
6.97 7.002710 3.10 74.607690 143.176180
6.96 6.992330 3.10 75.530770 141.770060
6.95 6.981940 3.10 76.453850 140.363940
6.94 6.971560 3.10 77.376920 138.957820
6.93 6.963250 3.10 78.30 137.55170
6.92 6.954940 3.084620 77.10 136.145570
6.91 6.946640 3.069230 75.90 134.739450
6.90 6.938330 3.053850 74.70 133.333330
6.89 6.930020 3.038460 73.50 132.50
6.88 6.919640 3.023080 72.30 131.666670
6.87 6.909260 3.007690 71.10 130.833330
6.86 6.898870 2.992310 69.90 130.0
6.85 6.888490 2.976920 68.70 129.166670
6.84 6.87810 2.961540 67.50 128.333330
6.83 6.867720 2.946150 66.30 127.50
6.82 6.857340 2.930770 65.10 126.666670
6.81 6.846950 2.915380 63.90 125.833330
6.80 6.836570 2.90 62.70 125.0
6.79 6.826190 2.90 63.2250 124.166670
6.78 6.81580 2.90 63.750 123.333330
6.77 6.805420 2.90 64.2750 126.410260
6.76 6.794810 2.90 64.80 129.487180
6.75 6.78420 2.90 65.3250 132.56410
6.74 6.773590 2.90 65.850 135.641030
6.73 6.762980 2.90 66.3750 138.717950
6.72 6.754490 2.90 66.90 141.794870
6.71 6.7460 2.90 67.4250 144.871790
6.70 6.737520 2.90 67.950 147.948720
6.69 6.729030 2.90 68.4750 151.025640
6.68 6.720540 2.90 69.0 154.102560
6.67 6.709930 2.938460 68.876920 157.179490
6.66 6.699320 2.976920 68.753850 160.256410
6.65 6.688710 3.015380 68.630770 163.333330
6.64 6.67810 3.053850 68.507690 165.384620
6.63 6.667490 3.092310 68.384620 167.43590
6.62 6.656880 3.130770 68.261540 169.487180
6.61 6.646280 3.169230 68.138460 171.538460
6.60 6.635670 3.207690 68.015380 173.589740
6.59 6.625060 3.246150 67.892310 175.641030
6.58 6.614450 3.284620 67.769230 177.692310
6.57 6.603840 3.323080 67.646150 179.743590
6.56 6.593230 3.361540 67.523080 181.794870
6.55 6.584740 3.40 67.40 183.846150
6.54 6.576250 3.383330 67.0750 185.897440
6.53 6.567770 3.366670 66.750 187.948720
6.52 6.559280 3.350 66.4250 190.0
6.51 6.550790 3.333330 66.10 188.461540
6.50 6.540180 3.316670 65.7750 186.923080
6.49 6.529570 3.30 65.450 185.384620
6.48 6.518960 3.283330 65.1250 183.846150
6.47 6.508350 3.266670 64.80 182.307690
6.46 6.497520 3.250 64.4750 180.769230
6.45 6.486680 3.233330 64.150 179.230770
6.44 6.475850 3.216670 63.8250 177.692310
6.43 6.465010 3.20 63.50 176.153850
6.42 6.45440 3.223080 64.753850 174.615380
6.41 6.443790 3.246150 66.007690 173.076920
6.40 6.433180 3.269230 67.261540 171.538460
6.39 6.422570 3.292310 68.515380 170.0
6.38 6.414090 3.315380 69.769230 166.111110
6.37 6.40560 3.338460 71.023080 162.222220
6.36 6.397110 3.361540 72.276920 158.333330
6.35 6.388620 3.384620 73.530770 154.444440
6.34 6.380140 3.407690 74.784620 150.555560
6.33 6.369530 3.430770 76.038460 146.666670
6.32 6.358920 3.453850 77.292310 142.777780
6.31 6.348310 3.476920 78.546150 138.888890
6.30 6.33770 3.50 79.80 135.0
6.29 6.327090 3.50 79.576920 131.111110
6.28 6.316480 3.50 79.353850 127.222220
6.27 6.305870 3.50 79.130770 123.333330
6.26 6.295260 3.50 78.907690 128.974360
6.25 6.284880 3.50 78.684620 134.615380
6.24 6.274490 3.50 78.461540 140.256410
6.23 6.264110 3.50 78.238460 145.897440
6.22 6.253720 3.50 78.015380 151.538460
6.21 6.245240 3.50 77.792310 157.179490
6.20 6.236750 3.50 77.569230 162.820510
6.19 6.228260 3.50 77.346150 168.461540
6.18 6.219770 3.50 77.123080 174.102560
6.17 6.211290 3.50 76.90 179.743590
6.16 6.200680 3.515380 75.915380 185.384620
6.15 6.190070 3.530770 74.930770 191.025640
6.14 6.179460 3.546150 73.946150 196.666670
6.13 6.168850 3.561540 72.961540 191.025640
6.12 6.158240 3.576920 71.976920 185.384620
6.11 6.147630 3.592310 70.992310 179.743590
6.10 6.137020 3.607690 70.007690 174.102560
6.09 6.126410 3.623080 69.023080 168.461540
6.08 6.11580 3.638460 68.038460 162.820510
6.07 6.105190 3.653850 67.053850 157.179490
6.06 6.094580 3.669230 66.069230 151.538460
6.05 6.083970 3.684620 65.084620 145.897440
6.04 6.075490 3.70 64.10 140.256410
6.03 6.0670 3.708330 64.733330 134.615380
6.02 6.058510 3.716670 65.366670 128.974360
6.01 6.050020 3.7250 66.0 123.333330
6.00 6.041530 3.733330 66.633330 126.388890
5.99 6.031150 3.741670 67.266670 129.444440
5.98 6.020770 3.750 67.90 132.50
5.97 6.010380 3.758330 68.533330 135.555560
5.96 6.0 3.766670 69.166670 138.611110
5.95 5.989390 3.7750 69.80 141.666670
5.94 5.978780 3.783330 70.433330 144.722220
5.93 5.968170 3.791670 71.066670 147.777780
5.92 5.957560 3.80 71.70 150.833330
5.91 5.946950 3.776920 71.576920 153.888890
5.90 5.936340 3.753850 71.453850 156.944440
5.89 5.925730 3.730770 71.330770 160.0
5.88 5.915120 3.707690 71.207690 157.179490
5.87 5.904510 3.684620 71.084620 154.358970
5.86 5.893910 3.661540 70.961540 151.538460
5.85 5.88330 3.638460 70.838460 148.717950
5.84 5.872690 3.615380 70.715380 145.897440
5.83 5.864380 3.592310 70.592310 143.076920
5.82 5.856070 3.569230 70.469230 140.256410
5.81 5.847770 3.546150 70.346150 137.43590
5.80 5.839460 3.523080 70.223080 134.615380
5.79 5.831150 3.50 70.10 131.794870
5.78 5.820770 3.484620 69.269230 128.974360
5.77 5.810380 3.469230 68.438460 126.153850
5.76 5.80 3.453850 67.607690 123.333330
5.75 5.789620 3.438460 66.776920 127.43590
5.74 5.779230 3.423080 65.946150 131.538460
5.73 5.768850 3.407690 65.115380 135.641030
5.72 5.758470 3.392310 64.284620 139.743590
5.71 5.748080 3.376920 63.453850 143.846150
5.70 5.737470 3.361540 62.623080 147.948720
5.69 5.726860 3.346150 61.792310 152.051280
5.68 5.716250 3.330770 60.961540 156.153850
5.67 5.705640 3.315380 60.130770 160.256410
5.66 5.695030 3.30 59.30 164.358970
5.65 5.684420 3.30 60.441670 168.461540
5.64 5.673810 3.30 61.583330 172.56410
5.63 5.663210 3.30 62.7250 176.666670
5.62 5.654720 3.30 63.866670 176.388890
5.61 5.646230 3.30 65.008330 176.111110
5.60 5.637740 3.30 66.150 175.833330
5.59 5.629260 3.30 67.291670 175.555560
5.58 5.620770 3.30 68.433330 175.277780
5.57 5.610160 3.30 69.5750 175.0
5.56 5.599550 3.30 70.716670 174.722220
5.55 5.588940 3.30 71.858330 174.444440
5.54 5.578330 3.30 73.0 174.166670
5.53 5.567720 3.307690 72.430770 173.888890
5.52 5.557110 3.315380 71.861540 173.611110
5.51 5.54650 3.323080 71.292310 173.333330
5.50 5.535890 3.330770 70.723080 172.43590
5.49 5.525280 3.338460 70.153850 171.538460
5.48 5.514670 3.346150 69.584620 170.641030
5.47 5.504060 3.353850 69.015380 169.743590
5.46 5.493450 3.361540 68.446150 168.846150
5.45 5.484970 3.369230 67.876920 167.948720
5.44 5.476480 3.376920 67.307690 167.051280
5.43 5.467990 3.384620 66.738460 166.153850
5.42 5.45950 3.392310 66.169230 165.256410
5.41 5.451020 3.40 65.60 164.358970
5.40 5.440410 3.338460 64.792310 163.461540
5.39 5.42980 3.276920 63.984620 162.56410
5.38 5.419190 3.215380 63.176920 161.666670
