~VERSION INFORMATION SECTION
VERS. 2.0 : CWLS LAS-VERSION 2.0
WRAP. NO : One line per depth step
~WELL INFORMATION SECTION
# MNEM.UNIT VALUE/NAME DESCRIPTION
#-------- -------------- ---------------------
STRT.Metres 15 : Start
STOP.Metres 0.50 : Stop
STEP.Metres -0.01 : Step
NULL.  -999.25 :NULL VALUE
DATE. 2025-50-11 : DATE
~CURVE INFORMATION SECTION
DEPTH.Metres : 0 Depth
Depth. : 1 Depth
Incline.Deg : 2 Incline
Azimuth.Deg : 3 Azimuth
GR.CPS : 4 GR
~PARAMETER INFORMATION SECTION
~OTHER
#-------------------------------------------------
#Produced By: GeoVista Logger - Version 7.1.107.0
Natural Gamma Sonde - 6447
Verticality Sonde - 6292
#-------------------------------------------------
~ASCII LOG DATA
# ...
4.69 4.713320 3.111110 70.866670 144.583330
4.68 4.703990 3.122220 70.333330 141.666670
4.67 4.694660 3.133330 69.80 138.750
4.66 4.685330 3.144440 69.266670 135.833330
4.65 4.671780 3.155560 68.733330 132.916670
4.64 4.658240 3.166670 68.20 130.0
4.63 4.648910 3.177780 67.666670 129.583330
4.62 4.639580 3.188890 67.133330 129.166670
4.61 4.630250 3.20 66.60 128.750
4.60 4.620920 3.2250 66.6750 128.333330
4.59 4.611590 3.250 66.750 127.916670
4.58 4.602260 3.2750 66.8250 127.50
4.57 4.593230 3.30 66.90 127.083330
4.56 4.58420 3.3250 66.9750 126.666670
4.55 4.575170 3.350 67.050 130.0
4.54 4.565840 3.3750 67.1250 133.333330
4.53 4.556510 3.40 67.20 136.666670
4.52 4.547180 3.38750 67.40 140.0
4.51 4.533180 3.3750 67.60 143.333330
4.50 4.519190 3.36250 67.80 146.666670
4.49 4.509860 3.350 68.0 150.0
4.48 4.500530 3.33750 68.20 153.333330
4.47 4.49120 3.3250 68.40 156.666670
4.46 4.482170 3.31250 68.60 153.333330
4.45 4.473140 3.30 68.80 150.0
4.44 4.464110 3.344440 68.511110 146.666670
4.43 4.454780 3.388890 68.222220 143.333330
4.42 4.445450 3.433330 67.933330 140.0
4.41 4.436120 3.477780 67.644440 136.666670
4.40 4.422570 3.522220 67.355560 133.333330
4.39 4.409030 3.566670 67.066670 130.0
4.38 4.39970 3.611110 66.777780 127.916670
4.37 4.390370 3.655560 66.488890 125.833330
4.36 4.381040 3.70 66.20 123.750
4.35 4.371710 3.70 65.90 121.666670
4.34 4.362380 3.70 65.60 119.583330
4.33 4.353050 3.70 65.30 117.50
4.32 4.344020 3.70 65.0 115.416670
4.31 4.334990 3.70 64.70 113.333330
4.30 4.325960 3.70 64.40 118.924730
4.29 4.316630 3.70 64.10 124.516130
4.28 4.30730 3.70 63.80 130.107530
4.27 4.297970 3.6750 64.8750 135.698920
4.26 4.283970 3.650 65.950 141.290320
4.25 4.269980 3.6250 67.0250 146.881720
4.24 4.260950 3.60 68.10 152.473120
4.23 4.251920 3.5750 69.1750 158.064520
4.22 4.242890 3.550 70.250 158.723120
4.21 4.233560 3.5250 71.3250 159.381720
4.20 4.224230 3.50 72.40 160.040320
4.19 4.21490 3.477780 71.855560 160.698920
4.18 4.205570 3.455560 71.311110 161.357530
4.17 4.196240 3.433330 70.766670 162.016130
4.16 4.186910 3.411110 70.222220 162.674730
4.15 4.172910 3.388890 69.677780 163.333330
4.14 4.158920 3.366670 69.133330 161.111110
4.13 4.149890 3.344440 68.588890 158.888890
4.12 4.140860 3.322220 68.044440 156.666670
4.11 4.131830 3.30 67.50 154.444440
4.10 4.12250 3.3250 67.41250 152.222220
4.09 4.113170 3.350 67.3250 150.0
4.08 4.103840 3.3750 67.23750 147.777780
4.07 4.094510 3.40 67.150 145.555560
4.06 4.085180 3.4250 67.06250 143.333330
4.05 4.075850 3.450 66.9750 142.291670
4.04 4.066520 3.4750 66.88750 141.250
4.03 4.057190 3.50 66.80 140.208330
4.02 4.047860 3.48750 67.36250 139.166670
4.01 4.033860 3.4750 67.9250 138.1250
4.00 4.019860 3.46250 68.48750 137.083330
3.99 4.010530 3.450 69.050 136.041670
3.98 4.00120 3.43750 69.61250 135.0
3.97 3.991870 3.4250 70.1750 130.0
3.96 3.982240 3.41250 70.73750 125.0
3.95 3.972610 3.40 71.30 120.0
3.94 3.962980 3.411110 70.477780 115.0
3.93 3.953650 3.422220 69.655560 110.0
3.92 3.944320 3.433330 68.833330 105.0
3.91 3.934990 3.444440 68.011110 100.0
3.90 3.925660 3.455560 67.188890 95.0
3.89 3.916330 3.466670 66.366670 90.0
3.88 3.9070 3.477780 65.544440 91.666670
3.87 3.892550 3.488890 64.722220 93.333330
3.86 3.87810 3.50 63.90 95.0
3.85 3.868770 3.51250 64.2750 96.666670
3.84 3.859440 3.5250 64.650 98.333330
3.83 3.850110 3.53750 65.0250 100.0
3.82 3.840780 3.550 65.40 101.666670
3.81 3.831450 3.56250 65.7750 103.333330
3.80 3.822120 3.5750 66.150 105.416670
3.79 3.812490 3.58750 66.5250 107.50
3.78 3.802860 3.60 66.90 109.583330
3.77 3.793230 3.61250 66.80 111.666670
3.76 3.78390 3.6250 66.70 113.750
3.75 3.774570 3.63750 66.60 115.833330
3.74 3.765240 3.650 66.50 117.916670
3.73 3.755910 3.66250 66.40 120.0
3.72 3.746580 3.6750 66.30 125.555560
3.71 3.737250 3.68750 66.20 131.111110
3.70 3.72280 3.70 66.10 136.666670
3.69 3.708350 3.688890 66.444440 142.222220
3.68 3.699020 3.677780 66.788890 147.777780
3.67 3.689690 3.666670 67.133330 153.333330
3.66 3.680360 3.655560 67.477780 158.888890
3.65 3.671030 3.644440 67.822220 164.444440
3.64 3.66170 3.633330 68.166670 170.0
3.63 3.652370 3.622220 68.511110 167.083330
3.62 3.643040 3.611110 68.855560 164.166670
3.61 3.633710 3.60 69.20 161.250
3.60 3.624380 3.582350 69.076470 158.333330
3.59 3.610840 3.564710 68.952940 155.416670
3.58 3.597290 3.547060 68.829410 152.50
3.57 3.588260 3.529410 68.705880 149.583330
3.56 3.579230 3.511760 68.582350 146.666670
3.55 3.57020 3.494120 68.458820 146.666670
3.54 3.561170 3.476470 68.335290 146.666670
3.53 3.552140 3.458820 68.211760 146.666670
3.52 3.543120 3.441180 68.088240 146.666670
3.51 3.534090 3.423530 67.964710 146.666670
3.50 3.525060 3.405880 67.841180 146.666670
3.49 3.516030 3.388240 67.717650 146.666670
3.48 3.502030 3.370590 67.594120 146.666670
3.47 3.488040 3.352940 67.470590 142.083330
3.46 3.479010 3.335290 67.347060 137.50
3.45 3.469980 3.317650 67.223530 132.916670
3.44 3.460950 3.30 67.10 128.333330
3.43 3.451620 3.28750 67.250 123.750
3.42 3.442290 3.2750 67.40 119.166670
3.41 3.432960 3.26250 67.550 114.583330
3.40 3.423930 3.250 67.70 110.0
3.39 3.41490 3.23750 67.850 108.888890
3.38 3.405870 3.2250 68.0 107.777780
3.37 3.396540 3.21250 68.150 106.666670
3.36 3.387210 3.20 68.30 105.555560
3.35 3.377880 3.21250 68.30 104.444440
3.34 3.363880 3.2250 68.30 103.333330
3.33 3.349890 3.23750 68.30 102.222220
3.32 3.340560 3.250 68.30 101.111110
3.31 3.331230 3.26250 68.30 100.0
3.30 3.32190 3.2750 68.30 105.416670
3.29 3.312870 3.28750 68.30 110.833330
3.28 3.303840 3.30 68.30 116.250
3.27 3.294810 3.30 67.955560 121.666670
3.26 3.285480 3.30 67.611110 127.083330
3.25 3.276150 3.30 67.266670 132.50
3.24 3.266820 3.30 66.922220 137.916670
3.23 3.252820 3.30 66.577780 143.333330
3.22 3.238830 3.30 66.233330 140.0
3.21 3.22950 3.30 65.888890 136.666670
3.20 3.220170 3.30 65.544440 133.333330
3.19 3.210840 3.30 65.20 130.0
3.18 3.20150 3.30 65.0 126.666670
3.17 3.192170 3.30 64.80 123.333330
3.16 3.182840 3.30 64.60 120.0
3.15 3.173810 3.30 64.40 116.666670
3.14 3.164790 3.30 64.20 121.111110
3.13 3.155760 3.30 64.0 125.555560
3.12 3.146430 3.30 63.80 130.0
3.11 3.13710 3.30 63.60 134.444440
3.10 3.127770 3.28750 64.08750 138.888890
3.09 3.113770 3.2750 64.5750 143.333330
3.08 3.099770 3.26250 65.06250 147.777780
3.07 3.090440 3.250 65.550 152.222220
3.06 3.081110 3.23750 66.03750 156.666670
3.05 3.071780 3.2250 66.5250 161.250
3.04 3.062150 3.21250 67.01250 165.833330
3.03 3.052520 3.20 67.50 170.416670
3.02 3.042890 3.20 67.255560 175.0
3.01 3.033860 3.20 67.011110 179.583330
3.00 3.024830 3.20 66.766670 184.166670
2.99 3.01580 3.20 66.522220 188.750
2.98 3.006470 3.20 66.277780 193.333330
2.97 2.997140 3.20 66.033330 185.555560
2.96 2.987810 3.20 65.788890 177.777780
2.95 2.973810 3.20 65.544440 170.0
2.94 2.959820 3.20 65.30 162.222220
2.93 2.950190 3.20 65.48750 154.444440
2.92 2.940560 3.20 65.6750 146.666670
2.91 2.930930 3.20 65.86250 138.888890
2.90 2.92160 3.20 66.050 131.111110
2.89 2.912260 3.20 66.23750 123.333330
2.88 2.902930 3.20 66.4250 127.234850
2.87 2.89360 3.20 66.61250 131.136360
2.86 2.884270 3.20 66.80 135.037880
2.85 2.874940 3.21250 65.86250 138.939390
2.84 2.865610 3.2250 64.9250 142.840910
2.83 2.856280 3.23750 63.98750 146.742420
2.82 2.846950 3.250 63.050 150.643940
2.81 2.832960 3.26250 62.11250 154.545450
2.80 2.818960 3.2750 61.1750 154.33280
2.79 2.809330 3.28750 60.23750 154.120150
2.78 2.79970 3.30 59.30 153.90750
2.77 2.790070 3.233330 60.844440 153.694840
2.76 2.780740 3.166670 62.388890 153.482190
2.75 2.771410 3.10 63.933330 153.269540
2.74 2.762080 3.033330 65.477780 153.056880
2.73 2.752750 2.966670 67.022220 152.844230
2.72 2.743420 2.90 68.566670 152.631580
2.71 2.734090 2.833330 70.111110 148.068760
2.70 2.724760 2.766670 71.655560 143.505940
2.69 2.715430 2.70 73.20 138.943120
2.68 2.706090 2.71250 72.30 134.380310
2.67 2.69210 2.7250 71.40 129.817490
2.66 2.67810 2.73750 70.50 125.254670
2.65 2.668770 2.750 69.60 120.691850
2.64 2.659440 2.76250 68.70 116.129030
