~VERSION INFORMATION SECTION
VERS. 2.0 : CWLS LAS-VERSION 2.0
WRAP. NO : One line per depth step
~WELL INFORMATION SECTION
# MNEM.UNIT VALUE/NAME DESCRIPTION
#-------- -------------- ---------------------
STRT.Metres 15 : Start
STOP.Metres 0.33 : Stop
STEP.Metres -0.01 : Step
NULL.  -999.25 :NULL VALUE
DATE. 2025-53-11 : DATE
~CURVE INFORMATION SECTION
DEPTH.Metres : 0 Depth
Depth. : 1 Depth
Incline.Deg : 2 Incline
Azimuth.Deg : 3 Azimuth
GR.CPS : 4 GR
~PARAMETER INFORMATION SECTION
~OTHER
#-------------------------------------------------
#Produced By: GeoVista Logger - Version 7.1.107.0
Natural Gamma Sonde - 6447
Verticality Sonde - 6292
#-------------------------------------------------
~ASCII LOG DATA
# ...
11.15 11.190520 3.80 79.30 153.333330
11.14 11.179910 3.80 79.30 150.0
11.13 11.16930 3.80 79.30 146.666670
11.12 11.158470 3.792310 79.061540 143.333330
11.11 11.147630 3.784620 78.823080 140.0
11.10 11.136790 3.776920 78.584620 136.666670
11.09 11.125960 3.769230 78.346150 139.743590
11.08 11.115350 3.761540 78.107690 142.820510
11.07 11.104740 3.753850 77.869230 145.897440
11.06 11.094130 3.746150 77.630770 148.974360
11.05 11.083520 3.738460 77.392310 152.051280
11.04 11.075030 3.730770 77.153850 155.128210
11.03 11.066550 3.723080 76.915380 158.205130
11.02 11.058060 3.715380 76.676920 161.282050
11.01 11.049570 3.707690 76.438460 164.358970
11.00 11.041080 3.70 76.20 167.43590
10.99 11.030470 3.707690 75.961540 170.512820
10.98 11.019860 3.715380 75.723080 173.589740
10.97 11.009260 3.723080 75.484620 176.666670
10.96 10.998650 3.730770 75.246150 173.589740
10.95 10.988040 3.738460 75.007690 170.512820
10.94 10.977430 3.746150 74.769230 167.43590
10.93 10.966820 3.753850 74.530770 164.358970
10.92 10.956210 3.761540 74.292310 161.282050
10.91 10.94560 3.769230 74.053850 158.205130
10.90 10.934990 3.776920 73.815380 155.128210
10.89 10.924380 3.784620 73.576920 152.051280
10.88 10.913770 3.792310 73.338460 148.974360
10.87 10.90510 3.80 73.10 145.897440
10.86 10.896430 3.808330 73.383330 142.820510
10.85 10.887770 3.816670 73.666670 139.743590
10.84 10.87910 3.8250 73.950 136.666670
10.83 10.870430 3.833330 74.233330 138.333330
10.82 10.860050 3.841670 74.516670 140.0
10.81 10.849660 3.850 74.80 141.666670
10.80 10.839280 3.858330 75.083330 143.333330
10.79 10.828890 3.866670 75.366670 145.0
10.78 10.818280 3.8750 75.650 146.666670
10.77 10.807670 3.883330 75.933330 148.333330
10.76 10.797070 3.891670 76.216670 150.0
10.75 10.786460 3.90 76.50 151.666670
10.74 10.775850 3.907690 76.807690 153.333330
10.73 10.765240 3.915380 77.115380 155.0
10.72 10.754630 3.923080 77.423080 156.666670
10.71 10.744020 3.930770 77.730770 157.692310
10.70 10.735710 3.938460 78.038460 158.717950
10.69 10.72740 3.946150 78.346150 159.743590
10.68 10.71910 3.953850 78.653850 160.769230
10.67 10.710790 3.961540 78.961540 161.794870
10.66 10.702480 3.969230 79.269230 162.820510
10.65 10.691650 3.976920 79.576920 163.846150
10.64 10.680810 3.984620 79.884620 164.871790
10.63 10.669980 3.992310 80.192310 165.897440
10.62 10.659140 4.0 80.50 166.923080
10.61 10.648760 4.0 79.923080 167.948720
10.60 10.638370 4.0 79.346150 168.974360
10.59 10.627990 4.0 78.769230 170.0
10.58 10.617610 4.0 78.192310 170.256410
10.57 10.6070 4.0 77.615380 170.512820
10.56 10.596390 4.0 77.038460 170.769230
10.55 10.585780 4.0 76.461540 171.025640
10.54 10.575170 4.0 75.884620 171.282050
10.53 10.564790 4.0 75.307690 171.538460
10.52 10.55440 4.0 74.730770 171.794870
10.51 10.544020 4.0 74.153850 172.051280
10.50 10.533630 4.0 73.576920 172.307690
10.49 10.525150 4.0 73.0 172.56410
10.48 10.516660 3.976920 73.40 172.820510
10.47 10.508170 3.953850 73.80 173.076920
10.46 10.499680 3.930770 74.20 173.333330
10.45 10.49120 3.907690 74.60 170.833330
10.44 10.480590 3.884620 75.0 168.333330
10.43 10.469980 3.861540 75.40 165.833330
10.42 10.459370 3.838460 75.80 163.333330
10.41 10.448760 3.815380 76.20 160.833330
10.40 10.438150 3.792310 76.60 158.333330
10.39 10.427540 3.769230 77.0 155.833330
10.38 10.416930 3.746150 77.40 153.333330
10.37 10.406320 3.723080 77.80 150.833330
10.36 10.395710 3.70 78.20 148.333330
10.35 10.38510 3.683330 78.758330 145.833330
10.34 10.374490 3.666670 79.316670 143.333330
10.33 10.363880 3.650 79.8750 145.641030
10.32 10.35540 3.633330 80.433330 147.948720
10.31 10.346910 3.616670 80.991670 150.256410
10.30 10.338420 3.60 81.550 152.56410
10.29 10.329930 3.583330 82.108330 154.871790
10.28 10.321440 3.566670 82.666670 157.179490
10.27 10.310610 3.550 83.2250 159.487180
10.26 10.299770 3.533330 83.783330 161.794870
10.25 10.288940 3.516670 84.341670 164.102560
10.24 10.27810 3.50 84.90 166.410260
10.23 10.267490 3.453850 83.723080 168.717950
10.22 10.256880 3.407690 82.546150 171.025640
10.21 10.246280 3.361540 81.369230 173.333330
10.20 10.235670 3.315380 80.192310 172.820510
10.19 10.225060 3.269230 79.015380 172.307690
10.18 10.214450 3.223080 77.838460 171.794870
10.17 10.203840 3.176920 76.661540 171.282050
10.16 10.193230 3.130770 75.484620 170.769230
10.15 10.184740 3.084620 74.307690 170.256410
10.14 10.176250 3.038460 73.130770 169.743590
10.13 10.167770 2.992310 71.953850 169.230770
10.12 10.159280 2.946150 70.776920 168.717950
10.11 10.150790 2.90 69.60 168.205130
10.10 10.139950 2.915380 69.869230 167.692310
10.09 10.129120 2.930770 70.138460 167.179490
10.08 10.118280 2.946150 70.407690 166.666670
10.07 10.107450 2.961540 70.676920 163.333330
10.06 10.096840 2.976920 70.946150 160.0
10.05 10.086230 2.992310 71.215380 156.666670
10.04 10.075620 3.007690 71.484620 153.333330
10.03 10.065010 3.023080 71.753850 150.0
10.02 10.05440 3.038460 72.023080 146.666670
10.01 10.043790 3.053850 72.292310 143.333330
10.00 10.033180 3.069230 72.561540 140.0
9.99 10.022570 3.084620 72.830770 136.666670
9.98 10.014090 3.10 73.10 133.333330
9.97 10.00560 3.1250 73.641670 130.0
9.96 9.997110 3.150 74.183330 126.666670
9.95 9.988620 3.1750 74.7250 123.333330
9.94 9.980140 3.20 75.266670 126.388890
9.93 9.96930 3.2250 75.808330 129.444440
9.92 9.958470 3.250 76.350 132.50
9.91 9.947630 3.2750 76.891670 135.555560
9.90 9.936790 3.30 77.433330 138.611110
9.89 9.926410 3.3250 77.9750 141.666670
9.88 9.916030 3.350 78.516670 144.722220
9.87 9.905640 3.3750 79.058330 147.777780
9.86 9.895260 3.40 79.60 150.833330
9.85 9.884650 3.376920 78.90 153.888890
9.84 9.874040 3.353850 78.20 156.944440
9.83 9.863430 3.330770 77.50 160.0
9.82 9.852820 3.307690 76.80 160.512820
9.81 9.844330 3.284620 76.10 161.025640
9.80 9.835850 3.261540 75.40 161.538460
9.79 9.827360 3.238460 74.70 162.051280
9.78 9.818870 3.215380 74.0 162.56410
9.77 9.810380 3.192310 73.30 163.076920
9.76 9.80 3.169230 72.60 163.589740
9.75 9.789620 3.146150 71.90 164.102560
9.74 9.779230 3.123080 71.20 164.615380
9.73 9.768850 3.10 70.50 165.128210
9.72 9.758240 3.069230 70.746150 165.641030
9.71 9.747630 3.038460 70.992310 166.153850
9.70 9.737020 3.007690 71.238460 166.666670
9.69 9.726410 2.976920 71.484620 165.384620
9.68 9.716030 2.946150 71.730770 164.102560
9.67 9.705640 2.915380 71.976920 162.820510
9.66 9.695260 2.884620 72.223080 161.538460
9.65 9.684880 2.853850 72.469230 160.256410
9.64 9.676390 2.823080 72.715380 158.974360
9.63 9.66790 2.792310 72.961540 157.692310
9.62 9.659410 2.761540 73.207690 156.410260
9.61 9.650930 2.730770 73.453850 155.128210
9.60 9.642440 2.70 73.70 153.846150
9.59 9.631830 2.723080 73.630770 152.56410
9.58 9.621220 2.746150 73.561540 151.282050
9.57 9.610610 2.769230 73.492310 150.0
9.56 9.60 2.792310 73.423080 147.446240
9.55 9.589390 2.815380 73.353850 144.892470
9.54 9.578780 2.838460 73.284620 142.338710
9.53 9.568170 2.861540 73.215380 139.784950
9.52 9.557560 2.884620 73.146150 137.231180
9.51 9.546730 2.907690 73.076920 134.677420
9.50 9.535890 2.930770 73.007690 132.123660
9.49 9.525060 2.953850 72.938460 129.569890
9.48 9.514220 2.976920 72.869230 127.016130
9.47 9.505730 3.0 72.80 124.462370
9.46 9.497250 3.041670 73.666670 121.90860
9.45 9.488760 3.083330 74.533330 119.354840
9.44 9.480270 3.1250 75.40 122.224980
9.43 9.471780 3.166670 76.266670 125.095120
9.42 9.461170 3.208330 77.133330 127.965260
9.41 9.450560 3.250 78.0 130.83540
9.40 9.439950 3.291670 78.866670 133.705540
9.39 9.429350 3.333330 79.733330 136.575680
9.38 9.418740 3.3750 80.60 139.445820
9.37 9.408130 3.416670 81.466670 142.315960
9.36 9.397520 3.458330 82.333330 145.18610
9.35 9.386910 3.50 83.20 148.056240
9.34 9.376070 3.492310 82.384620 150.926390
9.33 9.365240 3.484620 81.569230 153.796530
9.32 9.35440 3.476920 80.753850 156.666670
9.31 9.343570 3.469230 79.938460 152.820510
9.30 9.335080 3.461540 79.123080 148.974360
9.29 9.326590 3.453850 78.307690 145.128210
9.28 9.31810 3.446150 77.492310 141.282050
