~VERSION INFORMATION SECTION
VERS. 2.0 : CWLS LAS-VERSION 2.0
WRAP. NO : One line per depth step
~WELL INFORMATION SECTION
# MNEM.UNIT VALUE/NAME DESCRIPTION
#-------- -------------- ---------------------
STRT.Metres 15 : Start
STOP.Metres 0.33 : Stop
STEP.Metres -0.01 : Step
NULL.  -999.25 :NULL VALUE
DATE. 2025-53-11 : DATE
~CURVE INFORMATION SECTION
DEPTH.Metres : 0 Depth
Depth. : 1 Depth
Incline.Deg : 2 Incline
Azimuth.Deg : 3 Azimuth
GR.CPS : 4 GR
~PARAMETER INFORMATION SECTION
~OTHER
#-------------------------------------------------
#Produced By: GeoVista Logger - Version 7.1.107.0
Natural Gamma Sonde - 6447
Verticality Sonde - 6292
#-------------------------------------------------
~ASCII LOG DATA
# ...
3.46 3.500230 2.628570 59.814290 146.666670
3.45 3.489840 2.642860 60.671430 147.948720
3.44 3.479460 2.657140 61.528570 149.230770
3.43 3.469070 2.671430 62.385710 150.512820
3.42 3.458470 2.685710 63.242860 151.794870
3.41 3.447860 2.70 64.10 153.076920
3.40 3.437250 2.714290 64.957140 154.358970
3.39 3.426640 2.728570 65.814290 155.641030
3.38 3.41580 2.742860 66.671430 156.923080
3.37 3.404970 2.757140 67.528570 158.205130
3.36 3.394130 2.771430 68.385710 159.487180
3.35 3.38330 2.785710 69.242860 160.769230
3.34 3.374810 2.80 70.10 162.051280
3.33 3.366320 2.691670 69.250 163.333330
3.32 3.357830 2.583330 68.40 160.512820
3.31 3.349350 2.4750 67.550 157.692310
3.30 3.340860 2.366670 66.70 154.871790
3.29 3.330020 2.258330 65.850 152.051280
3.28 3.319190 2.150 65.0 149.230770
3.27 3.308350 2.041670 64.150 146.410260
3.26 3.297520 1.933330 63.30 143.589740
3.25 3.286680 1.8250 62.450 140.769230
3.24 3.275850 1.716670 61.60 137.948720
3.23 3.265010 1.608330 60.750 135.128210
3.22 3.254180 1.50 59.90 132.307690
3.21 3.245510 1.576920 60.407690 129.487180
3.20 3.236840 1.653850 60.915380 126.666670
3.19 3.228170 1.730770 61.423080 125.384620
3.18 3.21950 1.807690 61.930770 124.102560
3.17 3.210840 1.884620 62.438460 122.820510
3.16 3.20 1.961540 62.946150 121.538460
3.15 3.189160 2.038460 63.453850 120.256410
3.14 3.178330 2.115380 63.961540 118.974360
3.13 3.167490 2.192310 64.469230 117.692310
3.12 3.156880 2.269230 64.976920 116.410260
3.11 3.146280 2.346150 65.484620 115.128210
3.10 3.135670 2.423080 65.992310 113.846150
3.09 3.125060 2.50 66.50 112.56410
3.08 3.116390 2.553850 66.561540 111.282050
3.07 3.107720 2.607690 66.623080 110.0
3.06 3.099050 2.661540 66.684620 111.282050
3.05 3.090380 2.715380 66.746150 112.56410
3.04 3.081720 2.769230 66.807690 113.846150
3.03 3.070650 2.823080 66.869230 115.128210
3.02 3.059590 2.876920 66.930770 116.410260
3.01 3.048530 2.930770 66.992310 117.692310
3.00 3.037470 2.984620 67.053850 118.974360
2.99 3.026640 3.038460 67.115380 120.256410
2.98 3.01580 3.092310 67.176920 121.538460
2.97 3.004970 3.146150 67.238460 122.820510
2.96 2.994130 3.20 67.30 124.102560
2.95 2.985460 3.20 67.307690 125.384620
2.94 2.976790 3.20 67.315380 126.666670
2.93 2.968130 3.20 67.323080 131.538460
2.92 2.959460 3.20 67.330770 136.410260
2.91 2.950790 3.20 67.338460 141.282050
2.90 2.939950 3.20 67.346150 146.153850
2.89 2.929120 3.20 67.353850 151.025640
2.88 2.918280 3.20 67.361540 155.897440
2.87 2.907450 3.20 67.369230 160.769230
2.86 2.89860 3.20 67.376920 165.641030
2.85 2.889750 3.20 67.384620 170.512820
2.84 2.88090 3.20 67.392310 175.384620
2.83 2.872050 3.20 67.40 180.256410
2.82 2.863210 3.184620 67.015380 185.128210
2.81 2.852370 3.169230 66.630770 190.0
2.80 2.841530 3.153850 66.246150 195.664340
2.79 2.83070 3.138460 65.861540 201.328670
2.78 2.819860 3.123080 65.476920 206.993010
2.77 2.809030 3.107690 65.092310 212.657340
2.76 2.798190 3.092310 64.707690 218.321680
2.75 2.787360 3.076920 64.323080 223.986010
2.74 2.776520 3.061540 63.938460 229.650350
2.73 2.767670 3.046150 63.553850 235.314690
2.72 2.758830 3.030770 63.169230 240.979020
2.71 2.749980 3.015380 62.784620 246.643360
2.70 2.741130 3.0 62.40 252.307690
2.69 2.732280 3.015380 62.838460 257.972030
2.68 2.721440 3.030770 63.276920 263.636360
2.67 2.710610 3.046150 63.715380 255.502390
2.66 2.699770 3.061540 64.153850 247.368420
2.65 2.688940 3.076920 64.592310 239.234450
2.64 2.67810 3.092310 65.030770 231.100480
2.63 2.667270 3.107690 65.469230 222.966510
2.62 2.656430 3.123080 65.907690 214.832540
2.61 2.64560 3.138460 66.346150 206.698560
2.60 2.636930 3.153850 66.784620 198.564590
2.59 2.628260 3.169230 67.223080 190.430620
2.58 2.619590 3.184620 67.661540 182.296650
2.57 2.610930 3.20 68.10 174.162680
2.56 2.602260 3.107690 67.569230 166.028710
2.55 2.591420 3.015380 67.038460 157.894740
2.54 2.580590 2.923080 66.507690 158.056680
2.53 2.569750 2.830770 65.976920 158.218620
2.52 2.558920 2.738460 65.446150 158.380570
2.51 2.548080 2.646150 64.915380 158.542510
2.50 2.537250 2.553850 64.384620 158.704450
2.49 2.526410 2.461540 63.853850 158.86640
2.48 2.515580 2.369230 63.323080 159.028340
2.47 2.506910 2.276920 62.792310 159.190280
2.46 2.498240 2.184620 62.261540 159.352230
2.45 2.489570 2.092310 61.730770 159.514170
2.44 2.48090 2.0 61.20 159.676110
2.43 2.472230 2.053850 61.60 159.838060
2.42 2.46140 2.107690 62.0 160.0
2.41 2.450560 2.161540 62.40 162.56410
2.40 2.439730 2.215380 62.80 165.128210
2.39 2.428890 2.269230 63.20 167.692310
2.38 2.418280 2.323080 63.60 170.256410
2.37 2.407670 2.376920 64.0 172.820510
2.36 2.397070 2.430770 64.40 175.384620
2.35 2.386460 2.484620 64.80 177.948720
2.34 2.375850 2.538460 65.20 180.512820
2.33 2.365240 2.592310 65.60 183.076920
2.32 2.354630 2.646150 66.0 185.641030
2.31 2.344020 2.70 66.40 188.205130
2.30 2.335710 2.730770 66.423080 190.769230
2.29 2.32740 2.761540 66.446150 193.333330
2.28 2.31910 2.792310 66.469230 189.627790
2.27 2.310790 2.823080 66.492310 185.922250
2.26 2.302480 2.853850 66.515380 182.216710
2.25 2.291650 2.884620 66.538460 178.511170
2.24 2.280810 2.915380 66.561540 174.805620
2.23 2.269980 2.946150 66.584620 171.100080
2.22 2.259140 2.976920 66.607690 167.394540
2.21 2.248530 3.007690 66.630770 163.6890
2.20 2.237920 3.038460 66.653850 159.983460
2.19 2.227310 3.069230 66.676920 156.277920
2.18 2.21670 3.10 66.70 152.572370
2.17 2.205870 3.092310 66.915380 148.866830
2.16 2.195030 3.084620 67.130770 145.161290
2.15 2.18420 3.076920 67.346150 146.046320
2.14 2.173360 3.069230 67.561540 146.931350
2.13 2.16470 3.061540 67.776920 147.816380
2.12 2.156030 3.053850 67.992310 148.701410
2.11 2.147360 3.046150 68.207690 149.586440
2.10 2.138690 3.038460 68.423080 150.471460
2.09 2.130020 3.030770 68.638460 151.356490
2.08 2.118960 3.023080 68.853850 152.241520
2.07 2.10790 3.015380 69.069230 153.126550
2.06 2.096840 3.007690 69.284620 154.011580
2.05 2.085780 3.0 69.50 154.896610
2.04 2.077110 2.976920 69.538460 155.781640
2.03 2.068440 2.953850 69.576920 156.666670
2.02 2.059770 2.930770 69.615380 155.128210
2.01 2.051110 2.907690 69.653850 153.589740
2.00 2.042440 2.884620 69.692310 152.051280
1.99 2.031830 2.861540 69.730770 150.512820
1.98 2.021220 2.838460 69.769230 148.974360
1.97 2.010610 2.815380 69.807690 147.43590
1.96 2.0 2.792310 69.846150 145.897440
1.95 1.988940 2.769230 69.884620 144.358970
1.94 1.977880 2.746150 69.923080 142.820510
1.93 1.966820 2.723080 69.961540 141.282050
1.92 1.955760 2.70 70.0 139.743590
1.91 1.947090 2.715380 69.946150 138.205130
1.90 1.938420 2.730770 69.892310 136.666670
1.89 1.929750 2.746150 69.838460 140.0
1.88 1.921080 2.761540 69.784620 143.333330
1.87 1.912420 2.776920 69.730770 146.666670
1.86 1.901580 2.792310 69.676920 150.0
1.85 1.890740 2.807690 69.623080 153.333330
1.84 1.879910 2.823080 69.569230 156.666670
1.83 1.869070 2.838460 69.515380 160.0
1.82 1.858240 2.853850 69.461540 163.333330
1.81 1.84740 2.869230 69.407690 166.666670
1.80 1.836570 2.884620 69.353850 170.0
1.79 1.825730 2.90 69.30 173.333330
1.78 1.817070 2.888460 70.007690 176.666670
1.77 1.80840 2.876920 70.715380 180.0
1.76 1.799730 2.865380 71.423080 178.717950
1.75 1.791060 2.853850 72.130770 177.43590
1.74 1.782390 2.842310 72.838460 176.153850
1.73 1.771780 2.830770 73.546150 174.871790
1.72 1.761170 2.819230 74.253850 173.589740
1.71 1.750560 2.807690 74.961540 172.307690
1.70 1.739950 2.796150 75.669230 171.025640
1.69 1.729120 2.784620 76.376920 169.743590
1.68 1.718280 2.773080 77.084620 168.461540
1.67 1.707450 2.761540 77.792310 167.179490
1.66 1.696610 2.750 78.50 165.897440
1.65 1.6860 2.738460 79.207690 164.615380
1.64 1.67540 2.726920 79.915380 163.333330
1.63 1.664790 2.715380 80.623080 161.025640
1.62 1.654180 2.703850 81.330770 158.717950
1.61 1.645510 2.692310 82.038460 156.410260
1.60 1.636840 2.680770 82.746150 154.102560
1.59 1.628170 2.669230 83.453850 151.794870
1.58 1.61950 2.657690 84.161540 149.487180
1.57 1.610840 2.646150 84.869230 147.179490
