~VERSION INFORMATION SECTION
VERS. 2.0 : CWLS LAS-VERSION 2.0
WRAP. NO : One line per depth step
~WELL INFORMATION SECTION
# MNEM.UNIT VALUE/NAME DESCRIPTION
#-------- -------------- ---------------------
STRT.Metres 16 : Start
STOP.Metres 0.43 : Stop
STEP.Metres -0.01 : Step
NULL.  -999.25 :NULL VALUE
DATE. 2025-47-11 : DATE
~CURVE INFORMATION SECTION
DEPTH.Metres : 0 Depth
Depth. : 1 Depth
Incline.Deg : 2 Incline
Azimuth.Deg : 3 Azimuth
GR.CPS : 4 GR
~PARAMETER INFORMATION SECTION
~OTHER
#-------------------------------------------------
#Produced By: GeoVista Logger - Version 7.1.107.0
Natural Gamma Sonde - 6447
Verticality Sonde - 6292
#-------------------------------------------------
~ASCII LOG DATA
# ...
3.38 3.394130 3.20 67.30 152.777780
3.37 3.384650 3.20 67.90 150.0
3.36 3.375170 3.20 68.50 147.777780
3.35 3.365690 3.216670 67.633330 145.555560
3.34 3.356210 3.233330 66.766670 143.333330
3.33 3.347180 3.250 65.90 141.111110
3.32 3.338150 3.266670 65.033330 138.888890
3.31 3.319190 3.283330 64.166670 136.666670
3.30 3.309710 3.30 63.30 140.946240
3.29 3.300230 3.30 63.26250 145.225810
3.28 3.290740 3.30 63.2250 149.505380
3.27 3.281260 3.30 63.18750 153.784950
3.26 3.271780 3.30 63.150 158.064520
3.25 3.26230 3.30 63.11250 156.720430
3.24 3.252820 3.30 63.0750 155.376340
3.23 3.243340 3.30 63.03750 154.032260
3.22 3.234310 3.30 63.0 152.688170
3.21 3.225280 3.30 62.96250 151.344090
3.20 3.21580 3.30 62.9250 150.0
3.19 3.206320 3.30 62.88750 145.0
3.18 3.196840 3.30 62.850 140.0
3.17 3.187360 3.30 62.81250 135.0
3.16 3.177880 3.30 62.7750 130.0
3.15 3.16840 3.30 62.73750 125.0
3.14 3.149440 3.30 62.70 120.0
3.13 3.139950 3.283330 63.30 118.666670
3.12 3.130470 3.266670 63.90 117.333330
3.11 3.121440 3.250 64.50 116.0
3.10 3.112420 3.233330 65.10 114.666670
3.09 3.102930 3.216670 65.70 113.333330
3.08 3.093450 3.20 66.30 119.444440
3.07 3.083970 3.20 66.250 125.555560
3.06 3.074490 3.20 66.20 131.666670
3.05 3.064560 3.20 66.150 137.777780
3.04 3.054630 3.20 66.10 143.888890
3.03 3.045150 3.20 66.050 150.0
3.02 3.035670 3.20 66.0 155.0
3.01 3.026190 3.20 64.90 160.0
3.00 3.01670 3.20 63.80 165.0
2.99 3.007220 3.20 62.70 170.0
2.98 2.997740 3.20 61.60 175.0
2.97 2.988260 3.20 60.50 180.0
2.96 2.978780 3.166670 61.183330 174.444440
2.95 2.959820 3.133330 61.866670 168.888890
2.94 2.950340 3.10 62.550 163.333330
2.93 2.940860 3.066670 63.233330 157.777780
2.92 2.931380 3.033330 63.916670 152.222220
2.91 2.92190 3.0 64.60 146.666670
2.90 2.912420 3.016670 64.466670 145.333330
2.89 2.902930 3.033330 64.333330 144.0
2.88 2.893450 3.050 64.20 142.666670
2.87 2.883970 3.066670 64.066670 141.333330
2.86 2.874490 3.083330 63.933330 140.0
2.85 2.865010 3.10 63.80 142.424240
2.84 2.855530 3.120 63.520 144.848480
2.83 2.846050 3.140 63.240 147.272730
2.82 2.836570 3.160 62.960 149.696970
2.81 2.827090 3.180 62.680 152.121210
2.80 2.817610 3.20 62.40 154.545450
2.79 2.808130 3.20 63.233330 155.103670
2.78 2.798650 3.20 64.066670 155.661880
2.77 2.789160 3.20 64.90 156.22010
2.76 2.76930 3.20 65.733330 156.778310
2.75 2.759820 3.20 66.566670 157.336520
2.74 2.750340 3.20 67.40 157.894740
2.73 2.740860 3.166670 67.20 161.649120
2.72 2.731380 3.133330 67.0 165.403510
2.71 2.72190 3.10 66.80 169.157890
2.70 2.712420 3.066670 66.60 172.912280
2.69 2.702930 3.033330 66.40 176.666670
2.68 2.693450 3.0 66.20 176.666670
2.67 2.683970 3.020 66.420 176.666670
2.66 2.674490 3.040 66.640 176.666670
2.65 2.665010 3.060 66.860 176.666670
2.64 2.655530 3.080 67.080 176.666670
2.63 2.646050 3.10 67.30 176.666670
2.62 2.636570 3.10 67.016670 175.878790
2.61 2.627540 3.10 66.733330 175.090910
2.60 2.618510 3.10 66.450 174.303030
2.59 2.599550 3.10 66.166670 173.515150
2.58 2.590070 3.10 65.883330 172.727270
2.57 2.580590 3.10 65.60 171.212120
2.56 2.571110 3.10 65.050 169.696970
2.55 2.561630 3.10 64.50 168.181820
2.54 2.552140 3.10 63.950 166.666670
2.53 2.542660 3.10 63.40 165.151520
2.52 2.533180 3.10 62.850 163.636360
2.51 2.52370 3.10 62.30 167.942580
2.50 2.514220 3.120 62.260 172.24880
2.49 2.504740 3.140 62.220 176.555020
2.48 2.495260 3.160 62.180 180.861240
2.47 2.485780 3.180 62.140 185.167460
2.46 2.47630 3.20 62.10 189.473680
2.45 2.466820 3.166670 62.466670 178.912280
2.44 2.457790 3.133330 62.833330 168.350880
2.43 2.448760 3.10 63.20 157.789470
2.42 2.42980 3.066670 63.566670 147.228070
2.41 2.420770 3.033330 63.933330 136.666670
2.40 2.411740 3.0 64.30 137.222220
2.39 2.402260 3.033330 63.033330 137.777780
2.38 2.392780 3.066670 61.766670 138.333330
2.37 2.383750 3.10 60.50 138.888890
2.36 2.374720 3.133330 59.233330 139.444440
2.35 2.365690 3.166670 57.966670 140.0
2.34 2.356660 3.20 56.70 135.0
2.33 2.347180 3.160 59.10 130.0
2.32 2.33770 3.120 61.50 125.0
2.31 2.319640 3.080 63.90 120.0
2.30 2.310160 3.040 66.30 115.0
2.29 2.300680 3.0 68.70 110.0
2.28 2.29120 3.016670 68.466670 116.0
2.27 2.281720 3.033330 68.233330 122.0
2.26 2.272230 3.050 68.0 128.0
2.25 2.262750 3.066670 67.766670 134.0
2.24 2.253720 3.083330 67.533330 140.0
2.23 2.24470 3.10 67.30 134.40860
2.22 2.235210 3.083330 67.60 128.81720
2.21 2.225730 3.066670 67.90 123.225810
2.20 2.216250 3.050 68.20 117.634410
2.19 2.206770 3.033330 68.50 112.043010
2.18 2.197290 3.016670 68.80 106.451610
2.17 2.187810 3.0 69.10 110.376340
2.16 2.178330 2.980 69.540 114.301080
2.15 2.168850 2.960 69.980 118.225810
2.14 2.149890 2.940 70.420 122.150540
2.13 2.140410 2.920 70.860 126.075270
2.12 2.130930 2.90 71.30 130.0
2.11 2.121440 2.90 71.366670 139.333330
2.10 2.111960 2.90 71.433330 148.666670
2.09 2.102480 2.90 71.50 158.0
2.08 2.0930 2.90 71.566670 167.333330
2.07 2.083520 2.90 71.633330 176.666670
2.06 2.074040 2.90 71.70 168.888890
2.05 2.064560 2.920 70.70 161.111110
2.04 2.055080 2.940 69.70 153.333330
2.03 2.04560 2.960 68.70 145.555560
2.02 2.036120 2.980 67.70 137.777780
2.01 2.026640 3.0 66.70 130.0
2.00 2.017160 2.950 69.216670 131.111110
1.99 2.007670 2.90 71.733330 132.222220
1.98 1.998190 2.850 74.250 133.333330
1.97 1.979230 2.80 76.766670 134.444440
1.96 1.969750 2.750 79.283330 135.555560
1.95 1.960270 2.70 81.80 136.666670
1.94 1.950790 2.666670 81.40 137.777780
1.93 1.941310 2.633330 81.0 138.888890
1.92 1.931830 2.60 80.60 140.0
1.91 1.922350 2.566670 80.20 141.111110
1.90 1.912870 2.533330 79.80 142.222220
1.89 1.903390 2.50 79.40 143.333330
1.88 1.893910 2.560 76.740 142.0
1.87 1.884420 2.620 74.080 140.666670
1.86 1.874940 2.680 71.420 139.333330
1.85 1.865460 2.740 68.760 138.0
1.84 1.855980 2.80 66.10 136.666670
1.83 1.84650 2.791670 66.6750 140.555560
1.82 1.837020 2.783330 67.250 144.444440
1.81 1.827540 2.7750 67.8250 148.333330
1.80 1.808580 2.766670 68.40 152.222220
1.79 1.799550 2.758330 68.9750 156.111110
1.78 1.790520 2.750 69.550 160.0
1.77 1.781040 2.741670 70.1250 152.0
1.76 1.771560 2.733330 70.70 144.0
1.75 1.762080 2.7250 71.2750 136.0
1.74 1.75260 2.716670 71.850 128.0
1.73 1.743120 2.708330 72.4250 120.0
1.72 1.733630 2.70 73.0 122.777780
1.71 1.72460 2.70 71.480 125.555560
1.70 1.715580 2.70 69.960 128.333330
1.69 1.706090 2.70 68.440 131.111110
1.68 1.696610 2.70 66.920 133.888890
1.67 1.687130 2.70 65.40 136.666670
1.66 1.677650 2.683330 67.183330 137.222220
1.65 1.668170 2.666670 68.966670 137.777780
1.64 1.658690 2.650 70.750 138.333330
1.63 1.639730 2.633330 72.533330 138.888890
1.62 1.630250 2.616670 74.316670 139.444440
1.61 1.620770 2.60 76.10 140.0
1.60 1.611740 2.583330 74.283330 138.0
1.59 1.602710 2.566670 72.466670 136.0
1.58 1.593680 2.550 70.650 134.0
1.57 1.584650 2.533330 68.833330 132.0
1.56 1.56930 2.516670 67.016670 130.0
1.55 1.554850 2.50 65.20 134.444440
1.54 1.548080 2.560 65.520 138.888890
1.53 1.541310 2.620 65.840 143.333330
1.52 1.528670 2.680 66.160 147.777780
1.51 1.516930 2.740 66.480 152.222220
1.50 1.505190 2.80 66.80 156.666670
1.49 1.493450 2.791670 67.208330 158.666670
1.48 1.482620 2.783330 67.616670 160.666670
1.47 1.471780 2.7750 68.0250 162.666670
1.46 1.461850 2.766670 68.433330 164.666670
1.45 1.451020 2.758330 68.841670 166.666670
1.44 1.440180 2.750 69.250 167.222220
1.43 1.430250 2.741670 69.658330 167.777780
1.42 1.425280 2.733330 70.066670 168.333330
1.41 1.420320 2.7250 70.4750 168.888890
1.40 1.409480 2.716670 70.883330 169.444440
1.39 1.399550 2.708330 71.291670 170.0
1.38 1.388710 2.70 71.70 168.333330
1.37 1.379680 2.680 71.30 166.666670
1.36 1.365240 2.660 70.90 165.0
1.35 1.351690 2.640 70.50 163.333330
1.34 1.342660 2.620 70.10 161.666670
1.33 1.334540 2.60 69.70 160.0
1.32 1.32430 2.583330 70.80 158.666670
1.31 1.313120 2.566670 71.90 157.333330
1.30 -999.25 2.550 73.0 156.0
1.29 -999.25 2.533330 74.10 154.666670
1.28 -999.25 2.516670 75.20 153.333330
1.27 -999.25 2.50 76.30 153.888890
1.26 -999.25 2.450 76.450 154.444440
