~VERSION INFORMATION SECTION
VERS. 2.0 : CWLS LAS-VERSION 2.0
WRAP. NO : One line per depth step
~WELL INFORMATION SECTION
# MNEM.UNIT VALUE/NAME DESCRIPTION
#-------- -------------- ---------------------
STRT.Metres 15 : Start
STOP.Metres 0.50 : Stop
STEP.Metres -0.01 : Step
NULL.  -999.25 :NULL VALUE
DATE. 2025-50-11 : DATE
~CURVE INFORMATION SECTION
DEPTH.Metres : 0 Depth
Depth. : 1 Depth
Incline.Deg : 2 Incline
Azimuth.Deg : 3 Azimuth
GR.CPS : 4 GR
~PARAMETER INFORMATION SECTION
~OTHER
#-------------------------------------------------
#Produced By: GeoVista Logger - Version 7.1.107.0
Natural Gamma Sonde - 6447
Verticality Sonde - 6292
#-------------------------------------------------
~ASCII LOG DATA
# ...
11.00 11.027540 3.9250 77.2750 167.777780
10.99 11.013540 3.91250 77.28750 166.666670
10.98 10.999550 3.90 77.30 171.666670
10.97 10.990520 3.9250 77.3750 176.666670
10.96 10.981490 3.950 77.450 181.666670
10.95 10.972460 3.9750 77.5250 186.666670
10.94 10.963130 4.0 77.60 191.666670
10.93 10.95380 4.0250 77.6750 196.666670
10.92 10.944470 4.050 77.750 201.666670
10.91 10.930930 4.0750 77.8250 206.666670
10.90 10.917380 4.10 77.90 197.916670
10.89 10.908350 4.10 77.90 189.166670
10.88 10.899320 4.10 77.90 180.416670
10.87 10.890290 4.10 77.90 171.666670
10.86 10.880960 4.10 77.90 162.916670
10.85 10.871630 4.10 77.90 154.166670
10.84 10.86230 4.10 77.90 145.416670
10.83 10.853270 4.10 77.90 136.666670
10.82 10.844240 4.10 77.90 140.0
10.81 10.835210 4.10 77.90 143.333330
10.80 10.821670 4.08750 77.76250 146.666670
10.79 10.808130 4.0750 77.6250 150.0
10.78 10.79910 4.06250 77.48750 153.333330
10.77 10.790070 4.050 77.350 156.666670
10.76 10.781040 4.03750 77.21250 160.0
10.75 10.772010 4.0250 77.0750 163.333330
10.74 10.762980 4.01250 76.93750 162.083330
10.73 10.753950 4.0 76.80 160.833330
10.72 10.744620 3.9750 76.650 159.583330
10.71 10.735290 3.950 76.50 158.333330
10.70 10.725960 3.9250 76.350 157.083330
10.69 10.712420 3.90 76.20 155.833330
10.68 10.698870 3.8750 76.050 154.583330
10.67 10.689840 3.850 75.90 153.333330
10.66 10.680810 3.8250 75.750 154.166670
10.65 10.671780 3.80 75.60 155.0
10.64 10.662750 3.80 76.250 155.833330
10.63 10.653720 3.80 76.90 156.666670
10.62 10.64470 3.80 77.550 157.50
10.61 10.631150 3.80 78.20 158.333330
10.60 10.617610 3.80 78.850 159.166670
10.59 10.608580 3.80 79.50 160.0
10.58 10.599550 3.80 80.150 158.750
10.57 10.590520 3.80 80.80 157.50
10.56 10.581490 3.78750 80.66250 156.250
10.55 10.572460 3.7750 80.5250 155.0
10.54 10.563430 3.76250 80.38750 153.750
10.53 10.55410 3.750 80.250 152.50
10.52 10.544770 3.73750 80.11250 151.250
10.51 10.535440 3.7250 79.9750 150.0
10.50 10.52190 3.71250 79.83750 148.185480
10.49 10.508350 3.70 79.70 146.370970
10.48 10.499320 3.70 78.955560 144.556450
10.47 10.490290 3.70 78.211110 142.741940
10.46 10.481260 3.70 77.466670 140.927420
10.45 10.472230 3.70 76.722220 139.11290
10.44 10.463210 3.70 75.977780 137.298390
10.43 10.454180 3.70 75.233330 135.483870
10.42 10.445150 3.70 74.488890 139.3190
10.41 10.436120 3.70 73.744440 143.154120
10.40 10.427090 3.70 73.0 146.989250
10.39 10.413090 3.70 73.7250 150.824370
10.38 10.39910 3.70 74.450 154.65950
10.37 10.390070 3.70 75.1750 158.494620
10.36 10.381040 3.70 75.90 162.329750
10.35 10.372010 3.70 76.6250 166.164870
10.34 10.362980 3.70 77.350 170.0
10.33 10.353950 3.70 78.0750 170.0
10.32 10.344920 3.70 78.80 170.0
10.31 10.335890 3.60 79.3250 170.0
10.30 10.326860 3.50 79.850 170.0
10.29 10.317830 3.40 80.3750 170.0
10.28 10.303840 3.30 80.90 170.0
10.27 10.289840 3.20 81.4250 170.0
10.26 10.280810 3.10 81.950 170.0
10.25 10.271780 3.0 82.4750 166.666670
10.24 10.262750 2.90 83.0 163.333330
10.23 10.253720 2.96250 82.33750 160.0
10.22 10.24470 3.0250 81.6750 156.666670
10.21 10.235670 3.08750 81.01250 153.333330
10.20 10.222120 3.150 80.350 150.0
10.19 10.208580 3.21250 79.68750 146.666670
10.18 10.199250 3.2750 79.0250 143.333330
10.17 10.189920 3.33750 78.36250 143.750
10.16 10.180590 3.40 77.70 144.166670
10.15 10.171560 3.4250 77.9250 144.583330
10.14 10.162530 3.450 78.150 145.0
10.13 10.15350 3.4750 78.3750 145.416670
10.12 10.144470 3.50 78.60 145.833330
10.11 10.135440 3.5250 78.8250 146.250
10.10 10.126410 3.550 79.050 146.666670
10.09 10.112420 3.5750 79.2750 145.416670
10.08 10.098420 3.60 79.50 144.166670
10.07 10.089390 3.61250 79.58750 142.916670
10.06 10.080360 3.6250 79.6750 141.666670
10.05 10.071330 3.63750 79.76250 140.416670
10.04 10.06230 3.650 79.850 139.166670
10.03 10.053270 3.66250 79.93750 137.916670
10.02 10.044240 3.6750 80.0250 136.666670
10.01 10.034910 3.68750 80.11250 140.740740
10.00 10.025580 3.70 80.20 144.814810
9.99 10.016250 3.70 79.877780 148.888890
9.98 10.002710 3.70 79.555560 152.962960
9.97 9.989160 3.70 79.233330 157.037040
9.96 9.980140 3.70 78.911110 161.111110
9.95 9.971110 3.70 78.588890 165.185190
9.94 9.962080 3.70 78.266670 169.259260
9.93 9.953050 3.70 77.944440 173.333330
9.92 9.944020 3.70 77.622220 167.916670
9.91 9.934990 3.70 77.30 162.50
9.90 9.921440 3.6250 76.350 157.083330
9.89 9.90790 3.550 75.40 151.666670
9.88 9.899170 3.4750 74.450 146.250
9.87 9.890440 3.40 73.50 140.833330
9.86 9.881720 3.3250 72.550 135.416670
9.85 9.872690 3.250 71.60 130.0
9.84 9.863660 3.1750 70.650 135.833330
9.83 9.854630 3.10 69.70 141.666670
9.82 9.841080 3.11250 70.38750 147.50
9.81 9.827540 3.1250 71.0750 153.333330
9.80 9.818510 3.13750 71.76250 159.166670
9.79 9.809480 3.150 72.450 165.0
9.78 9.800450 3.16250 73.13750 170.833330
9.77 9.791420 3.1750 73.8250 176.666670
9.76 9.782390 3.18750 74.51250 176.250
9.75 9.773360 3.20 75.20 175.833330
9.74 9.764330 3.23750 75.16250 175.416670
9.73 9.75530 3.2750 75.1250 175.0
9.72 9.746280 3.31250 75.08750 174.583330
9.71 9.732730 3.350 75.050 174.166670
9.70 9.719190 3.38750 75.01250 173.750
9.69 9.710160 3.4250 74.9750 173.333330
9.68 9.701130 3.46250 74.93750 170.833330
9.67 9.69210 3.50 74.90 168.333330
9.66 9.683070 3.51250 75.63750 165.833330
9.65 9.674040 3.5250 76.3750 163.333330
9.64 9.665010 3.53750 77.11250 160.833330
9.63 9.651470 3.550 77.850 158.333330
9.62 9.637920 3.56250 78.58750 155.833330
9.61 9.628890 3.5750 79.3250 153.333330
9.60 9.619860 3.58750 80.06250 152.962960
9.59 9.610840 3.60 80.80 152.592590
9.58 9.601810 3.60 80.31250 152.222220
9.57 9.592780 3.60 79.8250 151.851850
9.56 9.583750 3.60 79.33750 151.481480
9.55 9.574420 3.60 78.850 151.111110
9.54 9.565090 3.60 78.36250 150.740740
9.53 9.555760 3.60 77.8750 150.370370
9.52 9.542210 3.60 77.38750 150.0
9.51 9.528670 3.60 76.90 151.666670
9.50 9.519640 3.611110 77.011110 153.333330
9.49 9.510610 3.622220 77.122220 155.0
9.48 9.501580 3.633330 77.233330 156.666670
9.47 9.492550 3.644440 77.344440 158.333330
9.46 9.483520 3.655560 77.455560 160.0
9.45 9.474490 3.666670 77.566670 161.666670
9.44 9.465460 3.677780 77.677780 163.333330
9.43 9.456430 3.688890 77.788890 161.666670
9.42 9.44740 3.70 77.90 160.0
9.41 9.433410 3.70 78.050 158.333330
9.40 9.419410 3.70 78.20 156.666670
9.39 9.410080 3.70 78.350 155.0
9.38 9.400750 3.70 78.50 153.333330
9.37 9.391420 3.70 78.650 151.666670
9.36 9.382390 3.70 78.80 150.0
9.35 9.373360 3.70 78.950 150.0
9.34 9.364330 3.70 79.10 150.0
9.33 9.3550 3.68750 78.51250 150.0
9.32 9.345670 3.6750 77.9250 150.0
9.31 9.336340 3.66250 77.33750 150.0
9.30 9.32280 3.650 76.750 150.0
9.29 9.309260 3.63750 76.16250 150.0
9.28 9.300230 3.6250 75.5750 150.0
9.27 9.29120 3.61250 74.98750 150.0
9.26 9.282170 3.60 74.40 150.0
9.25 9.273140 3.60 74.76250 150.0
9.24 9.264110 3.60 75.1250 150.0
9.23 9.255080 3.60 75.48750 150.0
9.22 9.245750 3.60 75.850 150.0
9.21 9.236420 3.60 76.21250 150.0
9.20 9.227090 3.60 76.5750 150.0
9.19 9.213540 3.60 76.93750 154.814810
9.18 9.20 3.60 77.30 159.629630
9.17 9.190970 3.56250 77.550 164.444440
9.16 9.181940 3.5250 77.80 169.259260
9.15 9.172910 3.48750 78.050 174.074070
9.14 9.163580 3.450 78.30 178.888890
9.13 9.154250 3.41250 78.550 183.70370
9.12 9.144920 3.3750 78.80 188.518520
9.11 9.131380 3.33750 79.050 193.333330
9.10 9.117830 3.30 79.30 185.833330
9.09 9.10880 3.311110 78.811110 178.333330
9.08 9.099770 3.322220 78.322220 170.833330
9.07 9.090740 3.333330 77.833330 163.333330
9.06 9.081720 3.344440 77.344440 155.833330
9.05 9.072690 3.355560 76.855560 148.333330
9.04 9.063660 3.366670 76.366670 140.833330
9.03 9.054630 3.377780 75.877780 133.333330
9.02 9.04560 3.388890 75.388890 132.916670
9.01 9.036570 3.40 74.90 132.50
9.00 9.023020 3.4250 74.7750 132.083330
8.99 9.009480 3.450 74.650 131.666670
8.98 9.000750 3.4750 74.5250 131.250
8.97 8.992020 3.50 74.40 130.833330
8.96 8.98330 3.5250 74.2750 130.416670
8.95 8.974270 3.550 74.150 130.0
8.94 8.965240 3.5750 74.0250 135.524190
8.93 8.956210 3.60 73.90 141.048390
