~VERSION INFORMATION SECTION
VERS. 2.0 : CWLS LAS-VERSION 2.0
WRAP. NO : One line per depth step
~WELL INFORMATION SECTION
# MNEM.UNIT VALUE/NAME DESCRIPTION
#-------- -------------- ---------------------
STRT.Metres 17 : Start
STOP.Metres 0.38 : Stop
STEP.Metres -0.01 : Step
NULL.  -999.25 :NULL VALUE
DATE. 2025-42-11 : DATE
~CURVE INFORMATION SECTION
DEPTH.Metres : 0 Depth
Depth. : 1 Depth
Incline.Deg : 2 Incline
Azimuth.Deg : 3 Azimuth
GR.CPS : 4 GR
~PARAMETER INFORMATION SECTION
~OTHER
#-------------------------------------------------
#Produced By: GeoVista Logger - Version 7.1.107.0
Natural Gamma Sonde - 6447
Verticality Sonde - 6292
#-------------------------------------------------
~ASCII LOG DATA
17.00 -999.25 -999.25 -999.25 -999.25
16.99 16.992330 -999.25 -999.25 -999.25
16.98 16.986460 -999.25 -999.25 -999.25
16.97 16.980590 -999.25 -999.25 -999.25
16.96 16.967040 -999.25 -999.25 -999.25
16.95 16.95440 -999.25 -999.25 -999.25
16.94 16.948080 5.90 80.283950 -999.25
16.93 16.941760 5.90 80.30 -999.25
16.92 16.927310 5.90 80.0 -999.25
16.91 16.914670 5.90 79.550 -999.25
16.90 16.90790 5.90 79.10 -999.25
16.89 16.901130 5.90 78.966670 -999.25
16.88 16.887580 5.90 78.833330 -999.25
16.87 16.874040 5.90 78.70 -999.25
16.86 16.867270 5.90 80.350 -999.25
16.85 16.86050 5.90 82.0 -999.25
16.84 16.846950 5.90 81.366670 -999.25
16.83 16.833410 5.90 80.733330 -999.25
16.82 16.827540 5.90 80.10 -999.25
16.81 16.821670 5.90 80.066670 -999.25
16.80 16.808130 5.90 80.033330 -999.25
16.79 16.795490 5.90 80.0 -999.25
16.78 16.783750 5.866670 80.133330 -999.25
16.77 16.776980 5.833330 80.266670 -999.25
16.76 16.77020 5.80 80.40 -999.25
16.75 16.757560 5.8250 80.7250 -999.25
16.74 16.745820 5.850 81.050 -999.25
16.73 16.739050 5.8750 81.3750 -999.25
16.72 16.732280 5.90 81.70 -999.25
16.71 16.719640 5.90 81.60 -999.25
16.70 16.7070 5.90 81.50 -999.25
16.69 16.694360 5.90 81.40 -999.25
16.68 16.688040 5.90 81.10 -999.25
16.67 16.681720 5.90 80.80 -999.25
16.66 16.669070 5.90 80.50 -999.25
16.65 16.656430 5.90 80.20 -999.25
16.64 16.64470 5.90 79.950 -999.25
16.63 16.632960 5.90 79.70 -999.25
16.62 16.626640 5.90 79.450 -999.25
16.61 16.620320 5.90 79.20 -999.25
16.60 16.608580 5.8750 79.2250 -999.25
16.59 16.597740 5.850 79.250 -999.25
16.58 16.58510 5.8250 79.2750 -999.25
16.57 16.573360 5.80 79.30 -999.25
16.56 16.567490 5.80 79.350 -999.25
16.55 16.561630 5.80 79.40 -999.25
16.54 16.548980 5.80 79.450 -999.25
16.53 16.537250 5.80 79.50 -999.25
16.52 16.526410 5.80 80.0250 -999.25
16.51 16.513770 5.80 80.550 -999.25
16.50 16.502930 5.80 81.0750 -999.25
16.49 16.497070 5.80 81.60 -999.25
16.48 16.49120 5.80 81.2250 -999.25
16.47 16.479460 5.80 80.850 -999.25
16.46 16.467720 5.80 80.4750 -999.25
16.45 16.456880 5.80 80.10 -999.25
16.44 16.444240 5.80 80.1250 -999.25
16.43 16.432510 5.80 80.150 -999.25
16.42 16.427090 5.80 80.1750 -999.25
16.41 16.421670 5.80 80.20 -999.25
16.40 16.409930 5.7750 79.7750 -999.25
16.39 16.398190 5.750 79.350 -999.25
16.38 16.387360 5.7250 78.9250 -999.25
16.37 16.375620 5.70 78.50 -999.25
16.36 16.364790 5.70 79.533330 144.967250
16.35 16.353950 5.70 80.566670 154.150290
16.34 16.341310 5.70 81.60 163.333330
16.33 16.335890 5.7250 82.150 153.333330
16.32 16.330470 5.750 82.70 136.666670
16.31 16.319640 5.7750 83.250 120.0
16.30 16.30790 5.80 83.80 103.333330
16.29 16.296160 5.70 81.80 145.0
16.28 16.285330 5.60 79.80 186.666670
16.27 16.273590 5.50 77.80 192.222220
16.26 16.262750 5.550 78.3750 197.777780
16.25 16.251920 5.60 78.950 203.333330
16.24 16.246050 5.650 79.5250 190.0
16.23 16.240180 5.70 80.10 176.666670
16.22 16.229350 5.666670 79.066670 163.333330
16.21 16.218510 5.633330 78.033330 164.444440
16.20 16.206770 5.60 77.0 165.555560
16.19 16.195030 5.6250 78.20 166.666670
16.18 16.18510 5.650 79.40 160.0
16.17 16.173360 5.6750 80.60 153.333330
16.16 16.162530 5.70 81.80 146.666670
16.15 16.15260 5.70 81.50 140.0
16.14 16.140860 5.70 81.20 144.444440
16.13 16.130020 5.70 80.90 148.888890
16.12 16.125060 5.70 80.6250 153.333330
16.11 16.120090 5.70 80.350 166.666670
16.10 16.108350 5.70 80.0750 180.0
16.09 16.094810 5.70 79.80 193.333330
16.08 16.087580 5.70 79.566670 206.666670
16.07 16.080360 5.70 79.333330 207.50
16.06 16.069530 5.70 79.10 208.333330
16.05 16.059590 5.6750 79.350 209.166670
16.04 16.048760 5.650 79.60 210.0
16.03 16.037920 5.6250 79.850 205.0
16.02 16.027990 5.60 80.10 200.0
16.01 16.017160 5.633330 81.033330 195.0
16.00 16.006320 5.666670 81.966670 190.0
15.99 15.996390 5.70 82.90 185.833330
15.98 15.985550 5.666670 82.133330 181.666670
15.97 15.974720 5.633330 81.366670 177.50
15.96 15.964790 5.60 80.60 173.333330
15.95 15.954850 5.60 80.3250 179.166670
15.94 15.944020 5.60 80.050 185.0
15.93 15.934090 5.60 79.7750 190.833330
15.92 15.923250 5.60 79.50 196.666670
15.91 15.913320 5.60 79.266670 191.666670
15.90 15.902480 5.60 79.033330 186.666670
15.89 15.891650 5.60 78.80 181.666670
15.88 15.881720 5.60 79.733330 176.666670
15.87 15.870880 5.60 80.666670 183.333330
15.86 15.860950 5.60 81.60 190.0
15.85 15.855530 5.60 81.466670 196.666670
15.84 15.850110 5.60 81.333330 195.88710
15.83 15.839280 5.60 81.20 195.107530
15.82 15.829350 5.533330 80.766670 194.327960
15.81 15.818510 5.466670 80.333330 193.548390
15.80 15.807670 5.40 79.90 181.827960
15.79 15.797740 5.4250 79.350 170.107530
15.78 15.786910 5.450 78.80 158.38710
15.77 15.776070 5.4750 78.250 146.666670
15.76 15.765240 5.50 77.70 150.833330
15.75 15.75530 5.50 77.933330 155.0
15.74 15.744470 5.50 78.166670 159.166670
15.73 15.733630 5.50 78.40 163.333330
15.72 15.72370 5.50 79.30 165.555560
15.71 15.712870 5.50 80.20 167.777780
15.70 15.702930 5.50 81.10 170.0
15.69 15.69210 5.5250 81.2750 164.166670
15.68 15.681260 5.550 81.450 158.333330
15.67 15.675850 5.5750 81.6250 152.50
15.66 15.670430 5.60 81.80 146.666670
15.65 15.659590 5.60 81.066670 145.555560
15.64 15.648760 5.60 80.333330 144.444440
15.63 15.637920 5.60 79.60 143.333330
15.62 15.627090 5.566670 79.033330 150.833330
15.61 15.615350 5.533330 78.466670 158.333330
15.60 15.604510 5.50 77.90 165.833330
15.59 15.593680 5.533330 78.333330 173.333330
15.58 15.581940 5.566670 78.766670 175.555560
15.57 15.571110 5.60 79.20 177.777780
15.56 15.565690 5.5750 79.0 180.0
15.55 15.560270 5.550 78.80 188.333330
15.54 15.549440 5.5250 78.60 196.666670
15.53 15.53860 5.50 78.40 205.0
15.52 15.527770 5.50 79.0 213.333330
15.51 15.517830 5.50 79.60 212.222220
15.50 15.5070 5.50 80.20 211.111110
15.49 15.496160 5.50 79.80 210.0
15.48 15.485330 5.50 79.40 197.777780
15.47 15.47540 5.50 79.0 185.555560
15.46 15.464560 5.50 78.10 173.333330
15.45 15.453720 5.50 77.20 172.50
15.44 15.442890 5.50 76.30 171.666670
15.43 15.432050 5.50 77.833330 170.833330
15.42 15.421220 5.50 79.366670 170.0
15.41 15.411290 5.50 80.90 173.333330
15.40 15.405870 5.50 80.533330 176.666670
15.39 15.400450 5.50 80.166670 180.0
15.38 15.389620 5.50 79.80 178.333330
15.37 15.378780 5.50 79.250 176.666670
15.36 15.367950 5.50 78.70 175.0
15.35 15.358010 5.50 78.150 173.333330
15.34 15.347180 5.50 77.60 155.555560
15.33 15.336340 5.50 78.30 137.777780
15.32 15.325510 5.50 79.0 120.0
15.31 15.314670 5.50 79.70 133.333330
15.30 15.304740 5.466670 79.666670 146.666670
15.29 15.293910 5.433330 79.633330 160.0
15.28 15.283070 5.40 79.60 145.555560
15.27 15.272230 5.40 79.90 131.111110
15.26 15.26230 5.40 80.20 116.666670
15.25 15.251470 5.40 80.50 129.166670
15.24 15.240630 5.40 80.80 141.666670
15.23 15.235670 5.40 80.10 154.166670
15.22 15.23070 5.40 79.40 166.666670
15.21 15.219860 5.40 78.70 130.0
15.20 15.209030 5.40 78.433330 93.333330
15.19 15.198190 5.40 78.166670 99.032260
15.18 15.187360 5.40 77.90 104.731180
15.17 15.176520 5.40 79.433330 110.430110
15.16 15.165690 5.40 80.966670 116.129030
15.15 15.155760 5.40 82.50 114.086020
15.14 15.144920 5.366670 81.966670 112.043010
15.13 15.134090 5.333330 81.433330 110.0
15.12 15.123250 5.30 80.90 121.111110
15.11 15.112420 5.30 80.250 132.222220
15.10 15.101580 5.30 79.60 143.333330
15.09 15.096160 5.30 78.950 137.50
15.08 15.090740 5.30 78.30 131.666670
15.07 15.079910 5.266670 78.666670 125.833330
15.06 15.069070 5.233330 79.033330 120.0
15.05 15.058240 5.20 79.40 121.111110
15.04 15.04740 5.233330 79.566670 122.222220
15.03 15.036570 5.266670 79.733330 123.333330
15.02 15.025730 5.30 79.90 120.93190
15.01 15.01490 5.30 79.60 118.530470
15.00 15.004970 5.30 79.30 116.129030
14.99 14.994130 5.30 79.0 107.096770
14.98 14.98330 5.30 79.866670 98.064520
14.97 14.972460 5.30 80.733330 89.032260
14.96 14.961630 5.30 81.60 80.0
14.95 14.950790 5.30 81.266670 102.222220
14.94 14.941760 5.30 80.933330 124.444440
14.93 14.931830 5.30 80.60 146.666670
14.92 14.920990 5.30 80.1250 147.777780
