~VERSION INFORMATION SECTION
VERS. 2.0 : CWLS LAS-VERSION 2.0
WRAP. NO : One line per depth step
~WELL INFORMATION SECTION
# MNEM.UNIT VALUE/NAME DESCRIPTION
#-------- -------------- ---------------------
STRT.Metres 17 : Start
STOP.Metres 0.38 : Stop
STEP.Metres -0.01 : Step
NULL.  -999.25 :NULL VALUE
DATE. 2025-42-11 : DATE
~CURVE INFORMATION SECTION
DEPTH.Metres : 0 Depth
Depth. : 1 Depth
Incline.Deg : 2 Incline
Azimuth.Deg : 3 Azimuth
GR.CPS : 4 GR
~PARAMETER INFORMATION SECTION
~OTHER
#-------------------------------------------------
#Produced By: GeoVista Logger - Version 7.1.107.0
Natural Gamma Sonde - 6447
Verticality Sonde - 6292
#-------------------------------------------------
~ASCII LOG DATA
# ...
8.66 8.665460 3.70 74.80 127.50
8.65 8.654630 3.70 74.60 133.750
8.64 8.643790 3.70 74.40 140.0
8.63 8.632960 3.70 74.20 140.0
8.62 8.623020 3.733330 74.466670 140.0
8.61 8.612190 3.766670 74.733330 140.0
8.60 8.601350 3.80 75.0 137.777780
8.59 8.590520 3.766670 74.866670 135.555560
8.58 8.585550 3.733330 74.733330 133.333330
8.57 8.580590 3.70 74.60 144.444440
8.56 8.569750 3.733330 74.866670 155.555560
8.55 8.558920 3.766670 75.133330 166.666670
8.54 8.548080 3.80 75.40 154.444440
8.53 8.537250 3.833330 75.166670 142.222220
8.52 8.527310 3.866670 74.933330 130.0
8.51 8.516480 3.90 74.70 134.166670
8.50 8.505640 3.866670 74.533330 138.333330
8.49 8.494810 3.833330 74.366670 142.50
8.48 8.483970 3.80 74.20 146.666670
8.47 8.474040 3.8250 74.60 138.888890
8.46 8.463210 3.850 75.0 131.111110
8.45 8.452370 3.8750 75.40 123.333330
8.44 8.441530 3.90 75.80 140.0
8.43 8.436120 3.933330 75.966670 156.666670
8.42 8.43070 3.966670 76.133330 173.333330
8.41 8.419860 4.0 76.30 163.333330
8.40 8.409030 3.966670 74.90 153.333330
8.39 8.398190 3.933330 73.50 143.333330
8.38 8.387360 3.90 72.10 146.666670
8.37 8.376520 4.0 72.833330 150.0
8.36 8.365690 4.10 73.566670 153.333330
8.35 8.354850 4.20 74.30 156.666670
8.34 8.344020 4.133330 74.766670 154.444440
8.33 8.333180 4.066670 75.233330 152.222220
8.32 8.323250 4.0 75.70 150.0
8.31 8.312420 4.10 74.766670 152.222220
8.30 8.301580 4.20 73.833330 154.444440
8.29 8.296160 4.30 72.90 156.666670
8.28 8.290740 4.2750 73.4750 151.111110
8.27 8.279910 4.250 74.050 145.555560
8.26 8.269070 4.2250 74.6250 140.0
8.25 8.258240 4.20 75.20 146.666670
8.24 8.24740 4.20 75.30 153.333330
8.23 8.236570 4.20 75.40 160.0
8.22 8.225730 4.20 75.50 159.166670
8.21 8.21490 4.20 74.566670 158.333330
8.20 8.204060 4.20 73.633330 157.50
8.19 8.193230 4.20 72.70 156.666670
8.18 8.182390 4.20 73.533330 155.555560
8.17 8.171560 4.20 74.366670 154.444440
8.16 8.166140 4.20 75.20 153.333330
8.15 8.160720 4.20 74.766670 156.666670
8.14 8.149890 4.20 74.333330 160.0
8.13 8.139050 4.20 73.90 163.333330
8.12 8.128220 4.20 73.9250 157.777780
8.11 8.117380 4.20 73.950 152.222220
8.10 8.106550 4.20 73.9750 146.666670
8.09 8.095710 4.20 74.0 136.111110
8.08 8.085780 4.20 74.033330 125.555560
8.07 8.074940 4.20 74.066670 115.0
8.06 8.064110 4.20 74.10 131.250
8.05 8.054180 4.20 74.066670 147.50
8.04 8.043340 4.20 74.033330 163.750
8.03 8.033410 4.20 74.0 180.0
8.02 8.022570 4.20 73.866670 170.0
8.01 8.012640 4.20 73.733330 160.0
8.00 8.001810 4.20 73.60 150.0
7.99 7.991870 4.20 73.6750 152.222220
7.98 7.981040 4.20 73.750 154.444440
7.97 7.971110 4.20 73.8250 156.666670
7.96 7.960270 4.20 73.90 153.333330
7.95 7.95530 4.20 73.666670 150.0
7.94 7.950340 4.20 73.433330 146.666670
7.93 7.93950 4.20 73.20 158.888890
7.92 7.929570 4.20 73.233330 171.111110
7.91 7.918740 4.20 73.266670 183.333330
7.90 7.90790 4.20 73.30 164.444440
7.89 7.897970 4.166670 73.50 145.555560
7.88 7.887130 4.133330 73.70 126.666670
7.87 7.87630 4.10 73.90 128.333330
7.86 7.865460 4.10 73.3250 130.0
7.85 7.855530 4.10 72.750 131.666670
7.84 7.84470 4.10 72.1750 133.333330
7.83 7.833860 4.10 71.60 133.333330
7.82 7.823930 4.10 72.566670 133.333330
7.81 7.813090 4.10 73.533330 133.333330
7.80 7.802260 4.10 74.50 131.111110
7.79 7.791420 4.10 73.60 128.888890
7.78 7.781490 4.10 72.70 126.666670
7.77 7.776070 4.10 71.80 127.301590
7.76 7.770650 4.10 72.266670 127.936510
7.75 7.759820 4.10 72.733330 128.571430
7.74 7.749890 4.10 73.20 115.343920
7.73 7.739050 4.10 73.333330 102.11640
7.72 7.728220 4.10 73.466670 88.888890
7.71 7.717380 4.10 73.60 110.0
7.70 7.707450 4.10 73.566670 131.111110
7.69 7.696610 4.10 73.533330 152.222220
7.68 7.685780 4.10 73.50 173.333330
7.67 7.675850 4.10 73.4250 154.444440
7.66 7.665010 4.10 73.350 135.555560
7.65 7.654180 4.10 73.2750 116.666670
7.64 7.643340 4.10 73.20 140.0
7.63 7.633410 4.066670 72.966670 163.333330
7.62 7.622570 4.033330 72.733330 186.666670
7.61 7.611740 4.0 72.50 194.444440
7.60 7.60090 4.0 72.766670 202.222220
7.59 7.590070 4.0 73.033330 210.0
7.58 7.58510 4.0 73.30 187.777780
7.57 7.580140 4.033330 73.766670 165.555560
7.56 7.56930 4.066670 74.233330 143.333330
7.55 7.558470 4.10 74.70 135.0
7.54 7.547630 4.066670 73.70 126.666670
7.53 7.536790 4.033330 72.70 118.333330
7.52 7.525960 4.0 71.70 110.0
7.51 7.515120 4.0 72.233330 134.444440
7.50 7.505190 4.0 72.766670 158.888890
7.49 7.494360 4.0 73.30 183.333330
7.48 7.483520 3.966670 74.333330 159.856630
7.47 7.472690 3.933330 75.366670 136.379930
7.46 7.461850 3.90 76.40 112.903230
7.45 7.451020 3.9250 74.7750 111.935480
7.44 7.440180 3.950 73.150 110.967740
7.43 7.435210 3.9750 71.5250 110.0
7.42 7.430250 4.0 69.90 122.50
7.41 7.419410 3.966670 68.866670 135.0
7.40 7.408580 3.933330 67.833330 147.50
7.39 7.397740 3.90 66.80 160.0
7.38 7.386910 3.90 70.766670 147.777780
7.37 7.376070 3.90 74.733330 135.555560
7.36 7.365240 3.90 78.70 123.333330
7.35 7.35530 3.90 76.80 133.333330
7.34 7.344470 3.90 74.90 143.333330
7.33 7.333630 3.90 73.0 153.333330
7.32 7.32280 3.90 72.10 152.222220
7.31 7.311960 3.90 71.20 151.111110
7.30 7.301130 3.90 70.30 150.0
7.29 7.295710 3.90 71.9250 162.50
7.28 7.290290 3.90 73.550 175.0
7.27 7.279460 3.90 75.1750 187.50
7.26 7.268620 3.90 76.80 200.0
7.25 7.257790 3.866670 74.333330 181.111110
7.24 7.246950 3.833330 71.866670 162.222220
7.23 7.236120 3.80 69.40 143.333330
7.22 7.225280 3.80 69.066670 136.666670
7.21 7.214450 3.80 68.733330 130.0
7.20 7.203610 3.80 68.40 123.333330
7.19 7.192780 3.80 70.133330 122.222220
7.18 7.181940 3.80 71.866670 121.111110
7.17 7.171110 3.80 73.60 120.0
7.16 7.160270 3.80 73.90 121.111110
7.15 7.15530 3.80 74.20 122.222220
7.14 7.150340 3.80 74.50 123.333330
7.13 7.13950 3.80 73.850 132.222220
7.12 7.128670 3.80 73.20 141.111110
7.11 7.117830 3.80 72.550 150.0
7.10 7.1070 3.80 71.90 155.555560
7.09 7.097070 3.80 71.933330 161.111110
7.08 7.086230 3.80 71.966670 166.666670
7.07 7.07540 3.80 72.0 150.833330
7.06 7.064560 3.766670 72.633330 135.0
7.05 7.053720 3.733330 73.266670 119.166670
7.04 7.043790 3.70 73.90 103.333330
7.03 7.032960 3.70 73.433330 107.777780
7.02 7.022120 3.70 72.966670 112.222220
7.01 7.011290 3.70 72.50 116.666670
7.00 7.005870 3.7250 72.750 133.333330
6.99 7.000450 3.750 73.0 150.0
6.98 6.989620 3.7750 73.250 166.666670
6.97 6.979680 3.80 73.50 161.111110
6.96 6.968850 3.766670 73.733330 155.555560
6.95 6.958010 3.733330 73.966670 150.0
6.94 6.948080 3.70 74.20 154.444440
6.93 6.937250 3.70 72.50 158.888890
6.92 6.927310 3.70 70.80 163.333330
6.91 6.916480 3.70 69.10 156.666670
6.90 6.906550 3.70 71.433330 150.0
6.89 6.895710 3.70 73.766670 143.333330
6.88 6.885780 3.70 76.10 139.758060
6.87 6.874940 3.70 74.90 136.18280
6.86 6.865010 3.70 73.70 132.607530
6.85 6.854180 3.70 72.50 129.032260
6.84 6.844240 3.70 71.30 130.465950
6.83 6.833410 3.666670 70.266670 131.899640
6.82 6.823480 3.633330 69.233330 133.333330
6.81 6.812640 3.60 68.20 141.111110
6.80 6.801810 3.60 72.133330 148.888890
6.79 6.791870 3.60 76.066670 156.666670
6.78 6.781040 3.60 80.0 158.888890
6.77 6.775620 3.60 78.166670 161.111110
6.76 6.77020 3.60 76.333330 163.333330
6.75 6.759370 3.60 74.50 172.222220
6.74 6.749440 3.60 73.366670 181.111110
6.73 6.73860 3.60 72.233330 190.0
6.72 6.727770 3.60 71.10 185.833330
6.71 6.716930 3.60 72.350 181.666670
6.70 6.7070 3.60 73.60 177.50
6.69 6.696160 3.60 74.850 173.333330
6.68 6.685330 3.60 76.10 155.555560
6.67 6.674490 3.60 74.166670 137.777780
6.66 6.664560 3.60 72.233330 120.0
6.65 6.653720 3.60 70.30 130.0
6.64 6.642890 3.633330 70.433330 140.0
6.63 6.632050 3.666670 70.566670 150.0
6.62 6.621220 3.70 70.70 156.666670
6.61 6.61580 3.70 72.033330 163.333330
6.60 6.610380 3.70 73.366670 170.0
6.59 6.599550 3.70 74.70 163.333330
6.58 6.588710 3.70 74.20 156.666670
6.57 6.577880 3.70 73.70 150.0
6.56 6.567950 3.70 73.20 144.166670
6.55 6.557110 3.70 72.533330 138.333330
6.54 6.546280 3.70 71.866670 132.50
6.53 6.535440 3.70 71.20 126.666670
6.52 6.52460 3.70 71.066670 141.111110
6.51 6.514670 3.70 70.933330 155.555560
