~VERSION INFORMATION SECTION
VERS. 2.0 : CWLS LAS-VERSION 2.0
WRAP. NO : One line per depth step
~WELL INFORMATION SECTION
# MNEM.UNIT VALUE/NAME DESCRIPTION
#-------- -------------- ---------------------
STRT.Metres 16 : Start
STOP.Metres 0.43 : Stop
STEP.Metres -0.01 : Step
NULL.  -999.25 :NULL VALUE
DATE. 2025-47-11 : DATE
~CURVE INFORMATION SECTION
DEPTH.Metres : 0 Depth
Depth. : 1 Depth
Incline.Deg : 2 Incline
Azimuth.Deg : 3 Azimuth
GR.CPS : 4 GR
~PARAMETER INFORMATION SECTION
~OTHER
#-------------------------------------------------
#Produced By: GeoVista Logger - Version 7.1.107.0
Natural Gamma Sonde - 6447
Verticality Sonde - 6292
#-------------------------------------------------
~ASCII LOG DATA
# ...
11.90 11.916930 3.940 80.720 144.0
11.89 11.90790 3.920 80.160 139.333330
11.88 11.898870 3.90 79.60 134.666670
11.87 11.879910 3.916670 79.40 130.0
11.86 11.870430 3.933330 79.20 132.222220
11.85 11.860950 3.950 79.0 134.444440
11.84 11.851920 3.966670 78.80 136.666670
11.83 11.842890 3.983330 78.60 138.888890
11.82 11.833410 4.0 78.40 141.111110
11.81 11.823930 4.0 78.240 143.333330
11.80 11.81490 4.0 78.080 140.0
11.79 11.805870 4.0 77.920 136.666670
11.78 11.796390 4.0 77.760 133.333330
11.77 11.786910 4.0 77.60 130.0
11.76 11.777880 4.0 78.133330 126.666670
11.75 11.768850 4.0 78.666670 123.333330
11.74 11.749890 4.0 79.20 126.0
11.73 11.740860 4.0 79.733330 128.666670
11.72 11.731830 4.0 80.266670 131.333330
11.71 11.72280 4.0 80.80 134.0
11.70 11.713770 3.960 81.10 136.666670
11.69 11.704740 3.920 81.40 136.0
11.68 11.695710 3.880 81.70 135.333330
11.67 11.686680 3.840 82.0 134.666670
11.66 11.677650 3.80 82.30 134.0
11.65 11.659590 3.783330 81.466670 133.333330
11.64 11.650110 3.766670 80.633330 134.229390
11.63 11.640630 3.750 79.80 135.125450
11.62 11.63160 3.733330 78.966670 136.021510
11.61 11.622570 3.716670 78.133330 136.917560
11.60 11.613540 3.70 77.30 137.813620
11.59 11.604510 3.760 77.560 138.709680
11.58 11.595490 3.820 77.820 142.301080
11.57 11.586460 3.880 78.080 145.892470
11.56 11.577430 3.940 78.340 149.483870
11.55 11.56840 4.0 78.60 153.075270
11.54 11.549440 4.0 79.333330 156.666670
11.53 11.540410 4.0 80.066670 153.888890
11.52 11.531380 4.0 80.80 151.111110
11.51 11.522350 4.0 81.533330 148.333330
11.50 11.513320 4.0 82.266670 145.555560
11.49 11.504290 4.0 83.0 142.777780
11.48 11.495260 4.0 82.460 140.0
11.47 11.486230 4.0 81.920 150.0
11.46 11.47720 4.0 81.380 160.0
11.45 11.459140 4.0 80.840 170.0
11.44 11.450110 4.0 80.30 180.0
11.43 11.441080 4.0 79.650 190.0
11.42 11.432050 4.0 79.0 178.888890
11.41 11.423020 4.0 78.350 167.777780
11.40 11.4140 4.0 77.70 156.666670
11.39 11.404970 4.0 77.050 145.555560
11.38 11.395940 4.0 76.40 134.444440
11.37 11.386910 4.0 76.760 123.333330
11.36 11.377880 4.0 77.120 133.666670
11.35 11.368850 4.0 77.480 144.0
11.34 11.349890 4.0 77.840 154.333330
11.33 11.340860 4.0 78.20 164.666670
11.32 11.331830 4.016670 78.266670 175.0
11.31 11.32280 4.033330 78.333330 190.833330
11.30 11.313770 4.050 78.40 206.666670
11.29 11.304740 4.066670 78.466670 222.50
11.28 11.295710 4.083330 78.533330 238.333330
11.27 11.286680 4.10 78.60 254.166670
11.26 11.277650 4.0 78.840 270.0
11.25 11.259590 3.90 79.080 242.666670
11.24 11.250560 3.80 79.320 215.333330
11.23 11.241530 3.70 79.560 188.0
11.22 11.232510 3.60 79.80 160.666670
11.21 11.223480 3.650 79.316670 133.333330
11.20 11.2140 3.70 78.833330 135.555560
11.19 11.204510 3.750 78.350 137.777780
11.18 11.195490 3.80 77.866670 140.0
11.17 11.186460 3.850 77.383330 142.222220
11.16 11.176980 3.90 76.90 144.444440
11.15 11.167490 3.940 77.440 146.666670
11.14 11.149440 3.980 77.980 140.0
11.13 11.140410 4.020 78.520 133.333330
11.12 11.131380 4.060 79.060 126.666670
11.11 11.122350 4.10 79.60 120.0
11.10 11.113320 4.080 79.70 113.333330
11.09 11.104290 4.060 79.80 122.222220
11.08 11.095260 4.040 79.90 131.111110
11.07 11.085780 4.020 80.0 140.0
11.06 11.07630 4.0 80.10 148.888890
11.05 11.058240 4.016670 79.433330 157.777780
11.04 11.049210 4.033330 78.766670 166.666670
11.03 11.040180 4.050 78.10 169.333330
11.02 11.03070 4.066670 77.433330 172.0
11.01 11.021220 4.083330 76.766670 174.666670
11.00 11.012190 4.10 76.10 177.333330
10.99 11.003160 4.10 75.90 180.0
10.98 10.993680 4.10 75.70 180.555560
10.97 10.98420 4.10 75.50 181.111110
10.96 10.975170 4.10 75.30 181.666670
10.95 10.966140 4.10 75.10 182.222220
10.94 10.948080 4.116670 75.433330 182.777780
10.93 10.939050 4.133330 75.766670 183.333330
10.92 10.930020 4.150 76.10 173.333330
10.91 10.920540 4.166670 76.433330 163.333330
10.90 10.911060 4.183330 76.766670 153.333330
10.89 10.902030 4.20 77.10 143.333330
10.88 10.8930 4.080 76.840 133.333330
10.87 10.883970 3.960 76.580 136.666670
10.86 10.874940 3.840 76.320 140.0
10.85 10.865460 3.720 76.060 143.333330
10.84 10.855980 3.60 75.80 146.666670
10.83 10.846950 3.683330 75.850 150.0
10.82 10.837920 3.766670 75.90 153.333330
10.81 10.819860 3.850 75.950 144.0
10.80 10.810840 3.933330 76.0 134.666670
10.79 10.801810 4.016670 76.050 125.333330
10.78 10.792780 4.10 76.10 116.0
10.77 10.783750 4.10 75.840 106.666670
10.76 10.774720 4.10 75.580 112.222220
10.75 10.765690 4.10 75.320 117.777780
10.74 10.756660 4.10 75.060 123.333330
10.73 10.747630 4.10 74.80 128.888890
10.72 10.728670 4.083330 75.666670 134.444440
10.71 10.719640 4.066670 76.533330 140.0
10.70 10.710610 4.050 77.40 141.333330
10.69 10.701580 4.033330 78.266670 142.666670
10.68 10.692550 4.016670 79.133330 144.0
10.67 10.683070 4.0 80.0 145.333330
10.66 10.673590 3.980 79.980 146.666670
10.65 10.664560 3.960 79.960 142.777780
10.64 10.655530 3.940 79.940 138.888890
10.63 10.64650 3.920 79.920 135.0
10.62 10.637470 3.90 79.90 131.111110
10.61 10.619410 3.916670 79.766670 127.222220
10.60 10.610380 3.933330 79.633330 123.333330
10.59 10.601350 3.950 79.50 130.924730
10.58 10.592330 3.966670 79.366670 138.516130
10.57 10.58330 3.983330 79.233330 146.107530
10.56 10.574270 4.0 79.10 153.698920
10.55 10.565240 4.0 78.760 161.290320
10.54 10.555760 4.0 78.420 163.297490
10.53 10.546280 4.0 78.080 165.304660
10.52 10.528220 4.0 77.740 167.311830
10.51 10.519190 4.0 77.40 169.3190
10.50 10.510160 3.983330 78.233330 171.326160
10.49 10.501130 3.966670 79.066670 173.333330
10.48 10.49210 3.950 79.90 168.0
10.47 10.483070 3.933330 80.733330 162.666670
10.46 10.474040 3.916670 81.566670 157.333330
10.45 10.464560 3.90 82.40 152.0
10.44 10.455080 3.880 82.220 146.666670
10.43 10.446050 3.860 82.040 144.0
10.42 10.437020 3.840 81.860 141.333330
10.41 10.418960 3.820 81.680 138.666670
10.40 10.409930 3.80 81.50 136.0
10.39 10.40090 3.816670 80.666670 133.333330
10.38 10.391870 3.833330 79.833330 128.333330
10.37 10.382840 3.850 79.0 123.333330
10.36 10.373360 3.866670 78.166670 118.333330
10.35 10.363880 3.883330 77.333330 113.333330
10.34 10.354850 3.90 76.50 108.333330
10.33 10.345820 3.90 76.980 103.333330
10.32 10.336790 3.90 77.460 115.0
10.31 10.327770 3.90 77.940 126.666670
10.30 10.309710 3.90 78.420 138.333330
10.29 10.300230 3.90 78.90 150.0
10.28 10.290740 3.883330 78.766670 161.666670
10.27 10.281720 3.866670 78.633330 173.333330
10.26 10.272690 3.850 78.50 172.0
10.25 10.263660 3.833330 78.366670 170.666670
10.24 10.254630 3.816670 78.233330 169.333330
10.23 10.245150 3.80 78.10 168.0
10.22 10.235670 3.660 78.740 166.666670
10.21 10.226640 3.520 79.380 173.333330
10.20 10.217610 3.380 80.020 180.0
10.19 10.199550 3.240 80.660 186.666670
10.18 10.190070 3.10 81.30 193.333330
10.17 10.180590 3.233330 80.050 200.0
10.16 10.171560 3.366670 78.80 193.333330
10.15 10.162530 3.50 77.550 186.666670
10.14 10.15350 3.633330 76.30 180.0
10.13 10.144470 3.766670 75.050 173.333330
10.12 10.135440 3.90 73.80 166.666670
10.11 10.126410 3.820 74.440 160.0
10.10 10.116930 3.740 75.080 160.0
10.09 10.107450 3.660 75.720 160.0
10.08 10.089390 3.580 76.360 160.0
10.07 10.080360 3.50 77.0 160.0
10.06 10.071330 3.483330 77.716670 160.0
10.05 10.061850 3.466670 78.433330 158.333330
10.04 10.052370 3.450 79.150 156.666670
10.03 10.043340 3.433330 79.866670 155.0
10.02 10.034310 3.416670 80.583330 153.333330
10.01 10.025280 3.40 81.30 151.666670
10.00 10.016250 3.440 80.760 150.0
9.99 10.007220 3.480 80.220 156.666670
9.98 9.998190 3.520 79.680 163.333330
9.97 9.979230 3.560 79.140 170.0
9.96 9.97020 3.60 78.60 176.666670
9.95 9.961170 3.616670 78.266670 183.333330
9.94 9.952140 3.633330 77.933330 181.111110
9.93 9.943120 3.650 77.60 178.888890
9.92 9.934090 3.666670 77.266670 176.666670
9.91 9.925060 3.683330 76.933330 174.444440
9.90 9.916030 3.70 76.60 172.222220
9.89 9.9070 3.640 77.320 170.0
9.88 9.888940 3.580 78.040 154.666670
9.87 9.879910 3.520 78.760 139.333330
9.86 9.870880 3.460 79.480 124.0
