~VERSION INFORMATION SECTION
VERS. 2.0 : CWLS LAS-VERSION 2.0
WRAP. NO : One line per depth step
~WELL INFORMATION SECTION
# MNEM.UNIT VALUE/NAME DESCRIPTION
#-------- -------------- ---------------------
STRT.Metres 15 : Start
STOP.Metres 0.50 : Stop
STEP.Metres -0.01 : Step
NULL.  -999.25 :NULL VALUE
DATE. 2025-50-11 : DATE
~CURVE INFORMATION SECTION
DEPTH.Metres : 0 Depth
Depth. : 1 Depth
Incline.Deg : 2 Incline
Azimuth.Deg : 3 Azimuth
GR.CPS : 4 GR
~PARAMETER INFORMATION SECTION
~OTHER
#-------------------------------------------------
#Produced By: GeoVista Logger - Version 7.1.107.0
Natural Gamma Sonde - 6447
Verticality Sonde - 6292
#-------------------------------------------------
~ASCII LOG DATA
# ...
13.00 13.019710 4.122220 78.555560 140.370370
12.99 13.010380 4.133330 79.433330 139.629630
12.98 13.001050 4.144440 80.311110 138.888890
12.97 12.991720 4.155560 81.188890 138.148150
12.96 12.982390 4.166670 82.066670 137.407410
12.95 12.973360 4.177780 82.944440 136.666670
12.94 12.964330 4.188890 83.822220 138.333330
12.93 12.95530 4.20 84.70 140.0
12.92 12.941310 4.20 84.68750 141.666670
12.91 12.927310 4.20 84.6750 143.333330
12.90 12.918280 4.20 84.66250 145.0
12.89 12.909260 4.20 84.650 146.666670
12.88 12.900230 4.20 84.63750 148.333330
12.87 12.89120 4.20 84.6250 150.0
12.86 12.882170 4.20 84.61250 150.0
12.85 12.873140 4.20 84.60 150.0
12.84 12.864110 4.18750 83.80 150.0
12.83 12.855080 4.1750 83.0 150.0
12.82 12.846050 4.16250 82.20 150.0
12.81 12.832050 4.150 81.40 150.0
12.80 12.818060 4.13750 80.60 150.0
12.79 12.808730 4.1250 79.80 150.0
12.78 12.79940 4.11250 79.0 151.666670
12.77 12.790070 4.10 78.20 153.333330
12.76 12.781040 4.0750 78.350 155.0
12.75 12.772010 4.050 78.50 156.666670
12.74 12.762980 4.0250 78.650 158.333330
12.73 12.753650 4.0 78.80 160.0
12.72 12.744320 3.9750 78.950 161.666670
12.71 12.734990 3.950 79.10 163.333330
12.70 12.721440 3.9250 79.250 159.166670
12.69 12.70790 3.90 79.40 155.0
12.68 12.698870 3.88750 79.88750 150.833330
12.67 12.689840 3.8750 80.3750 146.666670
12.66 12.680810 3.86250 80.86250 142.50
12.65 12.671780 3.850 81.350 138.333330
12.64 12.662750 3.83750 81.83750 134.166670
12.63 12.653720 3.8250 82.3250 130.0
12.62 12.64470 3.81250 82.81250 132.962960
12.61 12.635670 3.80 83.30 135.925930
12.60 12.626640 3.788890 83.166670 138.888890
12.59 12.613090 3.777780 83.033330 141.851850
12.58 12.599550 3.766670 82.90 144.814810
12.57 12.590520 3.755560 82.766670 147.777780
12.56 12.581490 3.744440 82.633330 150.740740
12.55 12.572460 3.733330 82.50 153.70370
12.54 12.563730 3.722220 82.366670 156.666670
12.53 12.5550 3.711110 82.233330 152.083330
12.52 12.546280 3.70 82.10 147.50
12.51 12.532730 3.7250 81.96250 142.916670
12.50 12.519190 3.750 81.8250 138.333330
12.49 12.510160 3.7750 81.68750 133.750
12.48 12.501130 3.80 81.550 129.166670
12.47 12.49210 3.8250 81.41250 124.583330
12.46 12.483070 3.850 81.2750 120.0
12.45 12.474040 3.8750 81.13750 121.250
12.44 12.465010 3.90 81.0 122.50
12.43 12.451470 3.88750 80.83750 123.750
12.42 12.437920 3.8750 80.6750 125.0
12.41 12.428890 3.86250 80.51250 126.250
12.40 12.419860 3.850 80.350 127.50
12.39 12.410840 3.83750 80.18750 128.750
12.38 12.402110 3.8250 80.0250 130.0
12.37 12.393380 3.81250 79.86250 132.083330
12.36 12.384650 3.80 79.70 134.166670
12.35 12.371110 3.76250 80.0750 136.250
12.34 12.357560 3.7250 80.450 138.333330
12.33 12.348530 3.68750 80.8250 140.416670
12.32 12.33950 3.650 81.20 142.50
12.31 12.330470 3.61250 81.5750 144.583330
12.30 12.321440 3.5750 81.950 146.666670
12.29 12.312420 3.53750 82.3250 144.166670
12.28 12.303390 3.50 82.70 141.666670
12.27 12.289840 3.48750 82.950 139.166670
12.26 12.27630 3.4750 83.20 136.666670
12.25 12.267570 3.46250 83.450 134.166670
12.24 12.258840 3.450 83.70 131.666670
12.23 12.250110 3.43750 83.950 129.166670
12.22 12.241080 3.4250 84.20 126.666670
12.21 12.232050 3.41250 84.450 130.416670
12.20 12.223020 3.40 84.70 134.166670
12.19 12.2140 3.450 84.43750 137.916670
12.18 12.204970 3.50 84.1750 141.666670
12.17 12.195940 3.550 83.91250 145.416670
12.16 12.182390 3.60 83.650 149.166670
12.15 12.168850 3.650 83.38750 152.916670
12.14 12.159820 3.70 83.1250 156.666670
12.13 12.150790 3.750 82.86250 155.925930
12.12 12.141760 3.80 82.60 155.185190
12.11 12.132730 3.73750 81.6250 154.444440
12.10 12.12370 3.6750 80.650 153.70370
12.09 12.114670 3.61250 79.6750 152.962960
12.08 12.101130 3.550 78.70 152.222220
12.07 12.087580 3.48750 77.7250 151.481480
12.06 12.078560 3.4250 76.750 150.740740
12.05 12.069530 3.36250 75.7750 150.0
12.04 12.06050 3.30 74.80 151.666670
12.03 12.051470 3.33750 75.03750 153.333330
12.02 12.042440 3.3750 75.2750 155.0
12.01 12.033410 3.41250 75.51250 156.666670
12.00 12.024380 3.450 75.750 158.333330
11.99 12.015350 3.48750 75.98750 160.0
11.98 12.006320 3.5250 76.2250 161.666670
11.97 11.992780 3.56250 76.46250 163.333330
11.96 11.979230 3.60 76.70 164.287630
11.95 11.97020 3.644440 77.444440 165.241940
11.94 11.961170 3.688890 78.188890 166.196240
11.93 11.952140 3.733330 78.933330 167.150540
11.92 11.942810 3.777780 79.677780 168.104840
11.91 11.933480 3.822220 80.422220 169.059140
11.90 11.924150 3.866670 81.166670 170.013440
11.89 11.915120 3.911110 81.911110 170.967740
11.88 11.906090 3.955560 82.655560 165.013440
11.87 11.897070 4.0 83.40 159.059140
11.86 11.883070 4.0 83.23750 153.104840
11.85 11.869070 4.0 83.0750 147.150540
11.84 11.860050 4.0 82.91250 141.196240
11.83 11.851020 4.0 82.750 135.241940
11.82 11.841990 4.0 82.58750 129.287630
11.81 11.832660 4.0 82.4250 123.333330
11.80 11.823330 4.0 82.26250 128.333330
11.79 11.8140 4.0 82.10 133.333330
11.78 11.804970 3.98750 81.33750 138.333330
11.77 11.795940 3.9750 80.5750 143.333330
11.76 11.786910 3.96250 79.81250 148.333330
11.75 11.773360 3.950 79.050 153.333330
11.74 11.759820 3.93750 78.28750 158.333330
11.73 11.750790 3.9250 77.5250 163.333330
11.72 11.741760 3.91250 76.76250 159.629630
11.71 11.732730 3.90 76.0 155.925930
11.70 11.7240 3.90 76.150 152.222220
11.69 11.715270 3.90 76.30 148.518520
11.68 11.706550 3.90 76.450 144.814810
11.67 11.6930 3.90 76.60 141.111110
11.66 11.679460 3.90 76.750 137.407410
11.65 11.670430 3.90 76.90 133.70370
11.64 11.66140 3.90 77.050 130.0
11.63 11.652370 3.90 77.20 131.666670
11.62 11.643340 3.88750 78.01250 133.333330
11.61 11.634310 3.8750 78.8250 135.0
11.60 11.625280 3.86250 79.63750 136.666670
11.59 11.611740 3.850 80.450 138.333330
11.58 11.598190 3.83750 81.26250 140.0
11.57 11.589470 3.8250 82.0750 141.666670
11.56 11.580740 3.81250 82.88750 143.333330
11.55 11.572010 3.80 83.70 144.583330
11.54 11.562980 3.8250 83.4250 145.833330
11.53 11.553950 3.850 83.150 147.083330
11.52 11.544920 3.8750 82.8750 148.333330
11.51 11.531380 3.90 82.60 149.583330
11.50 11.517830 3.9250 82.3250 150.833330
11.49 11.50880 3.950 82.050 152.083330
11.48 11.499770 3.9750 81.7750 153.333330
11.47 11.490740 4.0 81.50 157.916670
11.46 11.481720 4.0 81.233330 162.50
11.45 11.472690 4.0 80.966670 167.083330
11.44 11.463660 4.0 80.70 171.666670
11.43 11.454630 4.0 80.433330 176.250
11.42 11.44560 4.0 80.166670 180.833330
11.41 11.436570 4.0 79.90 185.416670
11.40 11.423020 4.0 79.633330 190.0
11.39 11.409480 4.0 79.366670 187.678570
11.38 11.400450 4.0 79.10 185.357140
11.37 11.391420 4.0 78.950 183.035710
11.36 11.382390 4.0 78.80 180.714290
11.35 11.373360 4.0 78.650 178.392860
11.34 11.364330 4.0 78.50 176.071430
11.33 11.35530 4.0 78.350 173.750
11.32 11.341760 4.0 78.20 171.428570
11.31 11.328220 4.0 78.050 166.666670
11.30 11.319190 4.0 77.90 161.904760
11.29 11.310160 3.96250 77.58750 157.142860
11.28 11.301130 3.9250 77.2750 152.380950
11.27 11.29210 3.88750 76.96250 147.619050
11.26 11.283070 3.850 76.650 142.857140
11.25 11.274040 3.81250 76.33750 138.095240
11.24 11.264710 3.7750 76.0250 133.333330
11.23 11.255380 3.73750 75.71250 140.416670
11.22 11.246050 3.70 75.40 147.50
11.21 11.232510 3.66250 75.1750 154.583330
11.20 11.218960 3.6250 74.950 161.666670
11.19 11.209930 3.58750 74.7250 168.750
11.18 11.20090 3.550 74.50 175.833330
11.17 11.191870 3.51250 74.2750 182.916670
11.16 11.182540 3.4750 74.050 190.0
11.15 11.173210 3.43750 73.8250 188.333330
11.14 11.163880 3.40 73.60 186.666670
11.13 11.154850 3.4750 74.050 185.0
11.12 11.145820 3.550 74.50 183.333330
11.11 11.136790 3.6250 74.950 181.666670
11.10 11.123250 3.70 75.40 180.0
11.09 11.109710 3.7750 75.850 178.333330
11.08 11.100680 3.850 76.30 176.666670
11.07 11.091650 3.9250 76.750 175.555560
11.06 11.082620 4.0 77.20 174.444440
11.05 11.073290 3.98750 77.21250 173.333330
11.04 11.063960 3.9750 77.2250 172.222220
11.03 11.054630 3.96250 77.23750 171.111110
11.02 11.04560 3.950 77.250 170.0
11.01 11.036570 3.93750 77.26250 168.888890
