~VERSION INFORMATION SECTION
VERS. 2.0 : CWLS LAS-VERSION 2.0
WRAP. NO : One line per depth step
~WELL INFORMATION SECTION
# MNEM.UNIT VALUE/NAME DESCRIPTION
#-------- -------------- ---------------------
STRT.Metres 17 : Start
STOP.Metres 0.38 : Stop
STEP.Metres -0.01 : Step
NULL.  -999.25 :NULL VALUE
DATE. 2025-42-11 : DATE
~CURVE INFORMATION SECTION
DEPTH.Metres : 0 Depth
Depth. : 1 Depth
Incline.Deg : 2 Incline
Azimuth.Deg : 3 Azimuth
GR.CPS : 4 GR
~PARAMETER INFORMATION SECTION
~OTHER
#-------------------------------------------------
#Produced By: GeoVista Logger - Version 7.1.107.0
Natural Gamma Sonde - 6447
Verticality Sonde - 6292
#-------------------------------------------------
~ASCII LOG DATA
# ...
4.37 4.372910 3.633330 65.266670 142.222220
4.36 4.362080 3.666670 65.533330 143.333330
4.35 4.351240 3.70 65.80 140.0
4.34 4.340410 3.70 65.633330 136.666670
4.33 4.335440 3.70 65.466670 133.333330
4.32 4.330470 3.70 65.30 130.0
4.31 4.319640 3.70 65.60 126.666670
4.30 4.30880 3.70 65.90 123.333330
4.29 4.297970 3.70 66.20 135.555560
4.28 4.287130 3.70 66.50 147.777780
4.27 4.27630 3.70 66.866670 160.0
4.26 4.265460 3.70 67.233330 157.50
4.25 4.254630 3.70 67.60 155.0
4.24 4.243790 3.666670 67.166670 152.50
4.23 4.232960 3.633330 66.733330 150.0
4.22 4.222120 3.60 66.30 151.111110
4.21 4.211290 3.666670 66.50 152.222220
4.20 4.205870 3.733330 66.70 153.333330
4.19 4.200450 3.80 66.90 155.555560
4.18 4.189620 3.7750 66.250 157.777780
4.17 4.178780 3.750 65.60 160.0
4.16 4.167950 3.7250 64.950 166.666670
4.15 4.157110 3.70 64.30 173.333330
4.14 4.146280 3.683330 65.0 180.0
4.13 4.135440 3.666670 65.70 181.111110
4.12 4.12460 3.650 66.40 182.222220
4.11 4.113770 3.633330 67.10 183.333330
4.10 4.102930 3.616670 67.80 169.166670
4.09 4.09210 3.60 68.50 155.0
4.08 4.081260 3.60 67.20 140.833330
4.07 4.075850 3.60 65.90 126.666670
4.06 4.070430 3.60 64.60 132.222220
4.05 4.059590 3.60 64.9250 137.777780
4.04 4.048760 3.60 65.250 143.333330
4.03 4.037020 3.60 65.5750 156.666670
4.02 4.026190 3.60 65.90 170.0
4.01 4.016250 3.60 65.933330 183.333330
4.00 4.004510 3.60 65.966670 176.666670
3.99 3.994580 3.60 66.0 170.0
3.98 3.983750 3.60 66.033330 163.333330
3.97 3.972910 3.60 66.066670 159.166670
3.96 3.961170 3.60 66.10 155.0
3.95 3.955760 3.60 66.166670 150.833330
3.94 3.950340 3.60 66.233330 146.666670
3.93 3.93950 3.60 66.30 138.888890
3.92 3.928670 3.6250 65.90 131.111110
3.91 3.917830 3.650 65.50 123.333330
3.90 3.9070 3.6750 65.10 127.777780
3.89 3.895260 3.70 64.70 132.222220
3.88 3.884420 3.70 64.60 136.666670
3.87 3.873590 3.70 64.50 138.422940
3.86 3.862750 3.70 64.40 140.179210
3.85 3.851920 3.666670 65.233330 141.935480
3.84 3.846050 3.633330 66.066670 134.784950
3.83 3.840180 3.60 66.90 127.634410
3.82 3.829350 3.633330 66.166670 120.483870
3.81 3.818510 3.666670 65.433330 113.333330
3.80 3.807670 3.70 64.70 138.888890
3.79 3.796840 3.6750 65.250 164.444440
3.78 3.78510 3.650 65.80 190.0
3.77 3.774270 3.6250 66.350 172.222220
3.76 3.763430 3.60 66.90 154.444440
3.75 3.75260 3.60 66.70 136.666670
3.74 3.741760 3.60 66.50 117.777780
3.73 3.735890 3.60 66.30 98.888890
3.72 3.730020 3.60 66.30 80.0
3.71 3.719190 3.60 66.30 88.333330
3.70 3.708350 3.60 66.30 96.666670
3.69 3.696610 3.566670 66.733330 105.0
3.68 3.685780 3.533330 67.166670 113.333330
3.67 3.674940 3.50 67.60 130.0
3.66 3.664110 3.5250 66.3750 146.666670
3.65 3.652370 3.550 65.150 163.333330
3.64 3.641530 3.5750 63.9250 156.666670
3.63 3.636120 3.60 62.70 150.0
3.62 3.63070 3.60 63.90 143.333330
3.61 3.618960 3.60 65.10 142.222220
3.60 3.608130 3.60 66.30 141.111110
3.59 3.597290 3.566670 65.70 140.0
3.58 3.586460 3.533330 65.10 144.166670
3.57 3.575620 3.50 64.50 148.333330
3.56 3.563880 3.50 65.2750 152.50
3.55 3.553050 3.50 66.050 156.666670
3.54 3.542210 3.50 66.8250 143.333330
3.53 3.532280 3.50 67.60 130.0
3.52 3.521440 3.433330 66.0 116.666670
3.51 3.516030 3.366670 64.40 124.444440
3.50 3.510610 3.30 62.80 132.222220
3.49 3.499770 3.366670 63.50 140.0
3.48 3.488940 3.433330 64.20 132.222220
3.47 3.47810 3.50 64.90 124.444440
3.46 3.468170 3.466670 65.233330 116.666670
3.45 3.457340 3.433330 65.566670 124.166670
3.44 3.44650 3.40 65.90 131.666670
3.43 3.435670 3.40 65.50 139.166670
3.42 3.425730 3.40 65.10 146.666670
3.41 3.41490 3.40 64.70 148.888890
3.40 3.404060 3.40 64.30 151.111110
3.39 3.393230 3.40 64.366670 153.333330
3.38 3.38330 3.40 64.433330 155.555560
3.37 3.372460 3.40 64.50 157.777780
3.36 3.361630 3.40 64.30 160.0
3.35 3.356210 3.40 64.10 152.222220
3.34 3.350790 3.40 63.90 144.444440
3.33 3.339950 3.3750 64.60 136.666670
3.32 3.329120 3.350 65.30 138.333330
3.31 3.318280 3.3250 66.0 140.0
3.30 3.307450 3.30 66.70 141.666670
3.29 3.296610 3.30 65.733330 143.333330
3.28 3.285780 3.30 64.766670 151.111110
3.27 3.274940 3.30 63.80 158.888890
3.26 3.264110 3.30 63.866670 166.666670
3.25 3.253270 3.30 63.933330 164.874550
3.24 3.242440 3.30 64.0 163.082440
3.23 3.23160 3.30 64.250 161.290320
3.22 3.226190 3.30 64.50 167.526880
3.21 3.220770 3.30 64.750 173.763440
3.20 3.209930 3.30 65.0 180.0
3.19 3.19910 3.30 64.333330 173.333330
3.18 3.188260 3.30 63.666670 166.666670
3.17 3.177430 3.30 63.0 160.0
3.16 3.166590 3.30 63.30 153.333330
3.15 3.155760 3.30 63.60 141.111110
3.14 3.144920 3.30 63.90 128.888890
3.13 3.134090 3.30 64.033330 116.666670
3.12 3.123250 3.30 64.166670 141.111110
3.11 3.112420 3.30 64.30 165.555560
3.10 3.1070 3.30 64.366670 190.0
3.09 3.101580 3.30 64.433330 166.666670
3.08 3.089840 3.30 64.50 143.333330
3.07 3.079010 3.30 64.366670 120.0
3.06 3.068170 3.30 64.233330 127.50
3.05 3.057340 3.30 64.10 135.0
3.04 3.04650 3.2750 63.850 142.50
3.03 3.035670 3.250 63.60 150.0
3.02 3.024830 3.2250 63.350 145.555560
3.01 3.0140 3.20 63.10 141.111110
3.00 3.003160 3.233330 62.033330 136.666670
2.99 2.991420 3.266670 60.966670 146.111110
2.98 2.9860 3.30 59.90 155.555560
2.97 2.980590 3.266670 61.366670 165.0
2.96 2.969750 3.233330 62.833330 166.250
2.95 2.958920 3.20 64.30 167.50
2.94 2.948080 3.20 64.333330 168.750
2.93 2.937250 3.20 64.366670 170.0
2.92 2.926410 3.20 64.40 160.0
2.91 2.915580 3.2250 63.70 150.0
2.90 2.904740 3.250 63.0 140.0
2.89 2.893910 3.2750 62.30 130.0
2.88 2.883070 3.30 61.60 120.0
2.87 2.871330 3.266670 62.633330 110.0
2.86 2.865910 3.233330 63.666670 110.0
2.85 2.86050 3.20 64.70 110.0
2.84 2.849660 3.20 65.0 110.0
2.83 2.838830 3.20 65.30 110.0
2.82 2.827990 3.20 65.60 118.888890
2.81 2.817160 3.20 65.1750 127.777780
2.80 2.806320 3.20 64.750 136.666670
2.79 2.794580 3.20 64.3250 138.888890
2.78 2.783750 3.20 63.90 141.111110
2.77 2.772910 3.166670 63.266670 143.333330
2.76 2.762080 3.133330 62.633330 150.833330
2.75 2.756660 3.10 62.0 158.333330
2.74 2.751240 3.116670 62.30 165.833330
2.73 2.73950 3.133330 62.60 173.333330
2.72 2.728670 3.150 62.90 152.222220
2.71 2.717830 3.166670 63.20 131.111110
2.70 2.7070 3.183330 63.50 110.0
2.69 2.696160 3.20 63.80 111.111110
2.68 2.685330 3.1750 63.9250 112.222220
2.67 2.674490 3.150 64.050 113.333330
2.66 2.662750 3.1250 64.1750 110.0
2.65 2.651920 3.10 64.30 106.666670
2.64 2.641080 3.066670 65.366670 103.333330
2.63 2.635670 3.033330 66.433330 125.080650
2.62 2.630250 3.0 67.50 146.827960
2.61 2.619410 3.033330 65.466670 168.575270
2.60 2.608580 3.066670 63.433330 190.322580
2.59 2.597740 3.10 61.40 181.326160
2.58 2.586910 3.10 62.650 172.329750
2.57 2.576070 3.10 63.90 163.333330
2.56 2.565240 3.10 65.150 155.555560
2.55 2.55440 3.10 66.40 147.777780
2.54 2.542660 3.10 64.90 140.0
2.53 2.531830 3.10 63.40 147.777780
2.52 2.520990 3.10 61.90 155.555560
2.51 2.515580 3.10 62.633330 163.333330
2.50 2.510160 3.10 63.366670 154.444440
2.49 2.499320 3.10 64.10 145.555560
2.48 2.488490 3.10 65.633330 136.666670
2.47 2.477650 3.10 67.166670 136.666670
2.46 2.466820 3.10 68.70 136.666670
2.45 2.455980 3.1250 66.0750 136.666670
2.44 2.444240 3.150 63.450 136.666670
2.43 2.433410 3.1750 60.8250 133.333330
2.42 2.422570 3.20 58.20 130.0
2.41 2.411740 3.133330 61.50 126.666670
2.40 2.40090 3.066670 64.80 138.888890
2.39 2.395490 3.0 68.10 151.111110
2.38 2.390070 3.033330 67.166670 163.333330
2.37 2.379230 3.066670 66.233330 165.555560
2.36 2.36840 3.10 65.30 167.777780
2.35 2.357560 3.1250 64.30 170.0
2.34 2.347630 3.150 63.30 165.0
2.33 2.336790 3.1750 62.30 160.0
2.32 2.325960 3.20 61.30 155.0
2.31 2.315120 3.166670 63.166670 150.0
2.30 2.304290 3.133330 65.033330 150.0
2.29 2.294360 3.10 66.90 150.0
2.28 2.283520 3.10 66.266670 150.0
2.27 2.272690 3.10 65.633330 141.111110
2.26 2.261850 3.10 65.0 132.222220
2.25 2.251020 3.10 65.266670 123.333330
2.24 2.24560 3.10 65.533330 126.666670
2.23 2.240180 3.10 65.80 130.0
2.22 2.229350 3.0750 66.60 133.333330
2.21 2.219410 3.050 67.40 133.333330
