~VERSION INFORMATION SECTION
VERS. 2.0 : CWLS LAS-VERSION 2.0
WRAP. NO : One line per depth step
~WELL INFORMATION SECTION
# MNEM.UNIT VALUE/NAME DESCRIPTION
#-------- -------------- ---------------------
STRT.Metres 16 : Start
STOP.Metres 0.43 : Stop
STEP.Metres -0.01 : Step
NULL.  -999.25 :NULL VALUE
DATE. 2025-47-11 : DATE
~CURVE INFORMATION SECTION
DEPTH.Metres : 0 Depth
Depth. : 1 Depth
Incline.Deg : 2 Incline
Azimuth.Deg : 3 Azimuth
GR.CPS : 4 GR
~PARAMETER INFORMATION SECTION
~OTHER
#-------------------------------------------------
#Produced By: GeoVista Logger - Version 7.1.107.0
Natural Gamma Sonde - 6447
Verticality Sonde - 6292
#-------------------------------------------------
~ASCII LOG DATA
# ...
7.68 7.695710 4.10 74.766670 144.666670
7.67 7.686680 4.10 75.383330 148.666670
7.66 7.668620 4.10 76.0 152.666670
7.65 7.659590 4.10 75.580 156.666670
7.64 7.650560 4.10 75.160 152.777780
7.63 7.641080 4.10 74.740 148.888890
7.62 7.63160 4.10 74.320 145.0
7.61 7.622570 4.10 73.90 141.111110
7.60 7.613540 4.066670 73.766670 137.222220
7.59 7.604510 4.033330 73.633330 133.333330
7.58 7.595490 4.0 73.50 130.476190
7.57 7.586460 3.966670 73.366670 127.619050
7.56 7.577430 3.933330 73.233330 124.76190
7.55 7.558470 3.90 73.10 121.904760
7.54 7.549440 3.620 74.240 119.047620
7.53 7.540410 3.340 75.380 125.132280
7.52 7.531380 3.060 76.520 131.216930
7.51 7.522350 2.780 77.660 137.301590
7.50 7.512870 2.50 78.80 143.386240
7.49 7.503390 2.554550 78.054550 149.47090
7.48 7.494360 2.609090 77.309090 155.555560
7.47 7.485330 2.663640 76.563640 154.767030
7.46 7.47630 2.718180 75.818180 153.978490
7.45 7.467270 2.772730 75.072730 153.189960
7.44 7.449210 2.827270 74.327270 152.401430
7.43 7.439730 2.881820 73.581820 151.61290
7.42 7.430250 2.936360 72.836360 147.45520
7.41 7.421220 2.990910 72.090910 143.297490
7.40 7.412190 3.045450 71.345450 139.139780
7.39 7.403160 3.10 70.60 134.982080
7.38 7.394130 3.240 71.720 130.824370
7.37 7.384650 3.380 72.840 126.666670
7.36 7.375170 3.520 73.960 122.333330
7.35 7.366140 3.660 75.080 118.0
7.34 7.357110 3.80 76.20 113.666670
7.33 7.338150 3.816670 75.20 109.333330
7.32 7.329120 3.833330 74.20 105.0
7.31 7.320090 3.850 73.20 108.333330
7.30 7.310610 3.866670 72.20 111.666670
7.29 7.301130 3.883330 71.20 115.0
7.28 7.29210 3.90 70.20 118.333330
7.27 7.283070 3.90 71.140 121.666670
7.26 7.273590 3.90 72.080 125.0
7.25 7.264110 3.90 73.020 124.0
7.24 7.255080 3.90 73.960 123.0
7.23 7.246050 3.90 74.90 122.0
7.22 7.237020 3.883330 75.383330 121.0
7.21 7.227990 3.866670 75.866670 120.0
7.20 7.209930 3.850 76.350 122.666670
7.19 7.20090 3.833330 76.833330 125.333330
7.18 7.191870 3.816670 77.316670 128.0
7.17 7.182840 3.80 77.80 130.666670
7.16 7.173810 3.780 76.260 133.333330
7.15 7.164790 3.760 74.720 134.444440
7.14 7.155760 3.740 73.180 135.555560
7.13 7.146280 3.720 71.640 136.666670
7.12 7.136790 3.70 70.10 137.777780
7.11 7.118740 3.683330 70.883330 138.888890
7.10 7.109710 3.666670 71.666670 140.0
7.09 7.100680 3.650 72.450 139.333330
7.08 7.091650 3.633330 73.233330 138.666670
7.07 7.082620 3.616670 74.016670 138.0
7.06 7.073590 3.60 74.80 137.333330
7.05 7.064560 3.540 74.660 136.666670
7.04 7.055530 3.480 74.520 140.555560
7.03 7.04650 3.420 74.380 144.444440
7.02 7.028440 3.360 74.240 148.333330
7.01 7.019410 3.30 74.10 152.222220
7.00 7.010380 3.350 74.166670 156.111110
6.99 7.001350 3.40 74.233330 160.0
6.98 6.992330 3.450 74.30 151.333330
6.97 6.98330 3.50 74.366670 142.666670
6.96 6.974270 3.550 74.433330 134.0
6.95 6.965690 3.60 74.50 125.333330
6.94 6.957110 3.620 73.880 116.666670
6.93 6.939050 3.640 73.260 126.666670
6.92 6.930470 3.660 72.640 136.666670
6.91 6.92190 3.680 72.020 146.666670
6.90 6.912870 3.70 71.40 156.666670
6.89 6.903840 3.666670 72.033330 166.666670
6.88 6.894810 3.633330 72.666670 176.666670
6.87 6.885780 3.60 73.30 173.333330
6.86 6.876750 3.566670 73.933330 170.0
6.85 6.867720 3.533330 74.566670 166.666670
6.84 6.849660 3.50 75.20 163.333330
6.83 6.840630 3.50 74.180 160.0
6.82 6.83160 3.50 73.160 158.0
6.81 6.822570 3.50 72.140 156.0
6.80 6.813540 3.50 71.120 154.0
6.79 6.804510 3.50 70.10 152.0
6.78 6.795490 3.516670 71.483330 150.0
6.77 6.786460 3.533330 72.866670 148.888890
6.76 6.777430 3.550 74.250 147.777780
6.75 6.759370 3.566670 75.633330 146.666670
6.74 6.750340 3.583330 77.016670 145.555560
6.73 6.741310 3.60 78.40 144.444440
6.72 6.732280 3.580 77.020 143.333330
6.71 6.723250 3.560 75.640 150.0
6.70 6.713770 3.540 74.260 156.666670
6.69 6.704290 3.520 72.880 163.333330
6.68 6.695260 3.50 71.50 170.0
6.67 6.686230 3.540 72.220 176.666670
6.66 6.67720 3.580 72.940 175.0
6.65 6.668170 3.620 73.660 173.333330
6.64 6.649210 3.660 74.380 171.666670
6.63 6.640180 3.70 75.10 170.0
6.62 6.631150 3.70 74.683330 168.333330
6.61 6.622120 3.70 74.266670 166.666670
6.60 6.613090 3.70 73.850 164.0
6.59 6.604060 3.70 73.433330 161.333330
6.58 6.595030 3.70 73.016670 158.666670
6.57 6.5860 3.70 72.60 156.0
6.56 6.576980 3.70 73.480 153.333330
6.55 6.567490 3.70 74.360 152.777780
6.54 6.558010 3.70 75.240 152.222220
6.53 6.539950 3.70 76.120 151.666670
6.52 6.530930 3.70 77.0 151.111110
6.51 6.52190 3.70 75.966670 150.555560
6.50 6.512420 3.70 74.933330 150.0
6.49 6.502930 3.70 73.90 147.333330
6.48 6.493910 3.70 72.866670 144.666670
6.47 6.484880 3.70 71.833330 142.0
6.46 6.475850 3.70 70.80 139.333330
6.45 6.466820 3.70 71.40 136.666670
6.44 6.457790 3.70 72.0 132.706090
6.43 6.448760 3.70 72.60 128.745520
6.42 6.42980 3.70 73.20 124.784950
6.41 6.420770 3.70 73.80 120.824370
6.40 6.411740 3.70 73.933330 116.86380
6.39 6.402710 3.70 74.066670 112.903230
6.38 6.393680 3.70 74.20 122.322580
6.37 6.384650 3.70 74.333330 131.741940
6.36 6.375620 3.70 74.466670 141.161290
6.35 6.366140 3.70 74.60 150.580650
6.34 6.356660 3.720 74.20 160.0
6.33 6.33860 3.740 73.80 159.444440
6.32 6.329570 3.760 73.40 158.888890
6.31 6.320540 3.780 73.0 158.333330
6.30 6.311510 3.80 72.60 157.777780
6.29 6.302480 3.80 72.20 157.222220
6.28 6.293450 3.80 71.80 156.666670
6.27 6.284420 3.80 71.40 158.0
6.26 6.27540 3.80 71.0 159.333330
6.25 6.266370 3.80 70.60 160.666670
6.24 6.248310 3.80 70.772730 162.0
6.23 6.239280 3.80 70.945450 163.333330
6.22 6.230250 3.80 71.118180 156.111110
6.21 6.221220 3.80 71.290910 148.888890
6.20 6.212190 3.80 71.463640 141.666670
6.19 6.203160 3.80 71.636360 134.444440
6.18 6.194130 3.80 71.809090 127.222220
6.17 6.184650 3.80 71.981820 120.0
6.16 6.175170 3.80 72.154550 129.333330
6.15 6.166140 3.80 72.327270 138.666670
6.14 6.157110 3.80 72.50 148.0
6.13 6.139050 3.783330 71.30 157.333330
6.12 6.130020 3.766670 70.10 166.666670
6.11 6.120990 3.750 68.90 172.777780
6.10 6.111510 3.733330 67.70 178.888890
6.09 6.102030 3.716670 66.50 185.0
6.08 6.0930 3.70 65.30 191.111110
6.07 6.083970 3.70 66.120 197.222220
6.06 6.074940 3.70 66.940 203.333330
6.05 6.065910 3.70 67.760 188.666670
6.04 6.056880 3.70 68.580 174.0
6.03 6.047860 3.70 69.40 159.333330
6.02 6.02980 3.716670 70.033330 144.666670
6.01 6.020770 3.733330 70.666670 130.0
6.00 6.011740 3.750 71.30 140.0
5.99 6.002710 3.766670 71.933330 150.0
5.98 5.993680 3.783330 72.566670 160.0
5.97 5.98420 3.80 73.20 170.0
5.96 5.974720 3.80 71.660 180.0
5.95 5.965690 3.80 70.120 178.333330
5.94 5.956660 3.80 68.580 176.666670
5.93 5.93860 3.80 67.040 175.0
5.92 5.929570 3.80 65.50 173.333330
5.91 5.920540 3.80 66.766670 171.666670
5.90 5.911510 3.80 68.033330 170.0
5.89 5.902480 3.80 69.30 166.0
5.88 5.893450 3.80 70.566670 162.0
5.87 5.884420 3.80 71.833330 158.0
5.86 5.87540 3.80 73.10 154.0
5.85 5.866370 3.780 72.960 150.0
5.84 5.848310 3.760 72.820 141.666670
5.83 5.839730 3.740 72.680 133.333330
5.82 5.831150 3.720 72.540 125.0
5.81 5.822120 3.70 72.40 116.666670
5.80 5.813090 3.70 70.866670 108.333330
5.79 5.804060 3.70 69.333330 100.0
5.78 5.795030 3.70 67.80 107.333330
5.77 5.7860 3.70 66.266670 114.666670
5.76 5.776980 3.70 64.733330 122.0
5.75 5.758920 3.70 63.20 129.333330
5.74 5.749890 3.680 64.060 136.666670
5.73 5.740860 3.660 64.920 135.555560
5.72 5.731830 3.640 65.780 134.444440
5.71 5.72280 3.620 66.640 133.333330
5.70 5.713770 3.60 67.50 132.222220
5.69 5.704740 3.583330 66.30 131.111110
5.68 5.695260 3.566670 65.10 130.0
5.67 5.685780 3.550 63.90 134.666670
5.66 5.676750 3.533330 62.70 139.333330
5.65 5.667720 3.516670 61.50 144.0
5.64 5.649660 3.50 60.30 148.666670
5.63 5.640630 3.50 59.580 153.333330
5.62 5.63160 3.50 58.860 155.555560
5.61 5.622120 3.50 58.140 157.777780
5.60 5.612640 3.50 57.420 160.0
5.59 5.603610 3.50 56.70 162.222220
5.58 5.594580 3.520 59.480 164.444440
5.57 5.585550 3.540 62.260 166.666670
5.56 5.576520 3.560 65.040 173.333330
5.55 5.567040 3.580 67.820 180.0
5.54 5.557560 3.60 70.60 186.666670
