~VERSION INFORMATION SECTION
VERS. 2.0 : CWLS LAS-VERSION 2.0
WRAP. NO : One line per depth step
~WELL INFORMATION SECTION
# MNEM.UNIT VALUE/NAME DESCRIPTION
#-------- -------------- ---------------------
STRT.Metres 15 : Start
STOP.Metres 0.33 : Stop
STEP.Metres -0.01 : Step
NULL.  -999.25 :NULL VALUE
DATE. 2025-53-11 : DATE
~CURVE INFORMATION SECTION
DEPTH.Metres : 0 Depth
Depth. : 1 Depth
Incline.Deg : 2 Incline
Azimuth.Deg : 3 Azimuth
GR.CPS : 4 GR
~PARAMETER INFORMATION SECTION
~OTHER
#-------------------------------------------------
#Produced By: GeoVista Logger - Version 7.1.107.0
Natural Gamma Sonde - 6447
Verticality Sonde - 6292
#-------------------------------------------------
~ASCII LOG DATA
# ...
1.56 1.60 2.634620 85.576920 144.871790
1.55 1.589160 2.623080 86.284620 142.56410
1.54 1.578330 2.611540 86.992310 140.256410
1.53 1.567490 2.60 87.70 137.948720
1.52 1.556660 2.60 87.207690 135.641030
1.51 1.545820 2.60 86.715380 133.333330
1.50 1.534990 2.60 86.223080 133.076920
1.49 1.524150 2.60 85.730770 132.820510
1.48 1.515490 2.60 85.238460 132.56410
1.47 1.506820 2.60 84.746150 132.307690
1.46 1.498150 2.60 84.253850 132.051280
1.45 1.489480 2.60 83.761540 131.794870
1.44 1.480810 2.60 83.269230 131.538460
1.43 1.466670 2.60 82.776920 131.282050
1.42 1.452520 2.60 82.284620 131.025640
1.41 1.438370 2.60 81.792310 130.769230
1.40 1.428890 2.60 81.30 130.512820
1.39 1.419410 2.607690 81.346150 130.256410
1.38 1.409930 2.615380 81.392310 130.0
1.37 1.400450 2.623080 81.438460 131.944440
1.36 1.389010 2.630770 81.484620 133.888890
1.35 1.377580 2.638460 81.530770 135.833330
1.34 1.366140 2.646150 81.576920 137.777780
1.33 1.351240 2.653850 81.623080 139.722220
1.32 1.336340 2.661540 81.669230 141.666670
1.31 1.324150 2.669230 81.715380 143.611110
1.30 1.311960 2.676920 81.761540 145.555560
1.29 1.301130 2.684620 81.807690 147.50
1.28 1.290290 2.692310 81.853850 149.444440
1.27 1.280810 2.70 81.90 151.388890
1.26 1.271330 2.669230 81.446150 153.333330
1.25 1.255980 2.638460 80.992310 154.102560
1.24 1.244240 2.607690 80.538460 154.871790
1.23 1.234310 2.576920 80.084620 155.641030
1.22 1.224380 2.546150 79.630770 156.410260
1.21 1.214450 2.515380 79.176920 157.179490
1.20 -999.25 2.484620 78.723080 157.948720
1.19 -999.25 2.453850 78.269230 158.717950
1.18 -999.25 2.423080 77.815380 159.487180
1.17 -999.25 2.392310 77.361540 160.256410
1.16 -999.25 2.361540 76.907690 161.025640
1.15 -999.25 2.330770 76.453850 161.794870
1.14 -999.25 2.30 76.0 162.56410
1.13 -999.25 2.320 76.740 163.333330
1.12 -999.25 2.340 77.480 163.809520
1.11 -999.25 2.360 78.220 164.285710
1.10 -999.25 2.380 78.960 164.76190
1.09 -999.25 2.40 79.70 165.23810
1.08 -999.25 2.420 80.440 165.714290
1.07 -999.25 2.440 81.180 166.190480
1.06 -999.25 2.460 81.920 166.666670
1.05 -999.25 2.480 82.660 167.142860
1.04 -999.25 2.50 83.40 167.619050
1.03 -999.25 2.416670 85.283330 168.095240
1.02 -999.25 2.333330 87.166670 168.571430
1.01 -999.25 2.250 89.050 169.047620
1.00 -999.25 2.166670 90.933330 169.523810
0.99 -999.25 2.083330 92.816670 170.0
0.98 -999.25 2.0 94.70 171.742420
0.97 -999.25 2.050 91.3250 173.484850
0.96 -999.25 2.10 87.950 175.227270
0.95 -999.25 2.150 84.5750 176.96970
0.94 -999.25 2.20 81.20 178.712120
0.93 -999.25 2.350 84.750 180.454550
0.92 -999.25 2.50 88.30 182.196970
0.91 -999.25 2.40 87.10 183.939390
0.90 -999.25 -999.25 -999.25 185.681820
0.89 -999.25 -999.25 -999.25 187.424240
0.88 -999.25 -999.25 -999.25 189.166670
0.87 -999.25 -999.25 -999.25 190.909090
0.86 -999.25 -999.25 -999.25 190.143190
0.85 -999.25 -999.25 -999.25 189.377290
0.84 -999.25 -999.25 -999.25 188.611390
0.83 -999.25 -999.25 -999.25 187.845490
0.82 -999.25 -999.25 -999.25 187.079590
0.81 -999.25 -999.25 -999.25 186.313690
0.80 -999.25 -999.25 -999.25 185.547790
0.79 -999.25 -999.25 -999.25 184.781880
0.78 -999.25 -999.25 -999.25 184.015980
0.77 -999.25 -999.25 -999.25 183.250080
0.76 -999.25 -999.25 -999.25 182.484180
0.75 -999.25 -999.25 -999.25 181.718280
0.74 -999.25 -999.25 -999.25 180.952380
0.73 -999.25 -999.25 -999.25 178.998780
0.72 -999.25 -999.25 -999.25 177.045180
0.71 -999.25 -999.25 -999.25 175.091580
0.70 -999.25 -999.25 -999.25 173.137970
0.69 -999.25 -999.25 -999.25 171.184370
0.68 -999.25 -999.25 -999.25 169.230770
0.67 -999.25 -999.25 -999.25 167.277170
0.66 -999.25 -999.25 -999.25 165.323570
0.65 -999.25 -999.25 -999.25 163.369960
0.64 -999.25 -999.25 -999.25 161.416360
0.63 -999.25 -999.25 -999.25 159.462760
0.62 -999.25 -999.25 -999.25 157.509160
0.61 -999.25 -999.25 -999.25 155.555560
0.60 -999.25 -999.25 -999.25 157.314810
0.59 -999.25 -999.25 -999.25 159.074070
0.58 -999.25 -999.25 -999.25 160.833330
0.57 -999.25 -999.25 -999.25 162.592590
0.56 -999.25 -999.25 -999.25 164.351850
0.55 -999.25 -999.25 -999.25 166.111110
0.54 -999.25 -999.25 -999.25 167.870370
0.53 -999.25 -999.25 -999.25 169.629630
0.52 -999.25 -999.25 -999.25 171.388890
0.51 -999.25 -999.25 -999.25 173.148150
0.50 -999.25 -999.25 -999.25 174.907410
0.49 -999.25 -999.25 -999.25 176.666670
0.48 -999.25 -999.25 -999.25 172.857140
0.47 -999.25 -999.25 -999.25 169.047620
0.46 -999.25 -999.25 -999.25 165.23810
0.45 -999.25 -999.25 -999.25 161.428570
0.44 -999.25 -999.25 -999.25 157.619050
0.43 -999.25 -999.25 -999.25 153.809520
0.42 -999.25 -999.25 -999.25 150.0
0.41 -999.25 -999.25 -999.25 147.333330
0.40 -999.25 -999.25 -999.25 144.666670
0.39 -999.25 -999.25 -999.25 142.0
0.38 -999.25 -999.25 -999.25 139.333330
0.37 -999.25 -999.25 -999.25 136.666670
0.36 -999.25 -999.25 -999.25 126.666670
0.35 -999.25 -999.25 -999.25 116.666670
0.34 -999.25 -999.25 -999.25 110.0
0.33 -999.25 -999.25 -999.25 116.129030
