~VERSION INFORMATION SECTION
VERS. 2.0 : CWLS LAS-VERSION 2.0
WRAP. NO : One line per depth step
~WELL INFORMATION SECTION
# MNEM.UNIT VALUE/NAME DESCRIPTION
#-------- -------------- ---------------------
STRT.Metres 17 : Start
STOP.Metres 0.38 : Stop
STEP.Metres -0.01 : Step
NULL.  -999.25 :NULL VALUE
DATE. 2025-42-11 : DATE
~CURVE INFORMATION SECTION
DEPTH.Metres : 0 Depth
Depth. : 1 Depth
Incline.Deg : 2 Incline
Azimuth.Deg : 3 Azimuth
GR.CPS : 4 GR
~PARAMETER INFORMATION SECTION
~OTHER
#-------------------------------------------------
#Produced By: GeoVista Logger - Version 7.1.107.0
Natural Gamma Sonde - 6447
Verticality Sonde - 6292
#-------------------------------------------------
~ASCII LOG DATA
# ...
6.50 6.503840 3.70 70.80 170.0
6.49 6.4930 3.70 71.40 164.444440
6.48 6.482170 3.70 72.0 158.888890
6.47 6.471330 3.70 72.60 153.333330
6.46 6.46050 3.70 73.20 155.555560
6.45 6.455530 3.70 72.066670 157.777780
6.44 6.450560 3.70 70.933330 160.0
6.43 6.439730 3.70 69.80 160.833330
6.42 6.428890 3.70 70.60 161.666670
6.41 6.418060 3.70 71.40 162.50
6.40 6.407220 3.70 72.20 163.333330
6.39 6.396390 3.70 72.466670 158.888890
6.38 6.385550 3.70 72.733330 154.444440
6.37 6.374720 3.70 73.0 150.0
6.36 6.363880 3.70 71.966670 151.111110
6.35 6.353050 3.70 70.933330 152.222220
6.34 6.343120 3.70 69.90 153.333330
6.33 6.332280 3.7250 70.0250 153.333330
6.32 6.321440 3.750 70.150 153.333330
6.31 6.316030 3.7750 70.2750 153.333330
6.30 6.310610 3.80 70.40 160.286740
6.29 6.299770 3.80 70.333330 167.240140
6.28 6.288940 3.80 70.266670 174.193550
6.27 6.27810 3.80 70.20 178.145160
6.26 6.267270 3.80 70.433330 182.096770
6.25 6.257340 3.80 70.666670 186.048390
6.24 6.24650 3.80 70.90 190.0
6.23 6.235670 3.833330 70.40 166.666670
6.22 6.224830 3.866670 69.90 143.333330
6.21 6.21490 3.90 69.40 120.0
6.20 6.204060 3.80 68.633330 128.888890
6.19 6.193230 3.70 67.866670 137.777780
6.18 6.182390 3.60 67.10 146.666670
6.17 6.172460 3.6250 68.350 146.666670
6.16 6.161630 3.650 69.60 146.666670
6.15 6.156210 3.6750 70.850 146.666670
6.14 6.150790 3.70 72.10 152.222220
6.13 6.142890 3.733330 70.10 157.777780
6.12 6.134990 3.766670 68.10 163.333330
6.11 6.119190 3.80 66.10 158.333330
6.10 6.108350 3.80 67.533330 153.333330
6.09 6.097520 3.80 68.966670 148.333330
6.08 6.086680 3.80 70.40 143.333330
6.07 6.075850 3.80 70.50 136.666670
6.06 6.065910 3.80 70.60 130.0
6.05 6.055080 3.80 70.70 123.333330
6.04 6.044240 3.80 69.90 133.333330
6.03 6.033410 3.80 69.10 143.333330
6.02 6.022570 3.80 68.30 153.333330
6.01 6.011740 3.80 68.50 145.555560
6.00 6.001810 3.80 68.70 137.777780
5.99 5.990970 3.80 68.90 130.0
5.98 5.985550 3.80 69.10 127.777780
5.97 5.980140 3.80 69.166670 125.555560
5.96 5.96930 3.80 69.233330 123.333330
5.95 5.959370 3.80 69.30 131.111110
5.94 5.948530 3.80 68.816670 138.888890
5.93 5.93770 3.80 68.333330 146.666670
5.92 5.926860 3.80 67.850 156.666670
5.91 5.916030 3.80 67.366670 166.666670
5.90 5.905190 3.80 66.883330 176.666670
5.89 5.894360 3.80 66.40 180.0
5.88 5.884420 3.80 67.066670 183.333330
5.87 5.873590 3.80 67.733330 186.666670
5.86 5.862750 3.80 68.40 190.0
5.85 5.851920 3.80 68.650 163.333330
5.84 5.841080 3.80 68.90 136.666670
5.83 5.831150 3.80 69.150 110.0
5.82 5.825730 3.80 69.40 111.111110
5.81 5.820320 3.783330 69.183330 112.222220
5.80 5.809480 3.766670 68.966670 113.333330
5.79 5.798650 3.750 68.750 126.666670
5.78 5.788710 3.733330 68.533330 140.0
5.77 5.777880 3.716670 68.316670 153.333330
5.76 5.767950 3.70 68.10 140.0
5.75 5.757110 3.70 68.666670 126.666670
5.74 5.747180 3.70 69.233330 113.333330
5.73 5.736340 3.70 69.80 125.0
5.72 5.725510 3.733330 68.10 136.666670
5.71 5.715580 3.766670 66.40 148.333330
5.70 5.704740 3.80 64.70 160.0
5.69 5.693910 3.80 65.30 165.806450
5.68 5.683070 3.80 65.90 171.61290
5.67 5.673140 3.80 66.50 177.419350
5.66 5.66230 3.80 67.10 167.168460
5.65 5.651470 3.766670 68.60 156.917560
5.64 5.640630 3.733330 70.10 146.666670
5.63 5.635670 3.70 71.60 133.333330
5.62 5.63070 3.70 68.30 120.0
5.61 5.619860 3.70 65.0 106.666670
5.60 5.609030 3.70 61.70 121.111110
5.59 5.598190 3.70 65.933330 135.555560
5.58 5.587360 3.70 70.166670 150.0
5.57 5.576520 3.70 74.40 145.833330
5.56 5.566590 3.70 73.20 141.666670
5.55 5.555760 3.70 72.0 137.50
5.54 5.544920 3.70 70.80 133.333330
5.53 5.534090 3.7250 70.0250 133.333330
5.52 5.523250 3.750 69.250 133.333330
5.51 5.512420 3.7750 68.4750 133.333330
5.50 5.501580 3.80 67.70 134.444440
5.49 5.496160 3.766670 68.866670 135.555560
5.48 5.490740 3.733330 70.033330 136.666670
5.47 5.479910 3.70 71.20 132.222220
5.46 5.469980 3.70 70.10 127.777780
5.45 5.459140 3.70 69.0 123.333330
5.44 5.448310 3.70 67.90 133.333330
5.43 5.437470 3.683330 67.766670 143.333330
5.42 5.426640 3.666670 67.633330 153.333330
5.41 5.41580 3.650 67.50 163.333330
5.40 5.404970 3.633330 67.366670 158.888890
5.39 5.395030 3.616670 67.233330 154.444440
5.38 5.38420 3.60 67.10 150.0
5.37 5.373360 3.60 67.433330 147.777780
5.36 5.362530 3.60 67.766670 145.555560
5.35 5.351690 3.60 68.10 143.333330
5.34 5.341760 3.5750 67.4750 148.888890
5.33 5.330930 3.550 66.850 154.444440
5.32 5.320090 3.5250 66.2250 160.0
5.31 5.315120 3.50 65.60 144.444440
5.30 5.310160 3.533330 66.766670 128.888890
5.29 5.299320 3.566670 67.933330 113.333330
5.28 5.288490 3.60 69.10 131.111110
5.27 5.277650 3.566670 70.10 148.888890
5.26 5.267720 3.533330 71.10 166.666670
5.25 5.256880 3.50 72.10 161.666670
5.24 5.246050 3.50 70.433330 156.666670
5.23 5.235210 3.50 68.766670 151.666670
5.22 5.225280 3.50 67.10 146.666670
5.21 5.214450 3.466670 68.866670 151.111110
5.20 5.203610 3.433330 70.633330 155.555560
5.19 5.193680 3.40 72.40 160.0
5.18 5.182840 3.3750 72.10 185.454550
5.17 5.172010 3.350 71.80 210.909090
5.16 5.161170 3.3250 71.50 236.363640
5.15 5.151240 3.30 71.20 240.03190
5.14 5.145820 3.333330 68.90 243.700160
5.13 5.140410 3.366670 66.60 247.368420
5.12 5.129570 3.40 64.30 233.859650
5.11 5.118740 3.366670 65.40 220.350880
5.10 5.10880 3.333330 66.50 206.842110
5.09 5.097970 3.30 67.60 193.333330
5.08 5.087130 3.266670 68.933330 181.577060
5.07 5.07630 3.233330 70.266670 169.820790
5.06 5.066370 3.20 71.60 158.064520
5.05 5.055530 3.20 70.30 178.709680
5.04 5.04470 3.20 69.0 199.354840
5.03 5.033860 3.20 67.70 220.0
5.02 5.023930 3.2250 66.6250 214.444440
5.01 5.013090 3.250 65.550 208.888890
5.00 5.002260 3.2750 64.4750 203.333330
4.99 4.991420 3.30 63.40 188.888890
4.98 4.9860 3.266670 65.333330 174.444440
4.97 4.980590 3.233330 67.266670 160.0
4.96 4.969750 3.20 69.20 162.222220
4.95 4.958920 3.233330 68.033330 164.444440
4.94 4.948980 3.266670 66.866670 166.666670
4.93 4.938150 3.30 65.70 181.666670
4.92 4.927310 3.266670 65.966670 196.666670
4.91 4.916480 3.233330 66.233330 211.666670
4.90 4.905640 3.20 66.50 226.666670
4.89 4.894810 3.20 66.366670 213.333330
4.88 4.883970 3.20 66.233330 200.0
4.87 4.874040 3.20 66.10 186.666670
4.86 4.863210 3.20 66.0250 180.0
4.85 4.852370 3.20 65.950 173.333330
4.84 4.841530 3.20 65.8750 166.666670
4.83 4.836120 3.20 65.80 164.444440
4.82 4.83070 3.20 65.766670 162.222220
4.81 4.818960 3.20 65.733330 160.0
4.80 4.808130 3.20 65.70 188.484850
4.79 4.797290 3.166670 65.766670 216.96970
4.78 4.786460 3.133330 65.833330 245.454550
4.77 4.774720 3.10 65.90 219.776710
4.76 4.763880 3.133330 65.166670 194.098880
4.75 4.753050 3.166670 64.433330 168.421050
4.74 4.742210 3.20 63.70 162.982460
4.73 4.736340 3.20 63.733330 157.543860
4.72 4.730470 3.20 63.766670 152.105260
4.71 4.719640 3.20 63.80 146.666670
4.70 4.70880 3.1750 64.6750 131.111110
4.69 4.697970 3.150 65.550 115.555560
4.68 4.687130 3.1250 66.4250 100.0
4.67 4.67630 3.10 67.30 114.444440
4.66 4.665460 3.10 66.80 128.888890
4.65 4.654630 3.10 66.30 143.333330
4.64 4.643790 3.10 65.80 150.0
4.63 4.632960 3.133330 65.40 156.666670
4.62 4.622120 3.166670 65.0 163.333330
4.61 4.611290 3.20 64.60 165.0
4.60 4.605870 3.20 64.833330 166.666670
4.59 4.600450 3.20 65.066670 168.333330
4.58 4.589620 3.20 65.30 170.0
4.57 4.578780 3.233330 65.166670 164.444440
4.56 4.567950 3.266670 65.033330 158.888890
4.55 4.558010 3.30 64.90 153.333330
4.54 4.547180 3.3250 65.050 143.333330
4.53 4.536340 3.350 65.20 133.333330
4.52 4.52460 3.3750 65.350 123.333330
4.51 4.513770 3.40 65.50 123.333330
4.50 4.502930 3.40 65.433330 123.333330
4.49 4.49210 3.40 65.366670 123.333330
4.48 4.481260 3.40 65.30 128.458780
4.47 4.475850 3.433330 65.40 133.584230
4.46 4.470430 3.466670 65.50 138.709680
4.45 4.459590 3.50 65.60 128.198920
4.44 4.448760 3.5250 65.550 117.688170
4.43 4.437920 3.550 65.50 107.177420
4.42 4.427090 3.5750 65.450 96.666670
4.41 4.416250 3.60 65.40 111.111110
4.40 4.405420 3.60 65.266670 125.555560
4.39 4.394580 3.60 65.133330 140.0
4.38 4.383750 3.60 65.0 141.111110
