~VERSION INFORMATION SECTION
VERS. 2.0 : CWLS LAS-VERSION 2.0
WRAP. NO : One line per depth step
~WELL INFORMATION SECTION
# MNEM.UNIT VALUE/NAME DESCRIPTION
#-------- -------------- ---------------------
STRT.Metres 17 : Start
STOP.Metres 0.38 : Stop
STEP.Metres -0.01 : Step
NULL.  -999.25 :NULL VALUE
DATE. 2025-42-11 : DATE
~CURVE INFORMATION SECTION
DEPTH.Metres : 0 Depth
Depth. : 1 Depth
Incline.Deg : 2 Incline
Azimuth.Deg : 3 Azimuth
GR.CPS : 4 GR
~PARAMETER INFORMATION SECTION
~OTHER
#-------------------------------------------------
#Produced By: GeoVista Logger - Version 7.1.107.0
Natural Gamma Sonde - 6447
Verticality Sonde - 6292
#-------------------------------------------------
~ASCII LOG DATA
# ...
10.79 10.798190 4.133330 74.966670 190.0
10.78 10.787360 4.10 75.20 182.222220
10.77 10.776520 4.10 75.566670 174.444440
10.76 10.765690 4.10 75.933330 166.666670
10.75 10.754850 4.10 76.30 165.0
10.74 10.744920 4.10 76.20 163.333330
10.73 10.734090 4.10 76.10 161.666670
10.72 10.723250 4.10 76.0 160.0
10.71 10.713320 4.10 76.266670 162.222220
10.70 10.702480 4.10 76.533330 164.444440
10.69 10.691650 4.10 76.80 166.666670
10.68 10.680810 4.10 76.9750 166.666670
10.67 10.670880 4.10 77.150 166.666670
10.66 10.665460 4.10 77.3250 166.666670
10.65 10.660050 4.10 77.50 166.666670
10.64 10.649210 4.066670 77.366670 166.666670
10.63 10.638370 4.033330 77.233330 166.666670
10.62 10.627540 4.0 77.10 157.777780
10.61 10.617610 4.033330 76.70 148.888890
10.60 10.606770 4.066670 76.30 140.0
10.59 10.595940 4.10 75.90 140.0
10.58 10.58510 4.10 76.566670 140.0
10.57 10.574270 4.10 77.233330 140.0
10.56 10.563430 4.10 77.90 140.0
10.55 10.55350 4.066670 77.30 135.555560
10.54 10.542660 4.033330 76.70 131.111110
10.53 10.531830 4.0 76.10 126.666670
10.52 10.520990 4.0250 76.450 127.45520
10.51 10.515580 4.050 76.80 128.243730
10.50 10.510160 4.0750 77.150 129.032260
10.49 10.499320 4.10 77.50 136.021510
10.48 10.489390 4.066670 77.166670 143.010750
10.47 10.478560 4.033330 76.833330 150.0
10.46 10.467720 4.0 76.50 150.0
10.45 10.456880 4.0 76.933330 150.0
10.44 10.446050 4.0 77.366670 150.0
10.43 10.435210 4.0 77.80 149.166670
10.42 10.424380 4.0 77.40 148.333330
10.41 10.414450 4.0 77.0 147.50
10.40 10.403610 4.0 76.60 146.666670
10.39 10.392780 4.0 77.533330 152.222220
10.38 10.381940 4.0 78.466670 157.777780
10.37 10.371110 4.0 79.40 163.333330
10.36 10.360270 4.0 79.3250 167.777780
10.35 10.35530 4.0 79.250 172.222220
10.34 10.350340 4.0 79.1750 176.666670
10.33 10.33950 4.0 79.10 167.777780
10.32 10.328670 4.0 78.466670 158.888890
10.31 10.317830 4.0 77.833330 150.0
10.30 10.30790 4.0 77.20 147.777780
10.29 10.297070 3.966670 77.933330 145.555560
10.28 10.286230 3.933330 78.666670 143.333330
10.27 10.27540 3.90 79.40 146.666670
10.26 10.265460 3.933330 78.833330 150.0
10.25 10.254630 3.966670 78.266670 153.333330
10.24 10.243790 4.0 77.70 146.666670
10.23 10.232960 4.0 78.450 140.0
10.22 10.222120 4.0 79.20 133.333330
10.21 10.211290 4.0 79.950 126.666670
10.20 10.205870 4.0 80.70 134.444440
10.19 10.200450 3.966670 79.30 142.222220
10.18 10.189620 3.933330 77.90 150.0
10.17 10.178780 3.90 76.50 146.666670
10.16 10.167950 3.933330 76.10 143.333330
10.15 10.157110 3.966670 75.70 140.0
10.14 10.147180 4.0 75.30 152.222220
10.13 10.136340 3.966670 76.50 164.444440
10.12 10.125510 3.933330 77.70 176.666670
10.11 10.114670 3.90 78.90 171.666670
10.10 10.103840 3.90 79.20 166.666670
10.09 10.093910 3.90 79.50 161.666670
10.08 10.083070 3.90 79.80 156.666670
10.07 10.072230 3.90 78.450 151.111110
10.06 10.06140 3.90 77.10 145.555560
10.05 10.055980 3.90 75.750 140.0
10.04 10.050560 3.90 74.40 142.222220
10.03 10.039730 3.90 75.066670 144.444440
10.02 10.028890 3.90 75.733330 146.666670
10.01 10.018060 3.90 76.40 163.333330
10.00 10.007220 3.90 77.433330 180.0
9.99 9.996390 3.90 78.466670 196.666670
9.98 9.986460 3.90 79.50 191.111110
9.97 9.975620 3.90 79.266670 185.555560
9.96 9.964790 3.90 79.033330 180.0
9.95 9.953950 3.90 78.80 170.833330
9.94 9.943120 3.90 78.10 161.666670
9.93 9.932280 3.90 77.40 152.50
9.92 9.922350 3.90 76.70 143.333330
9.91 9.911510 3.8750 77.0250 146.093190
9.90 9.906090 3.850 77.350 148.853050
9.89 9.900680 3.8250 77.6750 151.61290
9.88 9.889840 3.80 78.0 145.519710
9.87 9.879010 3.80 77.60 139.426520
9.86 9.868170 3.80 77.20 133.333330
9.85 9.858240 3.80 76.80 135.555560
9.84 9.84740 3.80 77.533330 137.777780
9.83 9.836570 3.80 78.266670 140.0
9.82 9.826640 3.80 79.0 138.888890
9.81 9.81580 3.80 77.133330 137.777780
9.80 9.804970 3.80 75.266670 136.666670
9.79 9.794130 3.80 73.40 145.0
9.78 9.78420 3.80 73.533330 153.333330
9.77 9.773360 3.80 73.666670 161.666670
9.76 9.762530 3.80 73.80 170.0
9.75 9.751690 3.7750 74.950 167.777780
9.74 9.741760 3.750 76.10 165.555560
9.73 9.730930 3.7250 77.250 163.333330
9.72 9.720090 3.70 78.40 158.888890
9.71 9.715120 3.733330 77.30 154.444440
9.70 9.710160 3.766670 76.20 150.0
9.69 9.699320 3.80 75.10 153.333330
9.68 9.688490 3.80 75.80 156.666670
9.67 9.678560 3.80 76.50 160.0
9.66 9.667720 3.80 77.20 155.555560
9.65 9.656880 3.766670 77.666670 151.111110
9.64 9.646050 3.733330 78.133330 146.666670
9.63 9.636120 3.70 78.60 148.333330
9.62 9.625280 3.70 77.366670 150.0
9.61 9.614450 3.70 76.133330 151.666670
9.60 9.603610 3.70 74.90 153.333330
9.59 9.593680 3.70 75.0750 150.0
9.58 9.582840 3.70 75.250 146.666670
9.57 9.572010 3.70 75.4250 143.333330
9.56 9.561170 3.70 75.60 155.555560
9.55 9.551240 3.70 75.966670 167.777780
9.54 9.545820 3.70 76.333330 180.0
9.53 9.540410 3.70 76.70 183.333330
9.52 9.529570 3.70 76.50 186.666670
9.51 9.518740 3.70 76.30 190.0
9.50 9.50880 3.70 76.10 176.666670
9.49 9.497970 3.70 75.733330 163.333330
9.48 9.487130 3.70 75.366670 150.0
9.47 9.47630 3.70 75.0 151.666670
9.46 9.465460 3.70 75.40 153.333330
9.45 9.454630 3.70 75.80 155.0
9.44 9.443790 3.70 76.20 156.666670
9.43 9.432960 3.70 76.80 171.111110
9.42 9.422120 3.70 77.40 185.555560
9.41 9.412190 3.70 78.0 200.0
9.40 9.401350 3.70 78.60 174.444440
9.39 9.395940 3.70 77.033330 148.888890
9.38 9.390520 3.70 75.466670 123.333330
9.37 9.379680 3.70 73.90 128.888890
9.36 9.368850 3.70 74.266670 134.444440
9.35 9.358010 3.70 74.633330 140.0
9.34 9.347180 3.70 75.0 151.111110
9.33 9.336340 3.70 75.40 162.222220
9.32 9.325510 3.70 75.80 173.333330
9.31 9.314670 3.70 76.20 172.50
9.30 9.303840 3.70 75.0 171.666670
9.29 9.2930 3.70 73.80 170.833330
9.28 9.282170 3.70 72.60 170.0
9.27 9.271330 3.70 73.20 166.666670
9.26 9.26140 3.70 73.80 163.333330
9.25 9.255980 3.70 74.40 160.0
9.24 9.250560 3.70 74.5750 144.444440
9.23 9.239730 3.70 74.750 128.888890
9.22 9.228890 3.70 74.9250 113.333330
9.21 9.218060 3.70 75.10 128.888890
9.20 9.207220 3.70 75.233330 144.444440
9.19 9.196390 3.70 75.366670 160.0
9.18 9.186460 3.70 75.50 156.666670
9.17 9.175620 3.666670 74.433330 153.333330
9.16 9.164790 3.633330 73.366670 150.0
9.15 9.153950 3.60 72.30 146.666670
9.14 9.143120 3.633330 72.466670 144.444440
9.13 9.132280 3.666670 72.633330 142.222220
9.12 9.121440 3.70 72.80 140.0
9.11 9.116030 3.70 73.6250 141.111110
9.10 9.110610 3.70 74.450 142.222220
9.09 9.099770 3.70 75.2750 143.333330
9.08 9.088940 3.70 76.10 141.111110
9.07 9.079010 3.70 75.466670 138.888890
9.06 9.068170 3.70 74.833330 136.666670
9.05 9.057340 3.70 74.20 135.555560
9.04 9.04650 3.70 73.533330 134.444440
9.03 9.035670 3.70 72.866670 133.333330
9.02 9.024830 3.70 72.20 133.333330
9.01 9.01490 3.70 72.566670 133.333330
9.00 9.004060 3.70 72.933330 133.333330
8.99 8.993230 3.70 73.30 133.333330
8.98 8.982390 3.70 74.133330 136.666670
8.97 8.971560 3.70 74.966670 140.0
8.96 8.961630 3.70 75.80 143.333330
8.95 8.956210 3.6750 74.50 137.777780
8.94 8.950790 3.650 73.20 132.222220
8.93 8.939950 3.6250 71.90 126.666670
8.92 8.929120 3.60 70.60 134.444440
8.91 8.919190 3.633330 72.366670 142.222220
8.90 8.908350 3.666670 74.133330 150.0
8.89 8.897520 3.70 75.90 157.777780
8.88 8.887580 3.70 75.733330 165.555560
8.87 8.876750 3.70 75.566670 173.333330
8.86 8.865910 3.70 75.40 160.0
8.85 8.855980 3.70 74.30 146.666670
8.84 8.845150 3.70 73.20 133.333330
8.83 8.834310 3.70 72.10 133.333330
8.82 8.824380 3.70 73.0250 133.333330
8.81 8.813540 3.70 73.950 133.333330
8.80 8.802710 3.70 74.8750 133.333330
8.79 8.791870 3.70 75.80 133.333330
8.78 8.781940 3.70 75.166670 133.333330
8.77 8.771110 3.70 74.533330 133.333330
8.76 8.760270 3.70 73.90 143.333330
8.75 8.75530 3.70 73.066670 153.333330
8.74 8.750340 3.70 72.233330 163.333330
8.73 8.73950 3.70 71.40 166.464650
8.72 8.728670 3.70 72.866670 169.595960
8.71 8.717830 3.70 74.333330 172.727270
8.70 8.70790 3.70 75.80 153.484850
8.69 8.697070 3.70 75.533330 134.242420
8.68 8.686230 3.70 75.266670 115.0
8.67 8.67540 3.70 75.0 121.250
