~VERSION INFORMATION SECTION
VERS. 2.0 : CWLS LAS-VERSION 2.0
WRAP. NO : One line per depth step
~WELL INFORMATION SECTION
# MNEM.UNIT VALUE/NAME DESCRIPTION
#-------- -------------- ---------------------
STRT.Metres 15 : Start
STOP.Metres 0.33 : Stop
STEP.Metres -0.01 : Step
NULL.  -999.25 :NULL VALUE
DATE. 2025-53-11 : DATE
~CURVE INFORMATION SECTION
DEPTH.Metres : 0 Depth
Depth. : 1 Depth
Incline.Deg : 2 Incline
Azimuth.Deg : 3 Azimuth
GR.CPS : 4 GR
~PARAMETER INFORMATION SECTION
~OTHER
#-------------------------------------------------
#Produced By: GeoVista Logger - Version 7.1.107.0
Natural Gamma Sonde - 6447
Verticality Sonde - 6292
#-------------------------------------------------
~ASCII LOG DATA
# ...
5.37 5.408580 3.153850 62.369230 160.769230
5.36 5.398190 3.092310 61.561540 159.871790
5.35 5.387810 3.030770 60.753850 158.974360
5.34 5.377430 2.969230 59.946150 158.076920
5.33 5.367040 2.907690 59.138460 157.179490
5.32 5.356660 2.846150 58.330770 156.282050
5.31 5.346280 2.784620 57.523080 155.384620
5.30 5.335890 2.723080 56.715380 154.487180
5.29 5.325510 2.661540 55.907690 153.589740
5.28 5.31490 2.60 55.10 152.692310
5.27 5.304290 2.650 53.983330 151.794870
5.26 5.293680 2.70 52.866670 150.897440
5.25 5.283070 2.750 51.750 150.0
5.24 5.274760 2.80 50.633330 149.722220
5.23 5.266460 2.850 49.516670 149.444440
5.22 5.258150 2.90 48.40 149.166670
5.21 5.249840 2.950 47.283330 148.888890
5.20 5.241530 3.0 46.166670 148.611110
5.19 5.230930 3.050 45.050 148.333330
5.18 5.220320 3.10 43.933330 148.055560
5.17 5.209710 3.150 42.816670 147.777780
5.16 5.19910 3.20 41.70 147.50
5.15 5.188710 3.176920 44.723080 147.222220
5.14 5.178330 3.153850 47.746150 146.944440
5.13 5.167950 3.130770 50.769230 146.666670
5.12 5.157560 3.107690 53.792310 151.282050
5.11 5.146950 3.084620 56.815380 155.897440
5.10 5.136340 3.061540 59.838460 160.512820
5.09 5.125730 3.038460 62.861540 165.128210
5.08 5.115120 3.015380 65.884620 169.743590
5.07 5.104740 2.992310 68.907690 174.358970
5.06 5.094360 2.969230 71.930770 178.974360
5.05 5.083970 2.946150 74.953850 183.589740
5.04 5.073590 2.923080 77.976920 188.205130
5.03 5.064920 2.90 81.0 192.820510
5.02 5.056250 2.938460 79.70 197.43590
5.01 5.047580 2.976920 78.40 202.051280
5.00 5.038920 3.015380 77.10 206.666670
4.99 5.030250 3.053850 75.80 204.871790
4.98 5.019410 3.092310 74.50 203.076920
4.97 5.008580 3.130770 73.20 201.282050
4.96 4.997740 3.169230 71.90 199.487180
4.95 4.986910 3.207690 70.60 197.692310
4.94 4.978240 3.246150 69.30 195.897440
4.93 4.969570 3.284620 68.0 194.102560
4.92 4.96090 3.323080 66.70 192.307690
4.91 4.952230 3.361540 65.40 190.512820
4.90 4.943570 3.40 64.10 188.717950
4.89 4.932510 3.350 64.108330 186.923080
4.88 4.921440 3.30 64.116670 185.128210
4.87 4.910380 3.250 64.1250 183.333330
4.86 4.899320 3.20 64.133330 181.944440
4.85 4.888490 3.150 64.141670 180.555560
4.84 4.877650 3.10 64.150 179.166670
4.83 4.866820 3.050 64.158330 177.777780
4.82 4.855980 3.0 64.166670 176.388890
4.81 4.847130 2.950 64.1750 175.0
4.80 4.838280 2.90 64.183330 173.611110
4.79 4.829440 2.850 64.191670 172.222220
4.78 4.820590 2.80 64.20 170.833330
4.77 4.811740 2.769230 65.484620 169.444440
4.76 4.80090 2.738460 66.769230 168.055560
4.75 4.790070 2.707690 68.053850 166.666670
4.74 4.779230 2.676920 69.338460 166.501240
4.73 4.76840 2.646150 70.623080 166.335810
4.72 4.757340 2.615380 71.907690 166.170390
4.71 4.746280 2.584620 73.192310 166.004960
4.70 4.735210 2.553850 74.476920 165.839540
4.69 4.724150 2.523080 75.761540 165.674110
4.68 4.715670 2.492310 77.046150 165.508680
4.67 4.707180 2.461540 78.330770 165.343260
4.66 4.698690 2.430770 79.615380 165.177830
4.65 4.69020 2.40 80.90 165.012410
4.64 4.681720 2.469230 79.184620 164.846980
4.63 4.670880 2.538460 77.469230 164.681560
4.62 4.660050 2.607690 75.753850 164.516130
4.61 4.649210 2.676920 74.038460 166.220020
4.60 4.638370 2.746150 72.323080 167.92390
4.59 4.627770 2.815380 70.607690 169.627790
4.58 4.617160 2.884620 68.892310 171.331680
4.57 4.606550 2.953850 67.176920 173.035570
4.56 4.595940 3.023080 65.461540 174.739450
4.55 4.587270 3.092310 63.746150 176.443340
4.54 4.57860 3.161540 62.030770 178.147230
4.53 4.569930 3.230770 60.315380 179.851120
4.52 4.561260 3.30 58.60 181.5550
4.51 4.55260 3.30 58.846150 183.258890
4.50 4.541760 3.30 59.092310 184.962780
4.49 4.530930 3.30 59.338460 186.666670
4.48 4.520090 3.30 59.584620 183.333330
4.47 4.509260 3.30 59.830770 180.0
4.46 4.498420 3.30 60.076920 176.666670
4.45 4.487580 3.30 60.323080 173.333330
4.44 4.476750 3.30 60.569230 170.0
4.43 4.465910 3.30 60.815380 166.666670
4.42 4.45530 3.30 61.061540 163.333330
4.41 4.44470 3.30 61.307690 160.0
4.40 4.434090 3.30 61.553850 156.666670
4.39 4.423480 3.30 61.80 153.333330
4.38 4.414810 3.307690 62.507690 150.0
4.37 4.406140 3.315380 63.215380 146.666670
4.36 4.397470 3.323080 63.923080 144.871790
4.35 4.38880 3.330770 64.630770 143.076920
4.34 4.380140 3.338460 65.338460 141.282050
4.33 4.36930 3.346150 66.046150 139.487180
4.32 4.358470 3.353850 66.753850 137.692310
4.31 4.347630 3.361540 67.461540 135.897440
4.30 4.336790 3.369230 68.169230 134.102560
4.29 4.325960 3.376920 68.876920 132.307690
4.28 4.315120 3.384620 69.584620 130.512820
4.27 4.304290 3.392310 70.292310 128.717950
4.26 4.293450 3.40 71.0 126.923080
4.25 4.284970 3.376920 70.953850 125.128210
4.24 4.276480 3.353850 70.907690 123.333330
4.23 4.267990 3.330770 70.861540 125.641030
4.22 4.25950 3.307690 70.815380 127.948720
4.21 4.251020 3.284620 70.769230 130.256410
4.20 4.240180 3.261540 70.723080 132.56410
4.19 4.229350 3.238460 70.676920 134.871790
4.18 4.218510 3.215380 70.630770 137.179490
4.17 4.207670 3.192310 70.584620 139.487180
4.16 4.196840 3.169230 70.538460 141.794870
4.15 4.1860 3.146150 70.492310 144.102560
4.14 4.175170 3.123080 70.446150 146.410260
4.13 4.164330 3.10 70.40 148.717950
4.12 4.155670 3.161540 69.607690 151.025640
4.11 4.1470 3.223080 68.815380 153.333330
4.10 4.138330 3.284620 68.023080 155.128210
4.09 4.129660 3.346150 67.230770 156.923080
4.08 4.120990 3.407690 66.438460 158.717950
4.07 4.110160 3.469230 65.646150 160.512820
4.06 4.099320 3.530770 64.853850 162.307690
4.05 4.088490 3.592310 64.061540 164.102560
4.04 4.077650 3.653850 63.269230 165.897440
4.03 4.066820 3.715380 62.476920 167.692310
4.02 4.055980 3.776920 61.684620 169.487180
4.01 4.045150 3.838460 60.892310 171.282050
4.00 4.034310 3.90 60.10 173.076920
3.99 4.025640 3.807690 60.030770 174.871790
3.98 4.016980 3.715380 59.961540 176.666670
3.97 4.008310 3.623080 59.892310 172.56410
3.96 3.999640 3.530770 59.823080 168.461540
3.95 3.990970 3.438460 59.753850 164.358970
3.94 3.980140 3.346150 59.684620 160.256410
3.93 3.96930 3.253850 59.615380 156.153850
3.92 3.958470 3.161540 59.546150 152.051280
3.91 3.947630 3.069230 59.476920 147.948720
3.90 3.938780 2.976920 59.407690 143.846150
3.89 3.929930 2.884620 59.338460 139.743590
3.88 3.921080 2.792310 59.269230 135.641030
3.87 3.912230 2.70 59.20 131.538460
3.86 3.903390 2.723080 59.776920 127.43590
3.85 3.892330 2.746150 60.353850 123.333330
3.84 3.881260 2.769230 60.930770 126.410260
3.83 3.87020 2.792310 61.507690 129.487180
3.82 3.859140 2.815380 62.084620 132.56410
3.81 3.848310 2.838460 62.661540 135.641030
3.80 3.837470 2.861540 63.238460 138.717950
3.79 3.826640 2.884620 63.815380 141.794870
3.78 3.81580 2.907690 64.392310 144.871790
3.77 3.806950 2.930770 64.969230 147.948720
3.76 3.79810 2.953850 65.546150 151.025640
3.75 3.789260 2.976920 66.123080 154.102560
3.74 3.780410 3.0 66.70 157.179490
3.73 3.771560 3.038460 66.092310 160.256410
3.72 3.76050 3.076920 65.484620 163.333330
3.71 3.749440 3.115380 64.876920 164.358970
3.70 3.738370 3.153850 64.269230 165.384620
3.69 3.727310 3.192310 63.661540 166.410260
3.68 3.718650 3.230770 63.053850 167.43590
3.67 3.709980 3.269230 62.446150 168.461540
3.66 3.701310 3.307690 61.838460 169.487180
3.65 3.692640 3.346150 61.230770 170.512820
3.64 3.683970 3.384620 60.623080 171.538460
3.63 3.672910 3.423080 60.015380 172.56410
3.62 3.661850 3.461540 59.407690 173.589740
3.61 3.650790 3.50 58.80 174.615380
3.60 3.639730 3.430770 58.746150 175.641030
3.59 3.628890 3.361540 58.692310 176.666670
3.58 3.618060 3.292310 58.638460 174.358970
3.57 3.607220 3.223080 58.584620 172.051280
3.56 3.596390 3.153850 58.530770 169.743590
3.55 3.585550 3.084620 58.476920 167.43590
3.54 3.574720 3.015380 58.423080 165.128210
3.53 3.563880 2.946150 58.369230 162.820510
3.52 3.553050 2.876920 58.315380 160.512820
3.51 3.544560 2.807690 58.261540 158.205130
3.50 3.536070 2.738460 58.207690 155.897440
3.49 3.527580 2.669230 58.153850 153.589740
3.48 3.51910 2.60 58.10 151.282050
3.47 3.510610 2.614290 58.957140 148.974360
