~VERSION INFORMATION SECTION
VERS. 2.0 : CWLS LAS-VERSION 2.0
WRAP. NO : One line per depth step
~WELL INFORMATION SECTION
# MNEM.UNIT VALUE/NAME DESCRIPTION
#-------- -------------- ---------------------
STRT.Metres 17 : Start
STOP.Metres 0.38 : Stop
STEP.Metres -0.01 : Step
NULL.  -999.25 :NULL VALUE
DATE. 2025-42-11 : DATE
~CURVE INFORMATION SECTION
DEPTH.Metres : 0 Depth
Depth. : 1 Depth
Incline.Deg : 2 Incline
Azimuth.Deg : 3 Azimuth
GR.CPS : 4 GR
~PARAMETER INFORMATION SECTION
~OTHER
#-------------------------------------------------
#Produced By: GeoVista Logger - Version 7.1.107.0
Natural Gamma Sonde - 6447
Verticality Sonde - 6292
#-------------------------------------------------
~ASCII LOG DATA
# ...
14.91 14.910160 5.30 79.650 148.888890
14.90 14.905190 5.30 79.1750 150.0
14.89 14.900230 5.30 78.70 144.444440
14.88 14.889390 5.30 79.366670 138.888890
14.87 14.878560 5.30 80.033330 133.333330
14.86 14.868620 5.30 80.70 128.888890
14.85 14.857790 5.30 79.933330 124.444440
14.84 14.846950 5.30 79.166670 120.0
14.83 14.837020 5.30 78.40 127.777780
14.82 14.826190 5.30 79.10 135.555560
14.81 14.815350 5.30 79.80 143.333330
14.80 14.805420 5.30 80.50 147.50
14.79 14.794580 5.30 80.6250 151.666670
14.78 14.783750 5.30 80.750 155.833330
14.77 14.773810 5.30 80.8750 160.0
14.76 14.762980 5.30 81.0 153.333330
14.75 14.753050 5.266670 80.70 146.666670
14.74 14.744020 5.233330 80.40 140.0
14.73 14.733180 5.20 80.10 143.870970
14.72 14.722350 5.20 80.466670 147.741940
14.71 14.711510 5.20 80.833330 151.61290
14.70 14.701580 5.20 81.20 151.209680
14.69 14.696160 5.20 80.866670 150.806450
14.68 14.690740 5.20 80.533330 150.403230
14.67 14.679910 5.20 80.20 150.0
14.66 14.669070 5.233330 80.70 141.111110
14.65 14.659140 5.266670 81.20 132.222220
14.64 14.648310 5.30 81.70 123.333330
14.63 14.637470 5.30 81.70 136.666670
14.62 14.626640 5.30 81.70 150.0
14.61 14.61670 5.30 81.70 163.333330
14.60 14.605870 5.2750 81.10 166.666670
14.59 14.595030 5.250 80.50 170.0
14.58 14.58420 5.2250 79.90 173.333330
14.57 14.574270 5.20 79.30 165.555560
14.56 14.563430 5.20 80.033330 157.777780
14.55 14.55260 5.20 80.766670 150.0
14.54 14.540860 5.20 81.50 138.888890
14.53 14.535440 5.20 82.30 127.777780
14.52 14.530020 5.20 83.10 116.666670
14.51 14.519190 5.20 83.90 128.750
14.50 14.507450 5.20 83.966670 140.833330
14.49 14.496610 5.20 84.033330 152.916670
14.48 14.485780 5.20 84.10 165.0
14.47 14.474040 5.133330 82.066670 146.666670
14.46 14.463210 5.066670 80.033330 128.333330
14.45 14.452370 5.0 78.0 110.0
14.44 14.441530 5.0 80.20 127.777780
14.43 14.436120 5.0 82.40 145.555560
14.42 14.43070 5.0 84.60 163.333330
14.41 14.419860 5.033330 83.80 172.222220
14.40 14.409030 5.066670 83.0 181.111110
14.39 14.398190 5.10 82.20 190.0
14.38 14.387360 5.0750 82.10 196.666670
14.37 14.376520 5.050 82.0 203.333330
14.36 14.367490 5.0250 81.90 210.0
14.35 14.357560 5.0 81.80 187.50
14.34 14.346730 5.0 81.966670 165.0
14.33 14.335890 5.0 82.133330 142.50
14.32 14.325960 5.0 82.30 120.0
14.31 14.315120 4.966670 82.90 133.333330
14.30 14.304290 4.933330 83.50 146.666670
14.29 14.294360 4.90 84.10 160.0
14.28 14.283520 4.90 83.30 161.111110
14.27 14.273590 4.90 82.50 162.222220
14.26 14.262750 4.90 81.70 163.333330
14.25 14.251920 4.90 81.950 163.333330
14.24 14.241990 4.90 82.20 163.333330
14.23 14.231150 4.90 82.450 163.333330
14.22 14.220320 4.90 82.70 160.0
14.21 14.215350 4.833330 82.50 156.666670
14.20 14.210380 4.766670 82.30 153.333330
14.19 14.199550 4.70 82.10 150.0
14.18 14.188710 4.70 82.40 162.222220
14.17 14.178780 4.70 82.70 174.444440
14.16 14.167950 4.70 83.0 186.666670
14.15 14.157110 4.666670 82.733330 172.222220
14.14 14.147180 4.633330 82.466670 157.777780
14.13 14.136340 4.60 82.20 143.333330
14.12 14.125510 4.6750 82.4750 148.243730
14.11 14.114670 4.750 82.750 153.154120
14.10 14.104740 4.8250 83.0250 158.064520
14.09 14.093910 4.90 83.30 160.93190
14.08 14.083070 4.90 83.70 163.799280
14.07 14.072230 4.90 84.10 166.666670
14.06 14.06230 4.90 84.50 147.777780
14.05 14.051470 4.866670 82.60 128.888890
14.04 14.046050 4.833330 80.70 110.0
14.03 14.040630 4.80 78.80 120.833330
14.02 14.02980 4.80 79.90 131.666670
14.01 14.018960 4.80 81.0 142.50
14.00 14.008130 4.80 82.10 153.333330
13.99 13.997290 4.833330 82.0 153.333330
13.98 13.986460 4.866670 81.90 153.333330
13.97 13.975620 4.90 81.80 153.333330
13.96 13.964790 4.90 82.666670 145.555560
13.95 13.953950 4.90 83.533330 137.777780
13.94 13.943120 4.90 84.40 130.0
13.93 13.932280 4.8750 83.40 146.666670
13.92 13.921440 4.850 82.40 163.333330
13.91 13.916030 4.8250 81.40 180.0
13.90 13.910610 4.80 80.40 162.222220
13.89 13.899770 4.766670 79.866670 144.444440
13.88 13.888940 4.733330 79.333330 126.666670
13.87 13.87810 4.70 78.80 130.0
13.86 13.867270 4.733330 80.866670 133.333330
13.85 13.856430 4.766670 82.933330 136.666670
13.84 13.84560 4.80 85.0 122.222220
13.83 13.833860 4.80 85.0 107.777780
13.82 13.823020 4.80 85.0 93.333330
13.81 13.812190 4.80 85.0 95.833330
13.80 13.801350 4.783330 84.0 98.333330
13.79 13.792330 4.766670 83.0 100.833330
13.78 13.782390 4.750 82.0 103.333330
13.77 13.771560 4.733330 81.0 118.888890
13.76 13.766140 4.716670 80.0 134.444440
13.75 13.760720 4.70 79.0 150.0
13.74 13.749890 4.7250 80.30 162.222220
13.73 13.739950 4.750 81.60 174.444440
13.72 13.729120 4.7750 82.90 186.666670
13.71 13.718280 4.80 84.20 166.666670
13.70 13.707450 4.766670 84.40 146.666670
13.69 13.697520 4.733330 84.60 126.666670
13.68 13.686680 4.70 84.80 121.111110
13.67 13.675850 4.70 84.133330 115.555560
13.66 13.665010 4.70 83.466670 110.0
13.65 13.655080 4.70 82.80 120.595240
13.64 13.644240 4.70 83.333330 131.190480
13.63 13.633410 4.70 83.866670 141.785710
13.62 13.622570 4.70 84.40 152.380950
13.61 13.611740 4.6750 83.7750 142.328040
13.60 13.60090 4.650 83.150 132.275130
13.59 13.590970 4.6250 82.5250 122.222220
13.58 13.585550 4.60 81.90 128.148150
13.57 13.580140 4.60 82.066670 134.074070
13.56 13.56930 4.60 82.233330 140.0
13.55 13.558470 4.60 82.40 138.333330
13.54 13.548530 4.60 84.266670 136.666670
13.53 13.53770 4.60 86.133330 135.0
13.52 13.526860 4.60 88.0 133.333330
13.51 13.516030 4.566670 86.466670 125.555560
13.50 13.506090 4.533330 84.933330 117.777780
13.49 13.495260 4.50 83.40 110.0
13.48 13.484420 4.40 83.533330 110.0
13.47 13.473590 4.30 83.666670 110.0
13.46 13.463660 4.20 83.80 110.0
13.45 13.452820 4.20 84.3250 130.0
13.44 13.441990 4.20 84.850 150.0
13.43 13.431150 4.20 85.3750 170.0
13.42 13.425730 4.20 85.90 166.666670
13.41 13.420320 4.20 83.366670 163.333330
13.40 13.409480 4.20 80.833330 160.0
13.39 13.398650 4.20 78.30 164.444440
13.38 13.387810 4.266670 79.466670 168.888890
13.37 13.376980 4.333330 80.633330 173.333330
13.36 13.365240 4.40 81.80 166.666670
13.35 13.35530 4.40 84.60 160.0
13.34 13.346280 4.40 87.40 153.333330
13.33 13.335440 4.40 90.20 155.833330
13.32 13.32460 4.433330 87.933330 158.333330
13.31 13.314670 4.466670 85.666670 160.833330
13.30 13.303840 4.50 83.40 163.333330
13.29 13.2930 4.4750 82.3250 156.666670
13.28 13.283070 4.450 81.250 150.0
13.27 13.272230 4.4250 80.1750 143.333330
13.26 13.26140 4.40 79.10 143.333330
13.25 13.251470 4.333330 80.566670 143.333330
13.24 13.246050 4.266670 82.033330 143.333330
13.23 13.240630 4.20 83.50 135.555560
13.22 13.22980 4.266670 84.433330 127.777780
13.21 13.219860 4.333330 85.366670 120.0
13.20 13.209030 4.40 86.30 125.555560
13.19 13.198190 4.40 84.80 131.111110
13.18 13.188260 4.40 83.30 136.666670
13.17 13.177430 4.40 81.80 138.863640
13.16 13.167490 4.40 81.20 141.060610
13.15 13.156660 4.40 80.60 143.257580
13.14 13.145820 4.40 80.0 145.454550
13.13 13.135890 4.40 81.150 144.338120
13.12 13.125060 4.40 82.30 143.221690
13.11 13.114220 4.40 83.450 142.105260
13.10 13.104290 4.40 84.60 141.403510
13.09 13.093450 4.40 84.333330 140.701750
13.08 13.082620 4.40 84.066670 140.0
13.07 13.071780 4.40 83.80 136.666670
13.06 13.061850 4.366670 83.10 133.333330
13.05 13.051020 4.333330 82.40 130.0
13.04 13.040180 4.30 81.70 136.666670
13.03 13.035210 4.30 82.266670 143.333330
13.02 13.030250 4.30 82.833330 150.0
13.01 13.019410 4.30 83.40 156.666670
13.00 13.008580 4.266670 82.866670 155.555560
12.99 12.997740 4.233330 82.333330 154.444440
12.98 12.987810 4.20 81.80 153.333330
12.97 12.976980 4.233330 83.133330 144.444440
12.96 12.966140 4.266670 84.466670 135.555560
12.95 12.95530 4.30 85.80 126.666670
12.94 12.944470 4.30 84.7750 118.888890
12.93 12.933630 4.30 83.750 111.111110
12.92 12.92280 4.30 82.7250 103.333330
12.91 12.912870 4.30 81.70 120.501790
12.90 12.902030 4.266670 81.666670 137.670250
12.89 12.89120 4.233330 81.633330 154.838710
12.88 12.885780 4.20 81.60 146.129030
12.87 12.880360 4.166670 82.60 137.419350
