~VERSION INFORMATION SECTION
VERS. 2.0 : CWLS LAS-VERSION 2.0
WRAP. NO : One line per depth step
~WELL INFORMATION SECTION
# MNEM.UNIT VALUE/NAME DESCRIPTION
#-------- -------------- ---------------------
STRT.Metres 15 : Start
STOP.Metres 0.50 : Stop
STEP.Metres -0.01 : Step
NULL.  -999.25 :NULL VALUE
DATE. 2025-50-11 : DATE
~CURVE INFORMATION SECTION
DEPTH.Metres : 0 Depth
Depth. : 1 Depth
Incline.Deg : 2 Incline
Azimuth.Deg : 3 Azimuth
GR.CPS : 4 GR
~PARAMETER INFORMATION SECTION
~OTHER
#-------------------------------------------------
#Produced By: GeoVista Logger - Version 7.1.107.0
Natural Gamma Sonde - 6447
Verticality Sonde - 6292
#-------------------------------------------------
~ASCII LOG DATA
# ...
2.63 2.650110 2.7750 67.80 111.61290
2.62 2.640780 2.78750 66.90 107.096770
2.61 2.631450 2.80 66.0 102.580650
2.60 2.622120 2.811110 66.166670 98.064520
2.59 2.612790 2.822220 66.333330 93.548390
2.58 2.603460 2.833330 66.50 89.032260
2.57 2.594130 2.844440 66.666670 84.516130
2.56 2.58480 2.855560 66.833330 80.0
2.55 2.575470 2.866670 67.0 82.916670
2.54 2.566140 2.877780 67.166670 85.833330
2.53 2.55260 2.888890 67.333330 88.750
2.52 2.539050 2.90 67.50 91.666670
2.51 2.529720 2.90 67.618750 94.583330
2.50 2.520390 2.90 67.73750 97.50
2.49 2.511060 2.90 67.856250 100.416670
2.48 2.501730 2.90 67.9750 103.333330
2.47 2.49240 2.90 68.093750 110.0
2.46 2.483070 2.90 68.21250 116.666670
2.45 2.474040 2.90 68.331250 123.333330
2.44 2.465010 2.90 68.450 130.0
2.43 2.455980 2.90 68.568750 136.666670
2.42 2.442440 2.90 68.68750 143.333330
2.41 2.428890 2.90 68.806250 150.0
2.40 2.419560 2.90 68.9250 156.666670
2.39 2.410230 2.90 69.043750 163.333330
2.38 2.40090 2.90 69.16250 165.416670
2.37 2.392170 2.90 69.281250 167.50
2.36 2.383450 2.90 69.40 169.583330
2.35 2.374720 2.933330 68.911110 171.666670
2.34 2.365390 2.966670 68.422220 173.750
2.33 2.356060 3.0 67.933330 175.833330
2.32 2.346730 3.033330 67.444440 177.916670
2.31 2.333180 3.066670 66.955560 180.0
2.30 2.319640 3.10 66.466670 173.750
2.29 2.310310 3.133330 65.977780 167.50
2.28 2.300980 3.166670 65.488890 161.250
2.27 2.291650 3.20 65.0 155.0
2.26 2.282620 3.16250 65.3750 148.750
2.25 2.273590 3.1250 65.750 142.50
2.24 2.264560 3.08750 66.1250 136.250
2.23 2.255230 3.050 66.50 130.0
2.22 2.24590 3.01250 66.8750 134.747470
2.21 2.236570 2.9750 67.250 139.494950
2.20 2.222570 2.93750 67.6250 144.242420
2.19 2.208580 2.90 68.0 148.98990
2.18 2.199250 2.9250 67.81250 153.737370
2.17 2.189920 2.950 67.6250 158.484850
2.16 2.180590 2.9750 67.43750 163.232320
2.15 2.171260 3.0 67.250 167.97980
2.14 2.161930 3.0250 67.06250 172.727270
2.13 2.15260 3.050 66.8750 168.899520
2.12 2.143270 3.0750 66.68750 165.071770
2.11 2.133940 3.10 66.50 161.244020
2.10 2.12460 3.077780 67.377780 157.416270
2.09 2.115270 3.055560 68.255560 153.588520
2.08 2.105940 3.033330 69.133330 149.760770
2.07 2.096610 3.011110 70.011110 145.933010
2.06 2.082620 2.988890 70.888890 142.105260
2.05 2.068620 2.966670 71.766670 145.575050
2.04 2.059290 2.944440 72.644440 149.044830
2.03 2.049960 2.922220 73.522220 152.514620
2.02 2.040630 2.90 74.40 155.984410
2.01 2.03130 2.91250 73.58750 159.454190
2.00 2.021970 2.9250 72.7750 162.923980
1.99 2.012640 2.93750 71.96250 166.393760
1.98 2.003310 2.950 71.150 169.863550
1.97 1.993980 2.96250 70.33750 173.333330
1.96 1.984650 2.9750 69.5250 174.583330
1.95 1.975320 2.98750 68.71250 175.833330
1.94 1.965990 3.0 67.90 177.083330
1.93 1.956660 2.9250 68.56250 178.333330
1.92 1.942660 2.850 69.2250 179.583330
1.91 1.928670 2.7750 69.88750 180.833330
1.90 1.919340 2.70 70.550 182.083330
1.89 1.910010 2.6250 71.21250 183.333330
1.88 1.900680 2.550 71.8750 177.777780
1.87 1.891350 2.4750 72.53750 172.222220
1.86 1.882020 2.40 73.20 166.666670
1.85 1.872690 2.444440 73.844440 161.111110
1.84 1.863360 2.488890 74.488890 155.555560
1.83 1.854030 2.533330 75.133330 150.0
1.82 1.84470 2.577780 75.777780 144.444440
1.81 1.835670 2.622220 76.422220 138.888890
1.80 1.826640 2.666670 77.066670 133.333330
1.79 1.817610 2.711110 77.711110 135.984850
1.78 1.803610 2.755560 78.355560 138.636360
1.77 1.789620 2.80 79.0 141.287880
1.76 1.780290 2.78750 78.06250 143.939390
1.75 1.770960 2.7750 77.1250 146.590910
1.74 1.761630 2.76250 76.18750 149.242420
1.73 1.75260 2.750 75.250 151.893940
1.72 1.743570 2.73750 74.31250 154.545450
1.71 1.734540 2.7250 73.3750 151.016750
1.70 1.725210 2.71250 72.43750 147.488040
1.69 1.715880 2.70 71.50 143.959330
1.68 1.706550 2.66250 73.21250 140.430620
1.67 1.692550 2.6250 74.9250 136.901910
1.66 1.678560 2.58750 76.63750 133.373210
1.65 1.669530 2.550 78.350 129.84450
1.64 1.66050 2.51250 80.06250 126.315790
1.63 1.651470 2.4750 81.7750 127.465890
1.62 1.642140 2.43750 83.48750 128.615980
1.61 1.632810 2.40 85.20 129.766080
1.60 1.623480 2.422220 83.822220 130.916180
1.59 1.614150 2.444440 82.444440 132.066280
1.58 1.604820 2.466670 81.066670 133.216370
1.57 1.595490 2.488890 79.688890 134.366470
1.56 1.581940 2.511110 78.311110 135.516570
1.55 1.56840 2.533330 76.933330 136.666670
1.54 1.556210 2.555560 75.555560 137.083330
1.53 1.544020 2.577780 74.177780 137.50
1.52 1.533630 2.60 72.80 137.916670
1.51 1.523250 2.61250 71.750 138.333330
1.50 1.5070 2.6250 70.70 138.750
1.49 1.494360 2.63750 69.650 139.166670
1.48 1.484420 2.650 68.60 139.583330
1.47 1.47630 2.66250 67.550 140.0
1.46 1.465760 2.6750 66.50 138.333330
1.45 1.456130 2.68750 65.450 136.666670
1.44 1.445150 2.70 64.40 135.0
1.43 1.435670 2.70 66.01250 133.333330
1.42 1.424380 2.70 67.6250 131.666670
1.41 1.412190 2.70 69.23750 130.0
1.40 1.404060 2.70 70.850 128.333330
1.39 1.393230 2.70 72.46250 126.666670
1.38 1.38420 2.70 74.0750 130.416670
1.37 -999.25 2.70 75.68750 134.166670
1.36 -999.25 2.70 77.30 137.916670
1.35 -999.25 2.655560 76.766670 141.666670
1.34 -999.25 2.611110 76.233330 145.416670
1.33 -999.25 2.566670 75.70 149.166670
1.32 -999.25 2.522220 75.166670 152.916670
1.31 -999.25 2.477780 74.633330 156.666670
1.30 -999.25 2.433330 74.10 157.037040
1.29 -999.25 2.388890 73.566670 157.407410
1.28 -999.25 2.344440 73.033330 157.777780
1.27 -999.25 2.30 72.50 158.148150
1.26 -999.25 2.350 72.666670 158.518520
1.25 -999.25 2.40 72.833330 158.888890
1.24 -999.25 2.450 73.0 159.259260
1.23 -999.25 2.50 73.166670 159.629630
1.22 -999.25 2.550 73.333330 160.0
1.21 -999.25 2.60 73.50 158.750
1.20 -999.25 2.633330 76.666670 157.50
1.19 -999.25 2.666670 79.833330 156.250
1.18 -999.25 2.70 83.0 155.0
1.17 -999.25 1.80 81.10 153.750
1.16 -999.25 2.40 83.60 152.50
1.15 -999.25 2.40 85.80 151.250
1.14 -999.25 2.40 88.0 150.0
1.13 -999.25 2.40 86.350 152.688170
1.12 -999.25 2.40 84.70 155.376340
1.11 -999.25 2.40 84.750 158.064520
1.10 -999.25 2.40 84.80 160.752690
1.09 -999.25 2.40 86.30 163.440860
1.08 -999.25 2.40 87.80 166.129030
1.07 -999.25 -999.25 -999.25 168.81720
1.06 -999.25 -999.25 -999.25 171.505380
1.05 -999.25 -999.25 -999.25 174.193550
1.04 -999.25 -999.25 -999.25 172.002690
1.03 -999.25 -999.25 -999.25 169.811830
1.02 -999.25 -999.25 -999.25 167.620970
1.01 -999.25 -999.25 -999.25 165.430110
1.00 -999.25 -999.25 -999.25 163.239250
0.99 -999.25 -999.25 -999.25 161.048390
0.98 -999.25 -999.25 -999.25 158.857530
0.97 -999.25 -999.25 -999.25 156.666670
0.96 -999.25 -999.25 -999.25 152.083330
0.95 -999.25 -999.25 -999.25 147.50
0.94 -999.25 -999.25 -999.25 142.916670
0.93 -999.25 -999.25 -999.25 138.333330
0.92 -999.25 -999.25 -999.25 133.750
0.91 -999.25 -999.25 -999.25 129.166670
0.90 -999.25 -999.25 -999.25 124.583330
0.89 -999.25 -999.25 -999.25 120.0
0.88 -999.25 -999.25 -999.25 124.444440
0.87 -999.25 -999.25 -999.25 128.888890
0.86 -999.25 -999.25 -999.25 133.333330
0.85 -999.25 -999.25 -999.25 137.777780
0.84 -999.25 -999.25 -999.25 142.222220
0.83 -999.25 -999.25 -999.25 146.666670
0.82 -999.25 -999.25 -999.25 151.111110
0.81 -999.25 -999.25 -999.25 155.555560
0.80 -999.25 -999.25 -999.25 160.0
0.79 -999.25 -999.25 -999.25 157.916670
0.78 -999.25 -999.25 -999.25 155.833330
0.77 -999.25 -999.25 -999.25 153.750
0.76 -999.25 -999.25 -999.25 151.666670
0.75 -999.25 -999.25 -999.25 149.583330
0.74 -999.25 -999.25 -999.25 147.50
0.73 -999.25 -999.25 -999.25 145.416670
0.72 -999.25 -999.25 -999.25 143.333330
0.71 -999.25 -999.25 -999.25 142.857140
0.70 -999.25 -999.25 -999.25 142.380950
0.69 -999.25 -999.25 -999.25 141.904760
0.68 -999.25 -999.25 -999.25 141.428570
0.67 -999.25 -999.25 -999.25 140.952380
0.66 -999.25 -999.25 -999.25 140.476190
0.65 -999.25 -999.25 -999.25 140.0
0.64 -999.25 -999.25 -999.25 146.666670
0.63 -999.25 -999.25 -999.25 153.333330
0.62 -999.25 -999.25 -999.25 160.0
0.61 -999.25 -999.25 -999.25 166.666670
0.60 -999.25 -999.25 -999.25 156.666670
0.59 -999.25 -999.25 -999.25 146.666670
