~VERSION INFORMATION SECTION
VERS. 2.0 : CWLS LAS-VERSION 2.0
WRAP. NO : One line per depth step
~WELL INFORMATION SECTION
# MNEM.UNIT VALUE/NAME DESCRIPTION
#-------- -------------- ---------------------
STRT.Metres 15 : Start
STOP.Metres 0.33 : Stop
STEP.Metres -0.01 : Step
NULL.  -999.25 :NULL VALUE
DATE. 2025-53-11 : DATE
~CURVE INFORMATION SECTION
DEPTH.Metres : 0 Depth
Depth. : 1 Depth
Incline.Deg : 2 Incline
Azimuth.Deg : 3 Azimuth
GR.CPS : 4 GR
~PARAMETER INFORMATION SECTION
~OTHER
#-------------------------------------------------
#Produced By: GeoVista Logger - Version 7.1.107.0
Natural Gamma Sonde - 6447
Verticality Sonde - 6292
#-------------------------------------------------
~ASCII LOG DATA
# ...
9.27 9.309620 3.438460 76.676920 137.43590
9.26 9.301130 3.430770 75.861540 133.589740
9.25 9.290520 3.423080 75.046150 129.743590
9.24 9.279910 3.415380 74.230770 125.897440
9.23 9.26930 3.407690 73.415380 122.051280
9.22 9.258690 3.40 72.60 118.205130
9.21 9.248080 3.392310 73.107690 114.358970
9.20 9.237470 3.384620 73.615380 110.512820
9.19 9.226860 3.376920 74.123080 106.666670
9.18 9.216250 3.369230 74.630770 110.512820
9.17 9.205420 3.361540 75.138460 114.358970
9.16 9.194580 3.353850 75.646150 118.205130
9.15 9.183750 3.346150 76.153850 122.051280
9.14 9.172910 3.338460 76.661540 125.897440
9.13 9.164420 3.330770 77.169230 129.743590
9.12 9.155940 3.323080 77.676920 133.589740
9.11 9.147450 3.315380 78.184620 137.43590
9.10 9.138960 3.307690 78.692310 141.282050
9.09 9.130470 3.30 79.20 145.128210
9.08 9.119860 3.292310 78.853850 148.974360
9.07 9.109260 3.284620 78.507690 152.820510
9.06 9.098650 3.276920 78.161540 156.666670
9.05 9.088040 3.269230 77.815380 157.777780
9.04 9.077430 3.261540 77.469230 158.888890
9.03 9.066820 3.253850 77.123080 160.0
9.02 9.056210 3.246150 76.776920 161.111110
9.01 9.04560 3.238460 76.430770 162.222220
9.00 9.034990 3.230770 76.084620 163.333330
8.99 9.024380 3.223080 75.738460 164.444440
8.98 9.013770 3.215380 75.392310 165.555560
8.97 9.003160 3.207690 75.046150 166.666670
8.96 8.994850 3.20 74.70 167.777780
8.95 8.986550 3.20 74.850 168.888890
8.94 8.978240 3.20 75.0 170.0
8.93 8.969930 3.20 75.150 169.230770
8.92 8.961630 3.20 75.30 168.461540
8.91 8.951020 3.20 75.450 167.692310
8.90 8.940410 3.20 75.60 166.923080
8.89 8.92980 3.20 75.750 166.153850
8.88 8.919190 3.20 75.90 165.384620
8.87 8.90880 3.20 76.050 164.615380
8.86 8.898420 3.20 76.20 163.846150
8.85 8.888040 3.20 76.350 163.076920
8.84 8.877650 3.20 76.50 162.307690
8.83 8.867040 3.207690 76.169230 161.538460
8.82 8.856430 3.215380 75.838460 160.769230
8.81 8.845820 3.223080 75.507690 160.0
8.80 8.835210 3.230770 75.176920 159.487180
8.79 8.824830 3.238460 74.846150 158.974360
8.78 8.814450 3.246150 74.515380 158.461540
8.77 8.804060 3.253850 74.184620 157.948720
8.76 8.793680 3.261540 73.853850 157.43590
8.75 8.785370 3.269230 73.523080 156.923080
8.74 8.777070 3.276920 73.192310 156.410260
8.73 8.768760 3.284620 72.861540 155.897440
8.72 8.760450 3.292310 72.530770 155.384620
8.71 8.752140 3.30 72.20 154.871790
8.70 8.741530 3.315380 72.369230 154.358970
8.69 8.730930 3.330770 72.538460 153.846150
8.68 8.720320 3.346150 72.707690 153.333330
8.67 8.709710 3.361540 72.876920 155.641030
8.66 8.699320 3.376920 73.046150 157.948720
8.65 8.688940 3.392310 73.215380 160.256410
8.64 8.678560 3.407690 73.384620 162.56410
8.63 8.668170 3.423080 73.553850 164.871790
8.62 8.657560 3.438460 73.723080 167.179490
8.61 8.646950 3.453850 73.892310 169.487180
8.60 8.636340 3.469230 74.061540 171.794870
8.59 8.625730 3.484620 74.230770 174.102560
8.58 8.615120 3.50 74.40 176.410260
8.57 8.604510 3.516670 74.658330 178.717950
8.56 8.593910 3.533330 74.916670 181.025640
8.55 8.58330 3.550 75.1750 183.333330
8.54 8.574810 3.566670 75.433330 180.833330
8.53 8.566320 3.583330 75.691670 178.333330
8.52 8.557830 3.60 75.950 175.833330
8.51 8.549350 3.616670 76.208330 173.333330
8.50 8.540860 3.633330 76.466670 170.833330
8.49 8.530470 3.650 76.7250 168.333330
8.48 8.520090 3.666670 76.983330 165.833330
8.47 8.509710 3.683330 77.241670 163.333330
8.46 8.499320 3.70 77.50 160.833330
8.45 8.488490 3.730770 77.115380 158.333330
8.44 8.477650 3.761540 76.730770 155.833330
8.43 8.466820 3.792310 76.346150 153.333330
8.42 8.455980 3.823080 75.961540 153.589740
8.41 8.445150 3.853850 75.576920 153.846150
8.40 8.434310 3.884620 75.192310 154.102560
8.39 8.423480 3.915380 74.807690 154.358970
8.38 8.412640 3.946150 74.423080 154.615380
8.37 8.404150 3.976920 74.038460 154.871790
8.36 8.395670 4.007690 73.653850 155.128210
8.35 8.387180 4.038460 73.269230 155.384620
8.34 8.378690 4.069230 72.884620 155.641030
8.33 8.37020 4.10 72.50 155.897440
8.32 8.359590 4.084620 72.50 156.153850
8.31 8.348980 4.069230 72.50 156.410260
8.30 8.338370 4.053850 72.50 156.666670
8.29 8.327770 4.038460 72.50 155.897440
8.28 8.317160 4.023080 72.50 155.128210
8.27 8.306550 4.007690 72.50 154.358970
8.26 8.295940 3.992310 72.50 153.589740
8.25 8.285330 3.976920 72.50 152.820510
8.24 8.276660 3.961540 72.50 152.051280
8.23 8.267990 3.946150 72.50 151.282050
8.22 8.259320 3.930770 72.50 150.512820
8.21 8.250650 3.915380 72.50 149.743590
8.20 8.241990 3.90 72.50 148.974360
8.19 8.231380 3.933330 72.933330 148.205130
8.18 8.220770 3.966670 73.366670 147.43590
8.17 8.210160 4.0 73.80 146.666670
8.16 8.199550 4.033330 74.233330 146.739930
8.15 8.188710 4.066670 74.666670 146.813190
8.14 8.177880 4.10 75.10 146.886450
8.13 8.167040 4.133330 75.533330 146.959710
8.12 8.156210 4.166670 75.966670 147.032970
8.11 8.14560 4.20 76.40 147.106230
8.10 8.134990 4.233330 76.833330 147.179490
8.09 8.124380 4.266670 77.266670 147.252750
8.08 8.113770 4.30 77.70 147.326010
8.07 8.103390 4.253850 77.546150 147.399270
8.06 8.0930 4.207690 77.392310 147.472530
8.05 8.082620 4.161540 77.238460 147.545790
8.04 8.072230 4.115380 77.084620 147.619050
8.03 8.063930 4.069230 76.930770 148.280420
8.02 8.055620 4.023080 76.776920 148.94180
8.01 8.047310 3.976920 76.623080 149.603170
8.00 8.039010 3.930770 76.469230 150.264550
7.99 8.03070 3.884620 76.315380 150.925930
7.98 8.020320 3.838460 76.161540 151.58730
7.97 8.009930 3.792310 76.007690 152.248680
7.96 7.999550 3.746150 75.853850 152.910050
7.95 7.989160 3.70 75.70 153.571430
7.94 7.978780 3.738460 75.50 154.23280
7.93 7.96840 3.776920 75.30 154.894180
7.92 7.958010 3.815380 75.10 155.555560
7.91 7.947630 3.853850 74.90 153.589740
7.90 7.937020 3.892310 74.70 151.623930
7.89 7.926410 3.930770 74.50 149.658120
7.88 7.91580 3.969230 74.30 147.692310
7.87 7.905190 4.007690 74.10 145.72650
7.86 7.894810 4.046150 73.90 143.760680
7.85 7.884420 4.084620 73.70 141.794870
7.84 7.874040 4.123080 73.50 139.829060
7.83 7.863660 4.161540 73.30 137.863250
7.82 7.855170 4.20 73.10 135.897440
7.81 7.846680 4.192310 73.20 133.931620
7.80 7.838190 4.184620 73.30 131.965810
7.79 7.829710 4.176920 73.40 130.0
7.78 7.821220 4.169230 73.50 134.166670
7.77 7.810610 4.161540 73.60 138.333330
7.76 7.80 4.153850 73.70 142.50
7.75 7.789390 4.146150 73.80 146.666670
7.74 7.778780 4.138460 73.90 150.833330
7.73 7.768170 4.130770 74.0 155.0
7.72 7.757560 4.123080 74.10 159.166670
7.71 7.746950 4.115380 74.20 163.333330
7.70 7.736340 4.107690 74.30 167.50
7.69 7.725960 4.10 74.40 171.666670
7.68 7.715580 4.083330 74.20 175.833330
7.67 7.705190 4.066670 74.0 180.0
7.66 7.694810 4.050 73.80 178.717950
7.65 7.686320 4.033330 73.60 177.43590
7.64 7.677830 4.016670 73.40 176.153850
7.63 7.669350 4.0 73.20 174.871790
7.62 7.660860 3.983330 73.0 173.589740
7.61 7.652370 3.966670 72.80 172.307690
7.60 7.641760 3.950 72.60 171.025640
7.59 7.631150 3.933330 72.40 169.743590
7.58 7.620540 3.916670 72.20 168.461540
7.57 7.609930 3.90 72.0 167.179490
7.56 7.599320 3.915380 71.761540 165.897440
7.55 7.588710 3.930770 71.523080 164.615380
7.54 7.57810 3.946150 71.284620 163.333330
7.53 7.567490 3.961540 71.046150 163.333330
7.52 7.556660 3.976920 70.807690 163.333330
7.51 7.545820 3.992310 70.569230 163.333330
7.50 7.534990 4.007690 70.330770 163.333330
7.49 7.524150 4.023080 70.092310 163.333330
7.48 7.515670 4.038460 69.853850 163.333330
7.47 7.507180 4.053850 69.615380 163.333330
7.46 7.498690 4.069230 69.376920 163.333330
7.45 7.49020 4.084620 69.138460 163.333330
7.44 7.481720 4.10 68.90 163.333330
7.43 7.471110 4.0250 69.033330 163.333330
7.42 7.46050 3.950 69.166670 163.333330
7.41 7.449890 3.8750 69.30 163.333330
7.40 7.439280 3.80 69.433330 162.857140
7.39 7.428670 3.7250 69.566670 162.380950
7.38 7.418060 3.650 69.70 161.904760
7.37 7.407450 3.5750 69.833330 161.428570
7.36 7.396840 3.50 69.966670 160.952380
7.35 7.3860 3.4250 70.10 160.476190
7.34 7.375170 3.350 70.233330 160.0
7.33 7.364330 3.2750 70.366670 159.523810
