~VERSION INFORMATION SECTION
VERS. 2.0 : CWLS LAS-VERSION 2.0
WRAP. NO : One line per depth step
~WELL INFORMATION SECTION
# MNEM.UNIT VALUE/NAME DESCRIPTION
#-------- -------------- ---------------------
STRT.Metres 15 : Start
STOP.Metres 0.33 : Stop
STEP.Metres -0.01 : Step
NULL.  -999.25 :NULL VALUE
DATE. 2025-53-11 : DATE
~CURVE INFORMATION SECTION
DEPTH.Metres : 0 Depth
Depth. : 1 Depth
Incline.Deg : 2 Incline
Azimuth.Deg : 3 Azimuth
GR.CPS : 4 GR
~PARAMETER INFORMATION SECTION
~OTHER
#-------------------------------------------------
#Produced By: GeoVista Logger - Version 7.1.107.0
Natural Gamma Sonde - 6447
Verticality Sonde - 6292
#-------------------------------------------------
~ASCII LOG DATA
# ...
13.03 13.067490 4.10 81.676920 150.915750
13.02 13.056880 4.10 81.653850 154.02930
13.01 13.046280 4.10 81.630770 157.142860
13.00 13.035670 4.10 81.607690 154.456650
12.99 13.0270 4.10 81.584620 151.770450
12.98 13.018330 4.10 81.561540 149.084250
12.97 13.009660 4.10 81.538460 146.398050
12.96 13.000990 4.10 81.515380 143.711840
12.95 12.992330 4.10 81.492310 141.025640
12.94 12.981490 4.10 81.469230 138.339440
12.93 12.970650 4.10 81.446150 135.653240
12.92 12.959820 4.10 81.423080 132.967030
12.91 12.948980 4.10 81.40 130.280830
12.90 12.938370 4.084620 80.861540 127.594630
12.89 12.927770 4.069230 80.323080 124.908420
12.88 12.917160 4.053850 79.784620 122.222220
12.87 12.906550 4.038460 79.246150 122.307690
12.86 12.895940 4.023080 78.707690 122.393160
12.85 12.885330 4.007690 78.169230 122.478630
12.84 12.874720 3.992310 77.630770 122.56410
12.83 12.864110 3.976920 77.092310 122.649570
12.82 12.855440 3.961540 76.553850 122.735040
12.81 12.846770 3.946150 76.015380 122.820510
12.80 12.83810 3.930770 75.476920 122.905980
12.79 12.829440 3.915380 74.938460 122.991450
12.78 12.820770 3.90 74.40 123.076920
12.77 12.810160 3.907690 75.307690 123.162390
12.76 12.799550 3.915380 76.215380 123.247860
12.75 12.788940 3.923080 77.123080 123.333330
12.74 12.778330 3.930770 78.030770 126.388890
12.73 12.767720 3.938460 78.938460 129.444440
12.72 12.757110 3.946150 79.846150 132.50
12.71 12.74650 3.953850 80.753850 135.555560
12.70 12.735890 3.961540 81.661540 138.611110
12.69 12.725060 3.969230 82.569230 141.666670
12.68 12.714220 3.976920 83.476920 144.722220
12.67 12.703390 3.984620 84.384620 147.777780
12.66 12.692550 3.992310 85.292310 150.833330
12.65 12.684060 4.0 86.20 153.888890
12.64 12.675580 3.966670 86.1750 156.944440
12.63 12.667090 3.933330 86.150 160.0
12.62 12.65860 3.90 86.1250 158.717950
12.61 12.650110 3.866670 86.10 157.43590
12.60 12.639730 3.833330 86.0750 156.153850
12.59 12.629350 3.80 86.050 154.871790
12.58 12.618960 3.766670 86.0250 153.589740
12.57 12.608580 3.733330 86.0 152.307690
12.56 12.597970 3.70 85.9750 151.025640
12.55 12.587360 3.666670 85.950 149.743590
12.54 12.576750 3.633330 85.9250 148.461540
12.53 12.566140 3.60 85.90 147.179490
12.52 12.555530 3.615380 85.153850 145.897440
12.51 12.544920 3.630770 84.407690 144.615380
12.50 12.534310 3.646150 83.661540 143.333330
12.49 12.52370 3.661540 82.915380 143.846150
12.48 12.515210 3.676920 82.169230 144.358970
12.47 12.506730 3.692310 81.423080 144.871790
12.46 12.498240 3.707690 80.676920 145.384620
12.45 12.489750 3.723080 79.930770 145.897440
12.44 12.481260 3.738460 79.184620 146.410260
12.43 12.470880 3.753850 78.438460 146.923080
12.42 12.46050 3.769230 77.692310 147.43590
12.41 12.450110 3.784620 76.946150 147.948720
12.40 12.439730 3.80 76.20 148.461540
12.39 12.429120 3.80 76.20 148.974360
12.38 12.418510 3.80 76.20 149.487180
12.37 12.40790 3.80 76.20 150.0
12.36 12.397290 3.80 76.20 147.222220
12.35 12.386680 3.80 76.20 144.444440
12.34 12.376070 3.80 76.20 141.666670
12.33 12.365460 3.80 76.20 138.888890
12.32 12.354850 3.80 76.20 136.111110
12.31 12.344470 3.80 76.20 133.333330
12.30 12.334090 3.80 76.20 130.555560
12.29 12.32370 3.80 76.20 127.777780
12.28 12.313320 3.80 76.20 125.0
12.27 12.304830 3.80 76.20 122.222220
12.26 12.296340 3.761540 76.676920 119.444440
12.25 12.287860 3.723080 77.153850 116.666670
12.24 12.279370 3.684620 77.630770 121.282050
12.23 12.270880 3.646150 78.107690 125.897440
12.22 12.260270 3.607690 78.584620 130.512820
12.21 12.249660 3.569230 79.061540 135.128210
12.20 12.239050 3.530770 79.538460 139.743590
12.19 12.228440 3.492310 80.015380 144.358970
12.18 12.218060 3.453850 80.492310 148.974360
12.17 12.207670 3.415380 80.969230 153.589740
12.16 12.197290 3.376920 81.446150 158.205130
12.15 12.186910 3.338460 81.923080 162.820510
12.14 12.17630 3.30 82.40 167.43590
12.13 12.165690 3.30 82.3750 172.051280
12.12 12.155080 3.30 82.350 176.666670
12.11 12.144470 3.30 82.3250 175.897440
12.10 12.135980 3.30 82.30 175.128210
12.09 12.127490 3.30 82.2750 174.358970
12.08 12.119010 3.30 82.250 173.589740
12.07 12.110520 3.30 82.2250 172.820510
12.06 12.102030 3.30 82.20 172.051280
12.05 12.091420 3.30 82.1750 171.282050
12.04 12.080810 3.30 82.150 170.512820
12.03 12.07020 3.30 82.1250 169.743590
12.02 12.059590 3.30 82.10 168.974360
12.01 12.048980 3.292310 81.492310 168.205130
12.00 12.038370 3.284620 80.884620 167.43590
11.99 12.027770 3.276920 80.276920 166.666670
11.98 12.017160 3.269230 79.669230 162.779160
11.97 12.006550 3.261540 79.061540 158.891650
11.96 11.995940 3.253850 78.453850 155.004140
11.95 11.985330 3.246150 77.846150 151.116630
11.94 11.974720 3.238460 77.238460 147.229110
11.93 11.966230 3.230770 76.630770 143.34160
11.92 11.957740 3.223080 76.023080 139.454090
11.91 11.949260 3.215380 75.415380 135.566580
11.90 11.940770 3.207690 74.807690 131.679070
11.89 11.932280 3.20 74.20 127.791560
11.88 11.921440 3.238460 74.184620 123.904050
11.87 11.910610 3.276920 74.169230 120.016540
11.86 11.899770 3.315380 74.153850 116.129030
11.85 11.888940 3.353850 74.138460 115.913980
11.84 11.87810 3.392310 74.123080 115.698920
11.83 11.867270 3.430770 74.107690 115.483870
11.82 11.856430 3.469230 74.092310 115.268820
11.81 11.84560 3.507690 74.076920 115.053760
11.80 11.837110 3.546150 74.061540 114.838710
11.79 11.828620 3.584620 74.046150 114.623660
11.78 11.820140 3.623080 74.030770 114.40860
11.77 11.811650 3.661540 74.015380 114.193550
11.76 11.803160 3.70 74.0 113.978490
11.75 11.792330 3.683330 74.2250 113.763440
11.74 11.781490 3.666670 74.450 113.548390
11.73 11.770650 3.650 74.6750 113.333330
11.72 11.759820 3.633330 74.90 115.555560
11.71 11.749210 3.616670 75.1250 117.777780
11.70 11.73860 3.60 75.350 120.0
11.69 11.727990 3.583330 75.5750 122.222220
11.68 11.717380 3.566670 75.80 124.444440
11.67 11.7070 3.550 76.0250 126.666670
11.66 11.696610 3.533330 76.250 128.888890
11.65 11.686230 3.516670 76.4750 131.111110
11.64 11.675850 3.50 76.70 133.333330
11.63 11.665240 3.50 76.646150 135.555560
11.62 11.654630 3.50 76.592310 137.777780
11.61 11.644020 3.50 76.538460 140.0
11.60 11.633410 3.50 76.484620 140.512820
11.59 11.624920 3.50 76.430770 141.025640
11.58 11.616430 3.50 76.376920 141.538460
11.57 11.607950 3.50 76.323080 142.051280
11.56 11.599460 3.50 76.269230 142.56410
11.55 11.590970 3.50 76.215380 143.076920
11.54 11.580590 3.50 76.161540 143.589740
11.53 11.57020 3.50 76.107690 144.102560
11.52 11.559820 3.50 76.053850 144.615380
11.51 11.549440 3.50 76.0 145.128210
11.50 11.538830 3.492310 76.015380 145.641030
11.49 11.528220 3.484620 76.030770 146.153850
11.48 11.517610 3.476920 76.046150 146.666670
11.47 11.5070 3.469230 76.061540 148.717950
11.46 11.496610 3.461540 76.076920 150.769230
11.45 11.486230 3.453850 76.092310 152.820510
11.44 11.475850 3.446150 76.107690 154.871790
11.43 11.465460 3.438460 76.123080 156.923080
11.42 11.454850 3.430770 76.138460 158.974360
11.41 11.444240 3.423080 76.153850 161.025640
11.40 11.433630 3.415380 76.169230 163.076920
11.39 11.423020 3.407690 76.184620 165.128210
11.38 11.414540 3.40 76.20 167.179490
11.37 11.406050 3.430770 76.438460 169.230770
11.36 11.397560 3.461540 76.676920 171.282050
11.35 11.389070 3.492310 76.915380 173.333330
11.34 11.380590 3.523080 77.153850 173.888890
11.33 11.37020 3.553850 77.392310 174.444440
11.32 11.359820 3.584620 77.630770 175.0
11.31 11.349440 3.615380 77.869230 175.555560
11.30 11.339050 3.646150 78.107690 176.111110
11.29 11.328440 3.676920 78.346150 176.666670
11.28 11.317830 3.707690 78.584620 177.222220
11.27 11.307220 3.738460 78.823080 177.777780
11.26 11.296610 3.769230 79.061540 178.333330
11.25 11.2860 3.80 79.30 178.888890
11.24 11.27540 3.80 79.30 179.444440
11.23 11.264790 3.80 79.30 180.0
11.22 11.254180 3.80 79.30 176.666670
11.21 11.245690 3.80 79.30 173.333330
11.20 11.23720 3.80 79.30 170.0
11.19 11.228710 3.80 79.30 166.666670
11.18 11.220230 3.80 79.30 163.333330
11.17 11.211740 3.80 79.30 160.0
11.16 11.201130 3.80 79.30 156.666670
