~VERSION INFORMATION SECTION
VERS. 2.0 : CWLS LAS-VERSION 2.0
WRAP. NO : One line per depth step
~WELL INFORMATION SECTION
# MNEM.UNIT VALUE/NAME DESCRIPTION
#-------- -------------- ---------------------
STRT.Metres 16 : Start
STOP.Metres 0.43 : Stop
STEP.Metres -0.01 : Step
NULL.  -999.25 :NULL VALUE
DATE. 2025-47-11 : DATE
~CURVE INFORMATION SECTION
DEPTH.Metres : 0 Depth
Depth. : 1 Depth
Incline.Deg : 2 Incline
Azimuth.Deg : 3 Azimuth
GR.CPS : 4 GR
~PARAMETER INFORMATION SECTION
~OTHER
#-------------------------------------------------
#Produced By: GeoVista Logger - Version 7.1.107.0
Natural Gamma Sonde - 6447
Verticality Sonde - 6292
#-------------------------------------------------
~ASCII LOG DATA
# ...
13.93 13.940410 4.850 83.050 122.777780
13.92 13.931380 4.90 83.60 113.333330
13.91 13.922350 4.860 83.220 127.777780
13.90 13.912870 4.820 82.840 142.222220
13.89 13.903390 4.780 82.460 156.666670
13.88 13.894360 4.740 82.080 171.111110
13.87 13.885330 4.70 81.70 185.555560
13.86 13.875850 4.716670 81.483330 200.0
13.85 13.866370 4.733330 81.266670 190.0
13.84 13.857340 4.750 81.050 180.0
13.83 13.848310 4.766670 80.833330 170.0
13.82 13.829350 4.783330 80.616670 160.0
13.81 13.820320 4.80 80.40 150.0
13.80 13.811290 4.780 80.560 155.555560
13.79 13.802260 4.760 80.720 161.111110
13.78 13.793230 4.740 80.880 166.666670
13.77 13.783750 4.720 81.040 172.222220
13.76 13.774270 4.70 81.20 177.777780
13.75 13.765240 4.70 81.450 183.333330
13.74 13.756210 4.70 81.70 177.333330
13.73 13.746730 4.70 81.950 171.333330
13.72 13.737250 4.70 82.20 165.333330
13.71 13.719190 4.70 82.450 159.333330
13.70 13.709710 4.70 82.70 153.333330
13.69 13.700230 4.680 82.380 150.896060
13.68 13.690740 4.660 82.060 148.458780
13.67 13.681260 4.640 81.740 146.021510
13.66 13.672230 4.620 81.420 143.584230
13.65 13.663210 4.60 81.10 141.146950
13.64 13.654180 4.583330 81.183330 138.709680
13.63 13.645150 4.566670 81.266670 140.59140
13.62 13.635670 4.550 81.350 142.473120
13.61 13.626190 4.533330 81.433330 144.354840
13.60 13.608130 4.516670 81.516670 146.236560
13.59 13.59910 4.50 81.60 148.118280
13.58 13.590070 4.490910 82.081820 150.0
13.57 13.580590 4.481820 82.563640 152.0
13.56 13.571110 4.472730 83.045450 154.0
13.55 13.562080 4.463640 83.527270 156.0
13.54 13.553050 4.454550 84.009090 158.0
13.53 13.543570 4.445450 84.490910 160.0
13.52 13.534090 4.436360 84.972730 151.666670
13.51 13.525060 4.427270 85.454550 143.333330
13.50 13.516030 4.418180 85.936360 135.0
13.49 13.506550 4.409090 86.418180 126.666670
13.48 13.497070 4.40 86.90 118.333330
13.47 13.487580 4.350 86.150 110.0
13.46 13.47810 4.30 85.40 119.333330
13.45 13.459140 4.250 84.650 128.666670
13.44 13.449660 4.20 83.90 138.0
13.43 13.440180 4.150 83.150 147.333330
13.42 13.43160 4.10 82.40 156.666670
13.41 13.423020 4.120 82.760 152.222220
13.40 13.4140 4.140 83.120 147.777780
13.39 13.404970 4.160 83.480 143.333330
13.38 13.395490 4.180 83.840 138.888890
13.37 13.3860 4.20 84.20 134.444440
13.36 13.376980 4.250 83.766670 130.0
13.35 13.367950 4.30 83.333330 128.666670
13.34 13.349890 4.350 82.90 127.333330
13.33 13.340860 4.40 82.466670 126.0
13.32 13.331830 4.450 82.033330 124.666670
13.31 13.32280 4.50 81.60 123.333330
13.30 13.313770 4.480 82.70 126.666670
13.29 13.304290 4.460 83.80 130.0
13.28 13.294810 4.440 84.90 133.333330
13.27 13.285780 4.420 86.0 136.666670
13.26 13.276750 4.40 87.10 140.0
13.25 13.258690 4.350 86.40 143.333330
13.24 13.249660 4.30 85.70 139.333330
13.23 13.240630 4.250 85.0 135.333330
13.22 13.23160 4.20 84.30 131.333330
13.21 13.222570 4.150 83.60 127.333330
13.20 13.213090 4.10 82.90 123.333330
13.19 13.203610 4.120 82.840 125.555560
13.18 13.194580 4.140 82.780 127.777780
13.17 13.185550 4.160 82.720 130.0
13.16 13.176520 4.180 82.660 132.222220
13.15 13.167490 4.20 82.60 134.444440
13.14 13.148530 4.216670 82.783330 136.666670
13.13 13.13950 4.233330 82.966670 140.0
13.12 13.130470 4.250 83.150 143.333330
13.11 13.121440 4.266670 83.333330 146.666670
13.10 13.112420 4.283330 83.516670 150.0
13.09 13.102930 4.30 83.70 153.333330
13.08 13.093450 4.30 83.480 156.666670
13.07 13.084420 4.30 83.260 156.666670
13.06 13.07540 4.30 83.040 156.666670
13.05 13.065910 4.30 82.820 156.666670
13.04 13.056430 4.30 82.60 156.666670
13.03 13.04740 4.266670 82.733330 156.666670
13.02 13.038370 4.233330 82.866670 153.888890
13.01 13.019410 4.20 83.0 151.111110
13.00 13.009930 4.166670 83.133330 148.333330
12.99 13.000450 4.133330 83.266670 145.555560
12.98 12.990970 4.10 83.40 142.777780
12.97 12.981490 4.140 83.420 140.0
12.96 12.972460 4.180 83.440 138.666670
12.95 12.963430 4.220 83.460 137.333330
12.94 12.953950 4.260 83.480 136.0
12.93 12.944470 4.30 83.50 134.666670
12.92 12.934990 4.266670 83.516670 133.333330
12.91 12.925510 4.233330 83.533330 133.838380
12.90 12.916480 4.20 83.550 134.343430
12.89 12.907450 4.166670 83.566670 134.848480
12.88 12.888490 4.133330 83.583330 135.353540
12.87 12.879460 4.10 83.60 135.858590
12.86 12.870430 4.10 82.980 136.363640
12.85 12.860950 4.10 82.360 139.617220
12.84 12.851470 4.10 81.740 142.870810
12.83 12.842440 4.10 81.120 146.12440
12.82 12.833410 4.10 80.50 149.377990
12.81 12.823930 4.116670 80.983330 152.631580
12.80 12.814450 4.133330 81.466670 152.192980
12.79 12.804970 4.150 81.950 151.754390
12.78 12.795490 4.166670 82.433330 151.315790
12.77 12.786460 4.183330 82.916670 150.877190
12.76 12.777430 4.20 83.40 150.43860
12.75 12.758470 4.160 83.940 150.0
12.74 12.749440 4.120 84.480 154.666670
12.73 12.740410 4.080 85.020 159.333330
12.72 12.730930 4.040 85.560 164.0
12.71 12.721440 4.0 86.10 168.666670
12.70 12.712420 4.0 85.433330 173.333330
12.69 12.703390 4.0 84.766670 168.888890
12.68 12.693910 4.0 84.10 164.444440
12.67 12.684420 4.0 83.433330 160.0
12.66 12.67540 4.0 82.766670 155.555560
12.65 12.666370 4.0 82.10 151.111110
12.64 12.657340 4.016670 82.166670 146.666670
12.63 12.648310 4.033330 82.233330 152.329750
12.62 12.629350 4.050 82.30 157.992830
12.61 12.620320 4.066670 82.366670 163.655910
12.60 12.611290 4.083330 82.433330 169.3190
12.59 12.602260 4.10 82.50 174.982080
12.58 12.593230 4.080 82.70 180.645160
12.57 12.58420 4.060 82.90 178.516130
12.56 12.575170 4.040 83.10 176.38710
12.55 12.566140 4.020 83.30 174.258060
12.54 12.557110 4.0 83.50 172.129030
12.53 12.538150 4.0 83.383330 170.0
12.52 12.529120 4.0 83.266670 156.0
12.51 12.520090 4.0 83.150 142.0
12.50 12.511060 4.0 83.033330 128.0
12.49 12.502030 4.0 82.916670 114.0
12.48 12.4930 4.0 82.80 100.0
12.47 12.483970 4.0 82.660 110.555560
12.46 12.474940 4.0 82.520 121.111110
12.45 12.465910 4.0 82.380 131.666670
12.44 12.456880 4.0 82.240 142.222220
12.43 12.447860 4.0 82.10 152.777780
12.42 12.42980 4.0 81.983330 163.333330
12.41 12.420320 4.0 81.866670 162.666670
12.40 12.410840 4.0 81.750 162.0
12.39 12.401810 4.0 81.633330 161.333330
12.38 12.392780 4.0 81.516670 160.666670
12.37 12.383750 4.0 81.40 160.0
12.36 12.374720 4.0 81.760 151.111110
12.35 12.365690 4.0 82.120 142.222220
12.34 12.356660 4.0 82.480 133.333330
12.33 12.33860 4.0 82.840 124.444440
12.32 12.329570 4.0 83.20 115.555560
12.31 12.320540 4.0 82.883330 106.666670
12.30 12.311510 4.0 82.566670 106.666670
12.29 12.302480 4.0 82.250 106.666670
12.28 12.2930 4.0 81.933330 106.666670
12.27 12.283520 4.0 81.616670 106.666670
12.26 12.274490 4.0 81.30 106.666670
12.25 12.265460 4.0 80.820 113.888890
12.24 12.256430 4.0 80.340 121.111110
12.23 12.24740 4.0 79.860 128.333330
12.22 12.229350 4.0 79.380 135.555560
12.21 12.220320 4.0 78.90 142.777780
12.20 12.211290 4.0 79.733330 150.0
12.19 12.201810 4.0 80.566670 148.888890
12.18 12.192330 4.0 81.40 147.777780
12.17 12.18330 4.0 82.233330 146.666670
12.16 12.174270 4.0 83.066670 145.555560
12.15 12.165240 4.0 83.90 144.444440
12.14 12.156210 4.0 83.060 143.333330
12.13 12.147180 4.0 82.220 139.333330
12.12 12.138150 4.0 81.380 135.333330
12.11 12.119190 4.0 80.540 131.333330
12.10 12.110160 4.0 79.70 127.333330
12.09 12.101130 3.983330 79.183330 123.333330
12.08 12.091650 3.966670 78.666670 131.111110
12.07 12.082170 3.950 78.150 138.888890
12.06 12.073140 3.933330 77.633330 146.666670
12.05 12.064110 3.916670 77.116670 154.444440
12.04 12.055080 3.90 76.60 162.222220
12.03 12.046050 3.90 77.480 170.0
12.02 12.036570 3.90 78.360 163.333330
12.01 12.027090 3.90 79.240 156.666670
12.00 12.009030 3.90 80.120 150.0
11.99 12.0 3.90 81.0 143.333330
11.98 11.990970 3.916670 81.233330 136.666670
11.97 11.981490 3.933330 81.466670 139.444440
11.96 11.972010 3.950 81.70 142.222220
11.95 11.962980 3.966670 81.933330 145.0
11.94 11.953950 3.983330 82.166670 147.777780
11.93 11.944470 4.0 82.40 150.555560
11.92 11.934990 3.980 81.840 153.333330
11.91 11.925960 3.960 81.280 148.666670
