~VERSION INFORMATION SECTION
VERS. 2.0 : CWLS LAS-VERSION 2.0
WRAP. NO : One line per depth step
~WELL INFORMATION SECTION
# MNEM.UNIT VALUE/NAME DESCRIPTION
#-------- -------------- ---------------------
STRT.Metres 15 : Start
STOP.Metres 0.50 : Stop
STEP.Metres -0.01 : Step
NULL.  -999.25 :NULL VALUE
DATE. 2025-50-11 : DATE
~CURVE INFORMATION SECTION
DEPTH.Metres : 0 Depth
Depth. : 1 Depth
Incline.Deg : 2 Incline
Azimuth.Deg : 3 Azimuth
GR.CPS : 4 GR
~PARAMETER INFORMATION SECTION
~OTHER
#-------------------------------------------------
#Produced By: GeoVista Logger - Version 7.1.107.0
Natural Gamma Sonde - 6447
Verticality Sonde - 6292
#-------------------------------------------------
~ASCII LOG DATA
# ...
6.78 6.803610 3.30 71.70 190.0
6.77 6.794580 3.3250 73.150 195.0
6.76 6.781490 3.350 74.60 200.0
6.75 6.76840 3.3750 76.050 199.583330
6.74 6.759370 3.40 77.50 199.166670
6.73 6.750340 3.4250 77.08750 198.750
6.72 6.741310 3.450 76.6750 198.333330
6.71 6.732280 3.4750 76.26250 197.916670
6.70 6.723250 3.50 75.850 197.50
6.69 6.714220 3.5250 75.43750 197.083330
6.68 6.704890 3.550 75.0250 196.666670
6.67 6.695560 3.5750 74.61250 190.740740
6.66 6.686230 3.60 74.20 184.814810
6.65 6.672690 3.58750 73.10 178.888890
6.64 6.659140 3.5750 72.0 172.962960
6.63 6.650110 3.56250 70.90 167.037040
6.62 6.641080 3.550 69.80 161.111110
6.61 6.632050 3.53750 68.70 155.185190
6.60 6.623020 3.5250 67.60 149.259260
6.59 6.6140 3.51250 66.50 143.333330
6.58 6.604970 3.50 65.40 141.250
6.57 6.591420 3.51250 67.2750 139.166670
6.56 6.577880 3.5250 69.150 137.083330
6.55 6.568850 3.53750 71.0250 135.0
6.54 6.559820 3.550 72.90 132.916670
6.53 6.550790 3.56250 74.7750 130.833330
6.52 6.541460 3.5750 76.650 128.750
6.51 6.532130 3.58750 78.5250 126.666670
6.50 6.52280 3.60 80.40 134.583330
6.49 6.513470 3.60 80.28750 142.50
6.48 6.504140 3.60 80.1750 150.416670
6.47 6.494810 3.60 80.06250 158.333330
6.46 6.485780 3.60 79.950 166.250
6.45 6.476750 3.60 79.83750 174.166670
6.44 6.467720 3.60 79.7250 182.083330
6.43 6.453720 3.60 79.61250 190.0
6.42 6.439730 3.60 79.50 183.333330
6.41 6.43070 3.61250 78.03750 176.666670
6.40 6.421670 3.6250 76.5750 170.0
6.39 6.412640 3.63750 75.11250 163.333330
6.38 6.403610 3.650 73.650 156.666670
6.37 6.394580 3.66250 72.18750 150.0
6.36 6.385550 3.6750 70.7250 143.333330
6.35 6.371560 3.68750 69.26250 136.666670
6.34 6.357560 3.70 67.80 139.166670
6.33 6.348530 3.70 68.0250 141.666670
6.32 6.33950 3.70 68.250 144.166670
6.31 6.330470 3.70 68.4750 146.666670
6.30 6.321440 3.70 68.70 149.166670
6.29 6.312420 3.70 68.9250 151.666670
6.28 6.303390 3.70 69.150 154.166670
6.27 6.294360 3.70 69.3750 156.666670
6.26 6.285330 3.70 69.60 158.333330
6.25 6.27630 3.666670 70.422220 160.0
6.24 6.262750 3.633330 71.244440 161.666670
6.23 6.249210 3.60 72.066670 163.333330
6.22 6.239880 3.566670 72.888890 165.0
6.21 6.230550 3.533330 73.711110 166.666670
6.20 6.221220 3.50 74.533330 168.333330
6.19 6.212190 3.466670 75.355560 170.0
6.18 6.203160 3.433330 76.177780 169.583330
6.17 6.194130 3.40 77.0 169.166670
6.16 6.18480 3.40 75.76250 168.750
6.15 6.175470 3.40 74.5250 168.333330
6.14 6.166140 3.40 73.28750 167.916670
6.13 6.15260 3.40 72.050 167.50
6.12 6.139050 3.40 70.81250 167.083330
6.11 6.130020 3.40 69.5750 166.666670
6.10 6.120990 3.40 68.33750 163.333330
6.09 6.111960 3.40 67.10 160.0
6.08 6.102930 3.4250 66.4750 156.666670
6.07 6.093910 3.450 65.850 153.333330
6.06 6.084880 3.4750 65.2250 150.0
6.05 6.075850 3.50 64.60 146.666670
6.04 6.066820 3.5250 63.9750 143.333330
6.03 6.057790 3.550 63.350 140.0
6.02 6.043790 3.5750 62.7250 137.916670
6.01 6.02980 3.60 62.10 135.833330
6.00 6.020770 3.61250 63.6750 133.750
5.99 6.011740 3.6250 65.250 131.666670
5.98 6.002710 3.63750 66.8250 129.583330
5.97 5.993380 3.650 68.40 127.50
5.96 5.984050 3.66250 69.9750 125.416670
5.95 5.974720 3.6750 71.550 123.333330
5.94 5.961170 3.68750 73.1250 126.250
5.93 5.947630 3.70 74.70 129.166670
5.92 5.93860 3.688890 73.811110 132.083330
5.91 5.929570 3.677780 72.922220 135.0
5.90 5.920540 3.666670 72.033330 137.916670
5.89 5.911510 3.655560 71.144440 140.833330
5.88 5.902480 3.644440 70.255560 143.750
5.87 5.893450 3.633330 69.366670 146.666670
5.86 5.879910 3.622220 68.477780 146.857830
5.85 5.866370 3.611110 67.588890 147.048980
5.84 5.857640 3.60 66.70 147.240140
5.83 5.848910 3.61250 65.750 147.43130
5.82 5.840180 3.6250 64.80 147.622460
5.81 5.831150 3.63750 63.850 147.813620
5.80 5.822120 3.650 62.90 148.004780
5.79 5.813090 3.66250 61.950 148.195940
5.78 5.804060 3.6750 61.0 148.38710
5.77 5.795030 3.68750 60.050 147.755380
5.76 5.7860 3.70 59.10 147.123660
5.75 5.772460 3.68750 60.91250 146.491940
5.74 5.758920 3.6750 62.7250 145.860220
5.73 5.749890 3.66250 64.53750 145.228490
5.72 5.740860 3.650 66.350 144.596770
5.71 5.731830 3.63750 68.16250 143.965050
5.70 5.72250 3.6250 69.9750 143.333330
5.69 5.713170 3.61250 71.78750 141.250
5.68 5.703840 3.60 73.60 139.166670
5.67 5.694810 3.5750 72.96250 137.083330
5.66 5.685780 3.550 72.3250 135.0
5.65 5.676750 3.5250 71.68750 132.916670
5.64 5.663210 3.50 71.050 130.833330
5.63 5.649660 3.4750 70.41250 128.750
5.62 5.640330 3.450 69.7750 126.666670
5.61 5.6310 3.4250 69.13750 128.750
5.60 5.621670 3.40 68.50 130.833330
5.59 5.612640 3.3750 67.53750 132.916670
5.58 5.603610 3.350 66.5750 135.0
5.57 5.594580 3.3250 65.61250 137.083330
5.56 5.585250 3.30 64.650 139.166670
5.55 5.575920 3.2750 63.68750 141.250
5.54 5.566590 3.250 62.7250 143.333330
5.53 5.553050 3.2250 61.76250 150.833330
5.52 5.53950 3.20 60.80 158.333330
5.51 5.530470 3.21250 61.81250 165.833330
5.50 5.521440 3.2250 62.8250 173.333330
5.49 5.512420 3.23750 63.83750 180.833330
5.48 5.503090 3.250 64.850 188.333330
5.47 5.493750 3.26250 65.86250 195.833330
5.46 5.484420 3.2750 66.8750 203.333330
5.45 5.470880 3.28750 67.88750 194.814810
5.44 5.457340 3.30 68.90 186.29630
5.43 5.448310 3.333330 68.377780 177.777780
5.42 5.439280 3.366670 67.855560 169.259260
5.41 5.430250 3.40 67.333330 160.740740
5.40 5.421220 3.433330 66.811110 152.222220
5.39 5.412190 3.466670 66.288890 143.70370
5.38 5.403160 3.50 65.766670 135.185190
5.37 5.394130 3.533330 65.244440 126.666670
5.36 5.38510 3.566670 64.722220 130.833330
5.35 5.376070 3.60 64.20 135.0
5.34 5.362530 3.5250 64.26250 139.166670
5.33 5.348980 3.450 64.3250 143.333330
5.32 5.339950 3.3750 64.38750 147.50
5.31 5.330930 3.30 64.450 151.666670
5.30 5.32190 3.2250 64.51250 155.833330
5.29 5.312870 3.150 64.5750 160.0
5.28 5.303840 3.0750 64.63750 164.166670
5.27 5.294810 3.0 64.70 168.333330
5.26 5.281260 3.050 65.38750 172.50
5.25 5.267720 3.10 66.0750 176.666670
5.24 5.258690 3.150 66.76250 180.833330
5.23 5.249660 3.20 67.450 185.0
5.22 5.240630 3.250 68.13750 189.166670
5.21 5.23160 3.30 68.8250 193.333330
5.20 5.222570 3.350 69.51250 189.166670
5.19 5.213540 3.40 70.20 185.0
5.18 5.204510 3.38750 69.38750 180.833330
5.17 5.195490 3.3750 68.5750 176.666670
5.16 5.186460 3.36250 67.76250 172.50
5.15 5.172910 3.350 66.950 168.333330
5.14 5.159370 3.33750 66.13750 164.166670
5.13 5.150340 3.3250 65.3250 160.0
5.12 5.141310 3.31250 64.51250 157.083330
5.11 5.132280 3.30 63.70 154.166670
5.10 5.122950 3.21250 63.950 151.250
5.09 5.113620 3.1250 64.20 148.333330
5.08 5.104290 3.03750 64.450 145.416670
5.07 5.094960 2.950 64.70 142.50
5.06 5.085630 2.86250 64.950 139.583330
5.05 5.07630 2.7750 65.20 136.666670
5.04 5.06230 2.68750 65.450 142.083330
5.03 5.048310 2.60 65.70 147.50
5.02 5.038980 2.58750 65.8250 152.916670
5.01 5.029650 2.5750 65.950 158.333330
5.00 5.020320 2.56250 66.0750 163.750
4.99 5.010990 2.550 66.20 169.166670
4.98 5.001660 2.53750 66.3250 174.583330
4.97 4.992330 2.5250 66.450 180.0
4.96 4.98330 2.51250 66.5750 180.740740
4.95 4.974270 2.50 66.70 181.481480
4.94 4.965240 2.555560 66.166670 182.222220
4.93 4.955910 2.611110 65.633330 182.962960
4.92 4.946580 2.666670 65.10 183.70370
4.91 4.937250 2.722220 64.566670 184.444440
4.90 4.92280 2.777780 64.033330 185.185190
4.89 4.908350 2.833330 63.50 185.925930
4.88 4.899020 2.888890 62.966670 186.666670
4.87 4.889690 2.944440 62.433330 192.50
4.86 4.880360 3.0 61.90 198.333330
4.85 4.871030 3.01250 62.08750 204.166670
4.84 4.86170 3.0250 62.2750 210.0
4.83 4.852370 3.03750 62.46250 215.833330
4.82 4.843040 3.050 62.650 221.666670
4.81 4.833710 3.06250 62.83750 227.50
4.80 4.824380 3.0750 63.0250 233.333330
4.79 4.815050 3.08750 63.21250 223.333330
4.78 4.805720 3.10 63.40 213.333330
4.77 4.796390 3.10 64.40 203.333330
4.76 4.782390 3.10 65.40 193.333330
4.75 4.76840 3.10 66.40 183.333330
4.74 4.759370 3.10 67.40 173.333330
4.73 4.750340 3.10 68.40 163.333330
4.72 4.741310 3.10 69.40 153.333330
4.71 4.731980 3.10 70.40 150.416670
4.70 4.722650 3.10 71.40 147.50
