~VERSION INFORMATION SECTION
VERS. 2.0 : CWLS LAS-VERSION 2.0
WRAP. NO : One line per depth step
~WELL INFORMATION SECTION
# MNEM.UNIT VALUE/NAME DESCRIPTION
#-------- -------------- ---------------------
STRT.Metres 15 : Start
STOP.Metres 0.33 : Stop
STEP.Metres -0.01 : Step
NULL.  -999.25 :NULL VALUE
DATE. 2025-53-11 : DATE
~CURVE INFORMATION SECTION
DEPTH.Metres : 0 Depth
Depth. : 1 Depth
Incline.Deg : 2 Incline
Azimuth.Deg : 3 Azimuth
GR.CPS : 4 GR
~PARAMETER INFORMATION SECTION
~OTHER
#-------------------------------------------------
#Produced By: GeoVista Logger - Version 7.1.107.0
Natural Gamma Sonde - 6447
Verticality Sonde - 6292
#-------------------------------------------------
~ASCII LOG DATA
15.00 -999.25 -999.25 -999.25 -999.25
14.99 -999.25 -999.25 -999.25 -999.25
14.98 14.996840 -999.25 -999.25 -999.25
14.97 14.986910 -999.25 -999.25 -999.25
14.96 14.976070 -999.25 -999.25 -999.25
14.95 14.965240 -999.25 -999.25 -999.25
14.94 14.957410 -999.25 -999.25 -999.25
14.93 14.949590 -999.25 -999.25 -999.25
14.92 14.941760 -999.25 -999.25 -999.25
14.91 14.933030 -999.25 -999.25 -999.25
14.90 14.92430 -999.25 -999.25 -999.25
14.89 14.915580 -999.25 -999.25 -999.25
14.88 14.906550 -999.25 -999.25 -999.25
14.87 14.897520 -999.25 -999.25 -999.25
14.86 14.888490 -999.25 -999.25 -999.25
14.85 14.878860 -999.25 -999.25 -999.25
14.84 14.869220 -999.25 -999.25 -999.25
14.83 14.859590 -999.25 -999.25 -999.25
14.82 14.849060 -999.25 -999.25 -999.25
14.81 14.838530 -999.25 -999.25 -999.25
14.80 14.827990 -999.25 -999.25 -999.25
14.79 14.817160 -999.25 -999.25 -999.25
14.78 14.806320 0.530 7.903660 -999.25
14.77 14.795490 1.060 15.807320 -999.25
14.76 14.786680 1.590 23.710980 -999.25
14.75 14.777880 2.120 31.614630 -999.25
14.74 14.769070 2.650 39.518290 -999.25
14.73 14.760270 3.180 47.421950 -999.25
14.72 14.751240 3.710 55.325610 -999.25
14.71 14.742210 4.240 63.229270 -999.25
14.70 14.733180 4.770 71.132930 -999.25
14.69 14.724150 5.30 79.036590 -999.25
14.68 14.714450 5.285710 79.345640 -999.25
14.67 14.704740 5.271430 79.65470 -999.25
14.66 14.695030 5.257140 79.963760 -999.25
14.65 14.685330 5.242860 80.272820 -999.25
14.64 14.675620 5.228570 80.581880 -999.25
14.63 14.665910 5.214290 80.890940 -999.25
14.62 14.656210 5.20 81.20 -999.25
14.61 14.64650 5.20 80.866670 -999.25
14.60 14.636340 5.20 80.533330 -999.25
14.59 14.626190 5.20 80.20 -999.25
14.58 14.616030 5.20 79.866670 -999.25
14.57 14.605870 5.20 79.533330 -999.25
14.56 14.595490 5.20 79.20 -999.25
14.55 14.58510 5.20 78.866670 -999.25
14.54 14.574720 5.20 78.533330 -999.25
14.53 14.564330 5.20 78.20 -999.25
14.52 14.555670 5.20 78.40 -999.25
14.51 14.5470 5.20 78.60 -999.25
14.50 14.538330 5.20 78.80 -999.25
14.49 14.529660 5.20 79.0 -999.25
14.48 14.520990 5.20 79.20 -999.25
14.47 14.510160 5.20 79.40 -999.25
14.46 14.499320 5.20 79.60 -999.25
14.45 14.488490 5.20 79.80 -999.25
14.44 14.477650 5.20 80.0 -999.25
14.43 14.466820 5.20 80.20 -999.25
14.42 14.455980 5.20 80.2250 -999.25
14.41 14.445150 5.20 80.250 -999.25
14.40 14.434310 5.20 80.2750 -999.25
14.39 14.424150 5.20 80.30 -999.25
14.38 14.4140 5.20 80.3250 -999.25
14.37 14.403840 5.20 80.350 -999.25
14.36 14.393680 5.20 80.3750 -999.25
14.35 14.385370 5.20 80.40 -999.25
14.34 14.377070 5.20 80.4250 -999.25
14.33 14.368760 5.20 80.450 -999.25
14.32 14.360450 5.20 80.4750 -999.25
14.31 14.352140 5.20 80.50 -999.25
14.30 14.341530 5.123080 80.20 -999.25
14.29 14.330930 5.046150 79.90 -999.25
14.28 14.320320 4.969230 79.60 -999.25
14.27 14.309710 4.892310 79.30 -999.25
14.26 14.299320 4.815380 79.0 -999.25
14.25 14.288940 4.738460 78.70 -999.25
14.24 14.278560 4.661540 78.40 -999.25
14.23 14.268170 4.584620 78.10 -999.25
14.22 14.257560 4.507690 77.80 -999.25
14.21 14.246950 4.430770 77.50 -999.25
14.20 14.236340 4.353850 77.20 147.683930
14.19 14.225730 4.276920 76.90 125.508630
14.18 14.215120 4.20 76.60 103.333330
14.17 14.204510 4.20 76.866670 118.666670
14.16 14.193910 4.20 77.133330 134.0
14.15 14.18330 4.20 77.40 149.333330
14.14 14.174810 4.20 77.666670 164.666670
14.13 14.166320 4.20 77.933330 180.0
14.12 14.157830 4.20 78.20 161.666670
14.11 14.149350 4.20 78.466670 143.333330
14.10 14.140860 4.20 78.733330 125.0
14.09 14.130250 4.20 79.0 106.666670
14.08 14.119640 4.20 79.266670 88.333330
14.07 14.109030 4.20 79.533330 70.0
14.06 14.098420 4.20 79.80 84.3750
14.05 14.087580 4.192310 79.50 98.750
14.04 14.076750 4.184620 79.20 113.1250
14.03 14.065910 4.176920 78.90 127.50
14.02 14.055080 4.169230 78.60 141.8750
14.01 14.044470 4.161540 78.30 156.250
14.00 14.033860 4.153850 78.0 170.6250
13.99 14.023250 4.146150 77.70 185.0
13.98 14.012640 4.138460 77.40 179.833330
13.97 14.004150 4.130770 77.10 174.666670
13.96 13.995670 4.123080 76.80 169.50
13.95 13.987180 4.115380 76.50 164.333330
13.94 13.978690 4.107690 76.20 159.166670
13.93 13.97020 4.10 75.90 154.0
13.92 13.959590 4.123080 75.838460 148.833330
13.91 13.948980 4.146150 75.776920 143.666670
13.90 13.938370 4.169230 75.715380 138.50
13.89 13.927770 4.192310 75.653850 133.333330
13.88 13.917160 4.215380 75.592310 133.888890
13.87 13.906550 4.238460 75.530770 134.444440
13.86 13.895940 4.261540 75.469230 135.0
13.85 13.885330 4.284620 75.407690 135.555560
13.84 13.876660 4.307690 75.346150 136.111110
13.83 13.867990 4.330770 75.284620 136.666670
13.82 13.859320 4.353850 75.223080 137.222220
13.81 13.850650 4.376920 75.161540 137.777780
13.80 13.841990 4.40 75.10 138.333330
13.79 13.831150 4.358330 75.433330 138.888890
13.78 13.820320 4.316670 75.766670 139.444440
13.77 13.809480 4.2750 76.10 140.0
13.76 13.798650 4.233330 76.433330 143.333330
13.75 13.788040 4.191670 76.766670 146.666670
13.74 13.777430 4.150 77.10 150.0
13.73 13.766820 4.108330 77.433330 153.333330
13.72 13.756210 4.066670 77.766670 156.666670
13.71 13.74560 4.0250 78.10 160.0
13.70 13.734990 3.983330 78.433330 163.333330
13.69 13.724380 3.941670 78.766670 166.666670
13.68 13.713770 3.90 79.10 170.0
13.67 13.705280 3.923080 79.20 173.333330
13.66 13.696790 3.946150 79.30 176.666670
13.65 13.688310 3.969230 79.40 180.0
13.64 13.679820 3.992310 79.50 178.461540
13.63 13.671330 4.015380 79.60 176.923080
13.62 13.66050 4.038460 79.70 175.384620
13.61 13.649660 4.061540 79.80 173.846150
13.60 13.638830 4.084620 79.90 172.307690
13.59 13.627990 4.107690 80.0 170.769230
13.58 13.617380 4.130770 80.10 169.230770
13.57 13.606770 4.153850 80.20 167.692310
13.56 13.596160 4.176920 80.30 166.153850
13.55 13.585550 4.20 80.40 164.615380
13.54 13.574940 4.223080 80.423080 163.076920
13.53 13.564330 4.246150 80.446150 161.538460
13.52 13.553720 4.269230 80.469230 160.0
13.51 13.543120 4.292310 80.492310 160.769230
13.50 13.534630 4.315380 80.515380 161.538460
13.49 13.526140 4.338460 80.538460 162.307690
13.48 13.517650 4.361540 80.561540 163.076920
13.47 13.509160 4.384620 80.584620 163.846150
13.46 13.500680 4.407690 80.607690 164.615380
13.45 13.490070 4.430770 80.630770 165.384620
13.44 13.479460 4.453850 80.653850 166.153850
13.43 13.468850 4.476920 80.676920 166.923080
13.42 13.458240 4.50 80.70 167.692310
13.41 13.447180 4.476920 80.230770 168.461540
13.40 13.436120 4.453850 79.761540 169.230770
13.39 13.425060 4.430770 79.292310 170.0
13.38 13.4140 4.407690 78.823080 168.611110
13.37 13.403610 4.384620 78.353850 167.222220
13.36 13.393230 4.361540 77.884620 165.833330
13.35 13.382840 4.338460 77.415380 164.444440
13.34 13.372460 4.315380 76.946150 163.055560
13.33 13.364150 4.292310 76.476920 161.666670
13.32 13.355850 4.269230 76.007690 160.277780
13.31 13.347540 4.246150 75.538460 158.888890
13.30 13.339230 4.223080 75.069230 157.50
13.29 13.330930 4.20 74.60 156.111110
13.28 13.320320 4.215380 75.515380 154.722220
13.27 13.309710 4.230770 76.430770 153.333330
13.26 13.29910 4.246150 77.346150 150.512820
13.25 13.288490 4.261540 78.261540 147.692310
13.24 13.27810 4.276920 79.176920 144.871790
13.23 13.267720 4.292310 80.092310 142.051280
13.22 13.257340 4.307690 81.007690 139.230770
13.21 13.246950 4.323080 81.923080 136.410260
13.20 13.236340 4.338460 82.838460 133.589740
13.19 13.225730 4.353850 83.753850 130.769230
13.18 13.215120 4.369230 84.669230 127.948720
13.17 13.204510 4.384620 85.584620 125.128210
13.16 13.193910 4.40 86.50 122.307690
13.15 13.18330 4.3750 86.10 119.487180
13.14 13.172690 4.350 85.70 116.666670
13.13 13.162080 4.3250 85.30 119.780220
13.12 13.153770 4.30 84.90 122.893770
13.11 13.145460 4.2750 84.50 126.007330
13.10 13.137160 4.250 84.10 129.120880
13.09 13.128850 4.2250 83.70 132.234430
13.08 13.120540 4.20 83.30 135.347990
13.07 13.109930 4.1750 82.90 138.461540
13.06 13.099320 4.150 82.50 141.575090
13.05 13.088710 4.1250 82.10 144.688640
13.04 13.07810 4.10 81.70 147.80220
