~VERSION INFORMATION SECTION
VERS. 2.0 : CWLS LAS-VERSION 2.0
WRAP. NO : One line per depth step
~WELL INFORMATION SECTION
# MNEM.UNIT VALUE/NAME DESCRIPTION
#-------- -------------- ---------------------
STRT.Metres 15 : Start
STOP.Metres 0.43 : Stop
STEP.Metres -0.01 : Step
NULL.  -999.25 :NULL VALUE
DATE. 2025-07-11 : DATE
~CURVE INFORMATION SECTION
DEPTH.Metres : 0 Depth
Depth. : 1 Depth
Incline.Deg : 2 Incline
Azimuth.Deg : 3 Azimuth
GR.CPS : 4 GR
~PARAMETER INFORMATION SECTION
~OTHER
#-------------------------------------------------
#Produced By: GeoVista Logger - Version 7.1.107.0
Natural Gamma Sonde - 6447
Verticality Sonde - 6292
#-------------------------------------------------
~ASCII LOG DATA
15.00 -999.25 -999.25 -999.25 -999.25
14.99 4.997140 -999.25 -999.25 -999.25
14.98 9.994280 -999.25 -999.25 -999.25
14.97 14.991420 -999.25 -999.25 -999.25
14.96 14.980140 -999.25 -999.25 -999.25
14.95 14.968850 -999.25 -999.25 -999.25
14.94 14.957110 -999.25 -999.25 -999.25
14.93 14.945370 -999.25 -999.25 -999.25
14.92 14.937550 -999.25 -999.25 -999.25
14.91 14.929720 -999.25 -999.25 -999.25
14.90 14.92190 -999.25 -999.25 -999.25
14.89 14.910160 2.366670 32.373740 -999.25
14.88 14.898420 4.733330 64.747470 -999.25
14.87 14.886680 7.10 97.121210 -999.25
14.86 14.874940 7.10 97.115910 -999.25
14.85 14.866820 7.10 97.110610 -999.25
14.84 14.858690 7.10 97.10530 -999.25
14.83 14.850560 7.10 97.10 -999.25
14.82 14.838370 7.10 97.014290 -999.25
14.81 14.826190 7.10 96.928570 -999.25
14.80 14.818360 7.10 96.842860 -999.25
14.79 14.810530 7.10 96.757140 -999.25
14.78 14.802710 7.10 96.671430 -999.25
14.77 14.790520 7.10 96.585710 -999.25
14.76 14.778330 7.10 96.50 -999.25
14.75 14.766590 7.10 96.733330 -999.25
14.74 14.754850 7.10 96.966670 -999.25
14.73 14.746730 7.10 97.20 -999.25
14.72 14.73860 7.10 97.433330 -999.25
14.71 14.730470 7.10 97.666670 -999.25
14.70 14.718740 7.10 97.90 -999.25
14.69 14.7070 7.028570 97.485710 -999.25
14.68 14.698870 6.957140 97.071430 -999.25
14.67 14.690740 6.885710 96.657140 -999.25
14.66 14.682620 6.814290 96.242860 -999.25
14.65 14.670430 6.742860 95.828570 -999.25
14.64 14.658240 6.671430 95.414290 -999.25
14.63 14.650110 6.60 95.0 -999.25
14.62 14.641990 6.571430 95.142860 -999.25
14.61 14.633860 6.542860 95.285710 -999.25
14.60 14.621220 6.514290 95.428570 -999.25
14.59 14.608580 6.485710 95.571430 -999.25
14.58 14.600150 6.457140 95.714290 -999.25
14.57 14.591720 6.428570 95.857140 -999.25
14.56 14.58330 6.40 96.0 -999.25
14.55 14.570650 6.36250 95.91250 -999.25
14.54 14.558010 6.3250 95.8250 -999.25
14.53 14.549590 6.28750 95.73750 -999.25
14.52 14.541160 6.250 95.650 -999.25
14.51 14.532730 6.21250 95.56250 -999.25
14.50 14.520540 6.1750 95.4750 -999.25
14.49 14.508350 6.13750 95.38750 -999.25
14.48 14.499920 6.10 95.30 -999.25
14.47 14.49150 6.171430 95.328570 -999.25
14.46 14.483070 6.242860 95.357140 -999.25
14.45 14.471330 6.314290 95.385710 -999.25
14.44 14.459590 6.385710 95.414290 -999.25
14.43 14.451170 6.457140 95.442860 -999.25
14.42 14.442740 6.528570 95.471430 -999.25
14.41 14.434310 6.60 95.50 -999.25
14.40 14.422120 6.628570 95.957140 -999.25
14.39 14.409930 6.657140 96.414290 -999.25
14.38 14.397740 6.685710 96.871430 -999.25
14.37 14.385550 6.714290 97.328570 -999.25
14.36 14.377130 6.742860 97.785710 -999.25
14.35 14.36870 6.771430 98.242860 -999.25
14.34 14.360270 6.80 98.70 -999.25
14.33 14.348080 6.76250 98.76250 -999.25
14.32 14.335890 6.7250 98.8250 -999.25
14.31 14.327460 6.68750 98.88750 69.092950
14.30 14.319040 6.650 98.950 138.185890
14.29 14.310610 6.61250 99.01250 134.472750
14.28 14.297970 6.5750 99.0750 130.759610
14.27 14.285330 6.53750 99.13750 127.046470
14.26 14.27720 6.50 99.20 123.333330
14.25 14.269070 6.514290 98.842860 115.333330
14.24 14.260950 6.528570 98.485710 107.333330
14.23 14.248310 6.542860 98.128570 99.333330
14.22 14.235670 6.557140 97.771430 91.333330
14.21 14.227540 6.571430 97.414290 83.333330
14.20 14.219410 6.585710 97.057140 89.523810
14.19 14.211290 6.60 96.70 95.714290
14.18 14.198650 6.557140 96.885710 101.904760
14.17 14.1860 6.514290 97.071430 108.095240
14.16 14.177580 6.471430 97.257140 114.285710
14.15 14.169150 6.428570 97.442860 120.476190
14.14 14.160720 6.385710 97.628570 126.666670
14.13 14.148530 6.342860 97.814290 131.428570
14.12 14.136340 6.30 98.0 136.190480
14.11 14.127920 6.31250 97.91250 140.952380
14.10 14.119490 6.3250 97.8250 145.714290
14.09 14.111060 6.33750 97.73750 150.476190
14.08 14.098870 6.350 97.650 155.23810
14.07 14.086680 6.36250 97.56250 160.0
14.06 14.078250 6.3750 97.4750 152.380950
14.05 14.069830 6.38750 97.38750 144.76190
14.04 14.06140 6.40 97.30 137.142860
14.03 14.048760 6.40 97.271430 129.523810
14.02 14.036120 6.40 97.242860 121.904760
14.01 14.027990 6.40 97.214290 114.285710
14.00 14.019860 6.40 97.185710 106.666670
13.99 14.011740 6.40 97.157140 114.76190
13.98 13.99910 6.40 97.128570 122.857140
13.97 13.986460 6.40 97.10 130.952380
13.96 13.978030 6.350 96.90 139.047620
13.95 13.96960 6.30 96.70 147.142860
13.94 13.961170 6.250 96.50 155.23810
13.93 13.952450 6.20 96.30 163.333330
13.92 13.943720 6.150 96.10 163.333330
13.91 13.934990 6.10 95.90 163.333330
13.90 13.922350 6.050 95.70 163.333330
13.89 13.909710 6.0 95.50 163.333330
13.88 13.901280 6.042860 95.214290 163.333330
13.87 13.892850 6.085710 94.928570 163.333330
13.86 13.884420 6.128570 94.642860 163.333330
13.85 13.871780 6.171430 94.357140 160.833330
13.84 13.859140 6.214290 94.071430 158.333330
13.83 13.851020 6.257140 93.785710 155.833330
13.82 13.842890 6.30 93.50 153.333330
13.81 13.834760 6.30 94.18750 150.833330
13.80 13.822120 6.30 94.8750 148.333330
13.79 13.809480 6.30 95.56250 145.833330
13.78 13.801050 6.30 96.250 143.333330
13.77 13.792630 6.30 96.93750 140.829490
13.76 13.78420 6.30 97.6250 138.325650
13.75 13.771560 6.30 98.31250 135.821810
13.74 13.758920 6.30 99.0 133.317970
13.73 13.750490 6.285710 98.742860 130.814130
13.72 13.742060 6.271430 98.485710 128.310290
13.71 13.733630 6.257140 98.228570 125.806450
13.70 13.720990 6.242860 97.971430 127.580650
13.69 13.708350 6.228570 97.714290 129.354840
13.68 13.699920 6.214290 97.457140 131.129030
13.67 13.69150 6.20 97.20 132.903230
13.66 13.683070 6.2250 96.86250 134.677420
13.65 13.670880 6.250 96.5250 136.451610
13.64 13.658690 6.2750 96.18750 138.225810
13.63 13.650260 6.30 95.850 140.0
13.62 13.641840 6.3250 95.51250 146.666670
13.61 13.633410 6.350 95.1750 153.333330
13.60 13.620770 6.3750 94.83750 160.0
13.59 13.608130 6.40 94.50 166.666670
13.58 13.60 6.38750 94.90 173.333330
13.57 13.591870 6.3750 95.30 180.0
13.56 13.583750 6.36250 95.70 186.666670
13.55 13.571110 6.350 96.10 178.095240
13.54 13.558470 6.33750 96.50 169.523810
13.53 13.550340 6.3250 96.90 160.952380
13.52 13.542210 6.31250 97.30 152.380950
13.51 13.534090 6.30 97.70 143.809520
13.50 13.521440 6.30 98.357140 135.23810
13.49 13.50880 6.30 99.014290 126.666670
13.48 13.500680 6.30 99.671430 129.583330
13.47 13.492550 6.30 100.328570 132.50
13.46 13.484420 6.30 100.985710 135.416670
13.45 13.471330 6.30 101.642860 138.333330
13.44 13.458240 6.30 102.30 141.250
13.43 13.449810 6.2750 102.0750 144.166670
13.42 13.441380 6.250 101.850 147.083330
13.41 13.432960 6.2250 101.6250 150.0
13.40 13.420320 6.20 101.40 150.952380
13.39 13.407670 6.1750 101.1750 151.904760
13.38 13.399550 6.150 100.950 152.857140
13.37 13.391420 6.1250 100.7250 153.809520
13.36 13.38330 6.10 100.50 154.76190
13.35 13.371110 6.114290 99.60 155.714290
13.34 13.358920 6.128570 98.70 156.666670
13.33 13.346730 6.142860 97.80 152.916670
13.32 13.334540 6.157140 96.90 149.166670
13.31 13.326410 6.171430 96.0 145.416670
13.30 13.318280 6.185710 95.10 141.666670
13.29 13.310160 6.20 94.20 137.916670
13.28 13.297970 6.16250 94.550 134.166670
13.27 13.285780 6.1250 94.90 130.416670
13.26 13.277650 6.08750 95.250 126.666670
13.25 13.269530 6.050 95.60 125.714290
13.24 13.26140 6.01250 95.950 124.76190
13.23 13.249210 5.9750 96.30 123.809520
13.22 13.237020 5.93750 96.650 122.857140
13.21 13.228890 5.90 97.0 121.904760
13.20 13.220770 5.90 97.20 120.952380
13.19 13.212640 5.90 97.40 120.0
13.18 13.200450 5.90 97.60 125.6250
13.17 13.188260 5.90 97.80 131.250
13.16 13.180140 5.90 98.0 136.8750
13.15 13.172010 5.90 98.20 142.50
13.14 13.163880 5.90 98.40 148.1250
13.13 13.151240 5.88750 98.06250 153.750
13.12 13.13860 5.8750 97.7250 159.3750
13.11 13.130470 5.86250 97.38750 165.0
13.10 13.122350 5.850 97.050 158.571430
13.09 13.114220 5.83750 96.71250 152.142860
13.08 13.101580 5.8250 96.3750 145.714290
13.07 13.088940 5.81250 96.03750 139.285710
13.06 13.080510 5.80 95.70 132.857140
13.05 13.072080 5.857140 95.914290 126.428570
13.04 13.063660 5.914290 96.128570 120.0
