~VERSION INFORMATION SECTION
VERS. 2.0 : CWLS LAS-VERSION 2.0
WRAP. NO : One line per depth step
~WELL INFORMATION SECTION
# MNEM.UNIT VALUE/NAME DESCRIPTION
#-------- -------------- ---------------------
STRT.Metres 15 : Start
STOP.Metres 0.51 : Stop
STEP.Metres -0.01 : Step
NULL.  -999.25 :NULL VALUE
DATE. 2025-09-11 : DATE
~CURVE INFORMATION SECTION
DEPTH.Metres : 0 Depth
Depth. : 1 Depth
Incline.Deg : 2 Incline
Azimuth.Deg : 3 Azimuth
GR.CPS : 4 GR
~PARAMETER INFORMATION SECTION
~OTHER
#-------------------------------------------------
#Produced By: GeoVista Logger - Version 7.1.107.0
Natural Gamma Sonde - 6447
Verticality Sonde - 6292
#-------------------------------------------------
~ASCII LOG DATA
# ...
9.51 9.548980 5.107690 105.223080 140.512820
9.50 9.537920 5.061540 104.284620 140.0
9.49 9.526860 5.015380 103.346150 140.0
9.48 9.516250 4.969230 102.407690 140.0
9.47 9.505640 4.923080 101.469230 140.0
9.46 9.495030 4.876920 100.530770 140.0
9.45 9.484420 4.830770 99.592310 140.0
9.44 9.476120 4.784620 98.653850 140.0
9.43 9.467810 4.738460 97.715380 140.0
9.42 9.45950 4.692310 96.776920 140.0
9.41 9.45120 4.646150 95.838460 140.0
9.40 9.442890 4.60 94.90 140.0
9.39 9.43160 4.5250 95.2250 140.0
9.38 9.420320 4.450 95.550 140.0
9.37 9.409030 4.3750 95.8750 140.0
9.36 9.397740 4.30 96.20 139.444440
9.35 9.387130 4.2250 96.5250 138.888890
9.34 9.376520 4.150 96.850 138.333330
9.33 9.365910 4.0750 97.1750 137.777780
9.32 9.35530 4.0 97.50 137.222220
9.31 9.347180 3.9250 97.8250 136.666670
9.30 9.339050 3.850 98.150 136.111110
9.29 9.330930 3.7750 98.4750 135.555560
9.28 9.32280 3.70 98.80 135.0
9.27 9.314670 3.730770 98.569230 134.444440
9.26 9.303390 3.761540 98.338460 133.888890
9.25 9.29210 3.792310 98.107690 133.333330
9.24 9.280810 3.823080 97.876920 136.153850
9.23 9.269530 3.853850 97.646150 138.974360
9.22 9.258920 3.884620 97.415380 141.794870
9.21 9.248310 3.915380 97.184620 144.615380
9.20 9.23770 3.946150 96.953850 147.43590
9.19 9.227090 3.976920 96.723080 150.256410
9.18 9.216930 4.007690 96.492310 153.076920
9.17 9.206770 4.038460 96.261540 155.897440
9.16 9.196610 4.069230 96.030770 158.717950
9.15 9.186460 4.10 95.80 161.538460
9.14 9.177430 4.103850 95.546150 164.358970
9.13 9.16840 4.107690 95.292310 167.179490
9.12 9.159370 4.111540 95.038460 170.0
9.11 9.150340 4.115380 94.784620 167.692310
9.10 9.141310 4.119230 94.530770 165.384620
9.09 9.130930 4.123080 94.276920 163.076920
9.08 9.120540 4.126920 94.023080 160.769230
9.07 9.110160 4.130770 93.769230 158.461540
9.06 9.099770 4.134620 93.515380 156.153850
9.05 9.089620 4.138460 93.261540 153.846150
9.04 9.079460 4.142310 93.007690 151.538460
9.03 9.06930 4.146150 92.753850 149.230770
9.02 9.059140 4.150 92.50 146.923080
9.01 9.048080 4.153850 92.246150 144.615380
9.00 9.037020 4.157690 91.992310 142.307690
8.99 9.025960 4.161540 91.738460 140.0
8.98 9.01490 4.165380 91.484620 139.230770
8.97 9.004510 4.169230 91.230770 138.461540
8.96 8.994130 4.173080 90.976920 137.692310
8.95 8.983750 4.176920 90.723080 136.923080
8.94 8.973360 4.180770 90.469230 136.153850
8.93 8.965240 4.184620 90.215380 135.384620
8.92 8.957110 4.188460 89.961540 134.615380
8.91 8.948980 4.192310 89.707690 133.846150
8.90 8.940860 4.196150 89.453850 133.076920
8.89 8.932730 4.20 89.20 132.307690
8.88 8.921670 4.184620 90.476920 131.538460
8.87 8.910610 4.169230 91.753850 130.769230
8.86 8.899550 4.153850 93.030770 130.0
8.85 8.888490 4.138460 94.307690 135.0
8.84 8.87810 4.123080 95.584620 140.0
8.83 8.867720 4.107690 96.861540 145.0
8.82 8.857340 4.092310 98.138460 150.0
8.81 8.846950 4.076920 99.415380 155.0
8.80 8.836790 4.061540 100.692310 160.0
8.79 8.826640 4.046150 101.969230 165.0
8.78 8.816480 4.030770 103.246150 170.0
8.77 8.806320 4.015380 104.523080 175.0
8.76 8.797470 4.0 105.80 180.0
8.75 8.788620 4.050 104.866670 185.0
8.74 8.779770 4.10 103.933330 190.0
8.73 8.770930 4.150 103.0 188.461540
8.72 8.762080 4.20 102.066670 186.923080
8.71 8.751470 4.250 101.133330 185.384620
8.70 8.740860 4.30 100.20 183.846150
8.69 8.730250 4.350 99.266670 182.307690
8.68 8.719640 4.40 98.333330 180.769230
8.67 8.709480 4.450 97.40 179.230770
8.66 8.699320 4.50 96.466670 177.692310
8.65 8.689160 4.550 95.533330 176.153850
8.64 8.679010 4.60 94.60 174.615380
8.63 8.667950 4.607690 95.476920 173.076920
8.62 8.656880 4.615380 96.353850 171.538460
8.61 8.645820 4.623080 97.230770 170.0
8.60 8.634760 4.630770 98.107690 171.282050
8.59 8.624380 4.638460 98.984620 172.56410
8.58 8.6140 4.646150 99.861540 173.846150
8.57 8.603610 4.653850 100.738460 175.128210
8.56 8.593230 4.661540 101.615380 176.410260
8.55 8.584920 4.669230 102.492310 177.692310
8.54 8.576610 4.676920 103.369230 178.974360
8.53 8.568310 4.684620 104.246150 180.256410
8.52 8.560 4.692310 105.123080 181.538460
8.51 8.551690 4.70 106.0 182.820510
8.50 8.540630 4.638460 106.192310 184.102560
8.49 8.529570 4.576920 106.384620 185.384620
8.48 8.518510 4.515380 106.576920 186.666670
8.47 8.507450 4.453850 106.769230 185.897440
8.46 8.496840 4.392310 106.961540 185.128210
8.45 8.486230 4.330770 107.153850 184.358970
8.44 8.475620 4.269230 107.346150 183.589740
8.43 8.465010 4.207690 107.538460 182.820510
8.42 8.45670 4.146150 107.730770 182.051280
8.41 8.44840 4.084620 107.923080 181.282050
8.40 8.440090 4.023080 108.115380 180.512820
8.39 8.431780 3.961540 108.307690 179.743590
8.38 8.423480 3.90 108.50 178.974360
8.37 8.412190 3.966670 107.183330 178.205130
8.36 8.40090 4.033330 105.866670 177.43590
8.35 8.389620 4.10 104.550 176.666670
8.34 8.378330 4.166670 103.233330 169.52020
8.33 8.367720 4.233330 101.916670 162.373740
8.32 8.357110 4.30 100.60 155.227270
8.31 8.34650 4.366670 99.283330 148.080810
8.30 8.335890 4.433330 97.966670 140.934340
8.29 8.325730 4.50 96.650 133.787880
8.28 8.315580 4.566670 95.333330 126.641410
8.27 8.305420 4.633330 94.016670 119.494950
8.26 8.295260 4.70 92.70 112.348480
8.25 8.286230 4.707690 93.261540 105.202020
8.24 8.27720 4.715380 93.823080 98.055560
8.23 8.268170 4.723080 94.384620 90.909090
8.22 8.259140 4.730770 94.946150 100.110420
8.21 8.250110 4.738460 95.507690 109.311740
8.20 8.23950 4.746150 96.069230 118.513070
8.19 8.228890 4.753850 96.630770 127.714390
8.18 8.218280 4.761540 97.192310 136.915720
8.17 8.207670 4.769230 97.753850 146.117040
8.16 8.197520 4.776920 98.315380 155.318370
8.15 8.187360 4.784620 98.876920 164.519690
8.14 8.17720 4.792310 99.438460 173.721020
8.13 8.167040 4.80 100.0 182.922340
8.12 8.155980 4.792310 100.292310 192.123670
8.11 8.144920 4.784620 100.584620 201.324990
8.10 8.133860 4.776920 100.876920 210.526320
8.09 8.12280 4.769230 101.169230 209.71660
8.08 8.112420 4.761540 101.461540 208.906880
8.07 8.102030 4.753850 101.753850 208.097170
8.06 8.091650 4.746150 102.046150 207.287450
8.05 8.081260 4.738460 102.338460 206.477730
8.04 8.073320 4.730770 102.630770 205.668020
8.03 8.065370 4.723080 102.923080 204.85830
8.02 8.057430 4.715380 103.215380 204.048580
8.01 8.049480 4.707690 103.507690 203.238870
8.00 8.041530 4.70 103.80 202.429150
7.99 8.030470 4.707690 103.246150 201.619430
7.98 8.019410 4.715380 102.692310 200.809720
7.97 8.008350 4.723080 102.138460 200.0
7.96 7.997290 4.730770 101.584620 198.809520
7.95 7.986910 4.738460 101.030770 197.619050
7.94 7.976520 4.746150 100.476920 196.428570
7.93 7.966140 4.753850 99.923080 195.23810
7.92 7.955760 4.761540 99.369230 194.047620
7.91 7.94560 4.769230 98.815380 192.857140
7.90 7.935440 4.776920 98.261540 191.666670
7.89 7.925280 4.784620 97.707690 190.476190
7.88 7.915120 4.792310 97.153850 189.285710
7.87 7.906280 4.80 96.60 188.095240
7.86 7.897430 4.80 97.350 186.904760
7.85 7.888580 4.80 98.10 185.714290
7.84 7.879730 4.80 98.850 180.830280
7.83 7.870880 4.80 99.60 175.946280
7.82 7.86050 4.80 100.350 171.062270
7.81 7.850110 4.80 101.10 166.178270
7.80 7.839730 4.80 101.850 161.294260
7.79 7.829350 4.80 102.60 156.410260
7.78 7.819190 4.80 103.350 151.526250
7.77 7.809030 4.80 104.10 146.642250
7.76 7.798870 4.80 104.850 141.758240
7.75 7.788710 4.80 105.60 136.874240
7.74 7.777650 4.80 105.515380 131.990230
7.73 7.766590 4.80 105.430770 127.106230
7.72 7.755530 4.80 105.346150 122.222220
7.71 7.744470 4.80 105.261540 125.128210
7.70 7.733860 4.80 105.176920 128.034190
7.69 7.723250 4.80 105.092310 130.940170
7.68 7.712640 4.80 105.007690 133.846150
7.67 7.702030 4.80 104.923080 136.752140
7.66 7.693910 4.80 104.838460 139.658120
7.65 7.685780 4.80 104.753850 142.56410
7.64 7.677650 4.80 104.669230 145.470090
7.63 7.669530 4.80 104.584620 148.376070
7.62 7.66140 4.80 104.50 151.282050
7.61 7.650110 4.769230 103.907690 154.188030
7.60 7.638830 4.738460 103.315380 157.094020
7.59 7.627540 4.707690 102.723080 160.0
7.58 7.616250 4.676920 102.130770 157.692310
