~VERSION INFORMATION SECTION
VERS. 2.0 : CWLS LAS-VERSION 2.0
WRAP. NO : One line per depth step
~WELL INFORMATION SECTION
# MNEM.UNIT VALUE/NAME DESCRIPTION
#-------- -------------- ---------------------
STRT.Metres 17 : Start
STOP.Metres 0.38 : Stop
STEP.Metres -0.01 : Step
NULL.  -999.25 :NULL VALUE
DATE. 2025-57-11 : DATE
~CURVE INFORMATION SECTION
DEPTH.Metres : 0 Depth
Depth. : 1 Depth
Incline.Deg : 2 Incline
Azimuth.Deg : 3 Azimuth
GR.CPS : 4 GR
~PARAMETER INFORMATION SECTION
~OTHER
#-------------------------------------------------
#Produced By: GeoVista Logger - Version 7.1.107.0
Natural Gamma Sonde - 6447
Verticality Sonde - 6292
#-------------------------------------------------
~ASCII LOG DATA
# ...
12.87 12.876750 6.20 100.333330 147.777780
12.86 12.867720 6.20 99.90 138.888890
12.85 12.858690 6.20 99.566670 130.0
12.84 12.845150 6.20 99.233330 124.444440
12.83 12.83160 6.20 98.90 118.888890
12.82 12.821670 6.20 99.850 113.333330
12.81 12.812640 6.20 100.80 124.40860
12.80 12.803610 6.20 101.10 135.483870
12.79 12.794580 6.20 101.40 139.211470
12.78 12.785550 6.20 101.70 142.939070
12.77 12.776520 6.20 100.733330 146.666670
12.76 12.767040 6.20 99.766670 157.777780
12.75 12.754850 6.20 98.80 168.888890
12.74 12.742210 6.20 100.150 180.0
12.73 12.733180 6.20 101.50 168.333330
12.72 12.724150 6.166670 100.766670 156.666670
12.71 12.715120 6.133330 100.033330 147.777780
12.70 12.706090 6.10 99.30 138.888890
12.69 12.697070 6.10 99.366670 130.0
12.68 12.688940 6.10 99.433330 143.333330
12.67 12.67540 6.10 99.50 156.666670
12.66 12.661850 6.150 100.30 145.555560
12.65 12.652820 6.20 101.10 134.444440
12.64 12.64470 6.166670 100.60 123.333330
12.63 12.635670 6.133330 100.10 126.666670
12.62 12.626640 6.10 99.60 130.0
12.61 12.617610 6.10 100.533330 133.333330
12.60 12.604970 6.10 101.466670 121.666670
12.59 12.592330 6.10 102.40 110.0
12.58 12.58330 6.10 101.666670 123.333330
12.57 12.574270 6.10 100.933330 136.666670
12.56 12.566140 6.10 100.20 150.0
12.55 12.557110 6.10 100.650 147.777780
12.54 12.548080 6.10 101.10 145.555560
12.53 12.535440 6.10 101.266670 143.333330
12.52 12.52190 6.10 101.433330 146.666670
12.51 12.513770 6.10 101.60 150.0
12.50 12.504740 6.10 100.966670 154.444440
12.49 12.496610 6.10 100.333330 158.888890
12.48 12.487580 6.10 99.70 163.333330
12.47 12.474490 6.10 99.90 163.333330
12.46 12.46140 6.10 100.10 163.333330
12.45 12.452370 6.10 101.10 163.333330
12.44 12.444240 6.10 102.10 160.0
12.43 12.435210 6.10 101.70 156.666670
12.42 12.426190 6.10 101.30 153.333330
12.41 12.418060 6.10 100.90 161.666670
12.40 12.409030 6.10 100.350 170.0
12.39 12.395940 6.10 99.80 168.888890
12.38 12.382840 6.10 100.10 167.777780
12.37 12.374720 6.10 100.40 166.666670
12.36 12.365690 6.10 100.70 161.111110
12.35 12.356660 6.10 101.20 155.555560
12.34 12.348530 6.10 101.70 150.0
12.33 12.334990 6.10 102.20 156.666670
12.32 12.321440 6.10 101.40 163.333330
12.31 12.312420 6.10 100.60 142.222220
12.30 12.303390 6.10 101.133330 121.111110
12.29 12.294360 6.10 101.666670 100.0
12.28 12.285330 6.10 102.20 118.888890
12.27 12.27630 6.10 102.133330 137.777780
12.26 12.267270 6.10 102.066670 156.666670
12.25 12.258240 6.10 102.0 170.0
12.24 12.24470 6.10 101.50 183.333330
12.23 12.231150 6.10 101.0 165.555560
12.22 12.223020 6.10 101.233330 147.777780
12.21 12.21490 6.10 101.466670 130.0
12.20 12.205870 6.10 101.70 125.555560
12.19 12.196840 6.050 101.90 121.111110
12.18 12.188710 6.0 102.10 116.666670
12.17 12.175170 6.0 101.666670 126.666670
12.16 12.162530 6.0 101.233330 136.666670
12.15 12.15350 6.0 100.80 137.777780
12.14 12.144470 6.0 101.80 138.888890
12.13 12.136340 6.0 102.80 140.0
12.12 12.127310 6.0 103.80 141.111110
12.11 12.114220 6.0 103.10 142.222220
12.10 12.101130 6.0 102.40 143.333330
12.09 12.09210 5.966670 102.40 140.0
12.08 12.083070 5.933330 102.40 136.666670
12.07 12.074040 5.90 102.40 133.333330
12.06 12.065910 5.933330 102.666670 148.333330
12.05 12.056880 5.966670 102.933330 163.333330
12.04 12.047860 6.0 103.20 158.888890
12.03 12.034760 5.950 103.150 154.444440
12.02 12.021670 5.90 103.10 150.0
12.01 12.012640 5.90 102.566670 142.222220
12.00 12.003610 5.90 102.033330 134.444440
11.99 11.995490 5.90 101.50 126.666670
11.98 11.986460 5.90 102.233330 143.333330
11.97 11.977430 5.90 102.966670 160.0
11.96 11.964790 5.90 103.70 145.555560
11.95 11.951240 5.90 103.650 131.111110
11.94 11.942210 5.90 103.60 116.666670
11.93 11.934090 5.90 103.133330 135.555560
11.92 11.925060 5.90 102.666670 154.444440
11.91 11.916030 5.90 102.20 173.333330
11.90 11.9070 5.90 102.366670 155.0
11.89 11.897970 5.90 102.533330 136.666670
11.88 11.885330 5.90 102.70 156.666670
11.87 11.871780 5.90 102.750 176.666670
11.86 11.862750 5.90 102.80 160.0
11.85 11.853720 5.90 102.20 143.333330
11.84 11.84470 5.90 101.60 126.666670
11.83 11.835670 5.90 101.0 130.0
11.82 11.827540 5.850 102.550 133.333330
11.81 11.818510 5.80 104.10 136.666670
11.80 11.804970 5.80 103.866670 130.833330
11.79 11.791420 5.80 103.633330 125.0
11.78 11.78330 5.80 103.40 133.333330
11.77 11.774270 5.833330 102.633330 141.666670
11.76 11.765240 5.866670 101.866670 150.0
11.75 11.756210 5.90 101.10 153.333330
11.74 11.747180 5.90 102.250 156.666670
11.73 11.734540 5.90 103.40 161.111110
11.72 11.720990 5.90 102.666670 165.555560
11.71 11.712870 5.90 101.933330 170.0
11.70 11.703840 5.90 101.20 165.555560
11.69 11.694810 5.90 101.433330 161.111110
11.68 11.686680 5.90 101.666670 156.666670
11.67 11.677650 5.90 101.90 170.0
11.66 11.665010 5.90 101.80 183.333330
11.65 11.651470 5.90 101.70 163.333330
11.64 11.643340 5.90 101.90 143.333330
11.63 11.634310 5.90 102.10 123.333330
11.62 11.625280 5.90 102.30 135.555560
11.61 11.617160 5.90 102.250 147.777780
11.60 11.608130 5.90 102.20 160.0
11.59 11.595030 5.90 102.266670 166.666670
11.58 11.581940 5.90 102.333330 173.333330
11.57 11.572910 5.90 102.40 177.777780
11.56 11.563880 5.90 102.133330 182.222220
11.55 11.555760 5.90 101.866670 186.666670
11.54 11.546730 5.90 101.60 151.666670
11.53 11.53770 5.90 101.866670 116.666670
11.52 11.525060 5.90 102.133330 134.444440
11.51 11.511510 5.90 102.40 152.222220
11.50 11.502480 5.90 102.350 170.0
11.49 11.494360 5.90 102.30 156.666670
11.48 11.485330 5.866670 102.066670 143.333330
11.47 11.47630 5.833330 101.833330 130.0
11.46 11.468170 5.80 101.60 120.0
11.45 11.454630 5.80 102.350 110.0
11.44 11.441990 5.80 103.10 118.888890
11.43 11.432960 5.80 103.133330 127.777780
11.42 11.423930 5.80 103.166670 136.666670
11.41 11.41580 5.80 103.20 136.666670
11.40 11.406770 5.833330 102.60 136.666670
11.39 11.397740 5.866670 102.0 136.666670
11.38 11.38510 5.90 101.40 141.666670
11.37 11.371560 5.90 102.40 146.666670
11.36 11.362530 5.90 103.40 144.444440
11.35 11.35440 5.866670 103.0 142.222220
11.34 11.345370 5.833330 102.60 140.0
11.33 11.336340 5.80 102.20 127.777780
11.32 11.328220 5.80 102.0 115.555560
11.31 11.314670 5.80 101.80 103.333330
11.30 11.302030 5.80 101.60 117.79570
11.29 11.2930 5.850 101.80 132.258060
11.28 11.283970 5.90 102.0 135.949820
11.27 11.275850 5.866670 102.0 139.641580
11.26 11.266820 5.833330 102.0 143.333330
11.25 11.257790 5.80 102.0 144.166670
11.24 11.24470 5.750 102.60 145.0
11.23 11.23160 5.70 103.20 156.666670
11.22 11.222570 5.70 102.333330 168.333330
11.21 11.214450 5.70 101.466670 180.0
11.20 11.205420 5.70 100.60 176.666670
11.19 11.196390 5.70 101.033330 173.333330
11.18 11.188260 5.70 101.466670 170.0
11.17 11.174720 5.70 101.90 160.0
11.16 11.161170 5.70 102.250 150.0
11.15 11.152140 5.70 102.60 132.222220
11.14 11.143120 5.70 101.666670 114.444440
11.13 11.134990 5.70 100.733330 96.666670
11.12 11.125960 5.70 99.80 103.333330
11.11 11.116930 5.70 100.233330 110.0
11.10 11.10790 5.70 100.666670 116.666670
11.09 11.095260 5.70 101.10 128.333330
11.08 11.081720 5.70 101.10 140.0
11.07 11.073590 5.70 101.10 130.0
11.06 11.064560 5.70 100.666670 120.0
11.05 11.055530 5.70 100.233330 110.0
11.04 11.04740 5.70 99.80 131.111110
11.03 11.038370 5.70 100.850 152.222220
11.02 11.024830 5.70 101.90 173.333330
11.01 11.011290 5.70 101.866670 158.333330
11.00 11.003160 5.70 101.833330 143.333330
10.99 10.994130 5.70 101.80 142.222220
10.98 10.98510 5.70 102.366670 141.111110
10.97 10.976070 5.70 102.933330 140.0
10.96 10.967040 5.70 103.50 142.222220
10.95 10.958920 5.70 101.950 144.444440
10.94 10.945370 5.70 100.40 146.666670
10.93 10.931830 5.70 101.166670 165.0
10.92 10.92370 5.70 101.933330 183.333330
10.91 10.914670 5.70 102.70 165.555560
10.90 10.905640 5.70 102.60 147.777780
10.89 10.897520 5.70 102.50 130.0
10.88 10.888490 5.70 102.40 134.285710
10.87 10.874940 5.70 101.950 138.571430
10.86 10.86230 5.70 101.50 142.857140
10.85 10.853270 5.533330 101.20 157.142860
