~VERSION INFORMATION SECTION
VERS. 2.0 : CWLS LAS-VERSION 2.0
WRAP. NO : One line per depth step
~WELL INFORMATION SECTION
# MNEM.UNIT VALUE/NAME DESCRIPTION
#-------- -------------- ---------------------
STRT.Metres 17 : Start
STOP.Metres 0.38 : Stop
STEP.Metres -0.01 : Step
NULL.  -999.25 :NULL VALUE
DATE. 2025-57-11 : DATE
~CURVE INFORMATION SECTION
DEPTH.Metres : 0 Depth
Depth. : 1 Depth
Incline.Deg : 2 Incline
Azimuth.Deg : 3 Azimuth
GR.CPS : 4 GR
~PARAMETER INFORMATION SECTION
~OTHER
#-------------------------------------------------
#Produced By: GeoVista Logger - Version 7.1.107.0
Natural Gamma Sonde - 6447
Verticality Sonde - 6292
#-------------------------------------------------
~ASCII LOG DATA
# ...
2.25 2.257340 2.70 99.0 138.333330
2.24 2.248310 2.733330 98.033330 140.0
2.23 2.235210 2.766670 97.066670 150.0
2.22 2.222120 2.80 96.10 160.0
2.21 2.213090 2.733330 95.433330 156.666670
2.20 2.204060 2.666670 94.766670 153.333330
2.19 2.195030 2.60 94.10 150.0
2.18 2.1860 2.550 96.0 146.666670
2.17 2.176980 2.50 97.90 143.333330
2.16 2.167950 2.533330 94.90 140.0
2.15 2.158920 2.566670 91.90 135.0
2.14 2.145370 2.60 88.90 130.0
2.13 2.131830 2.633330 90.166670 133.333330
2.12 2.12280 2.666670 91.433330 136.666670
2.11 2.113770 2.70 92.70 140.0
2.10 2.104740 2.70 93.850 140.0
2.09 2.095710 2.70 95.0 140.0
2.08 2.086680 2.633330 94.70 140.0
2.07 2.077650 2.566670 94.40 138.888890
2.06 2.068620 2.50 94.10 137.777780
2.05 2.055080 2.40 94.70 136.666670
2.04 2.041530 2.30 95.30 121.666670
2.03 2.033410 2.20 95.90 106.666670
2.02 2.024380 2.20 96.750 116.666670
2.01 2.015350 2.20 97.60 126.666670
2.00 2.006320 2.266670 97.083330 136.666670
1.99 1.997290 2.333330 96.566670 138.888890
1.98 1.988260 2.40 96.050 141.111110
1.97 1.974720 2.466670 95.533330 143.333330
1.96 1.961170 2.533330 95.016670 140.0
1.95 1.952140 2.60 94.50 136.666670
1.94 1.943120 2.450 95.950 132.222220
1.93 1.934090 2.30 97.40 127.777780
1.92 1.925060 2.266670 97.80 123.333330
1.91 1.916030 2.233330 98.20 122.222220
1.90 1.9070 2.20 98.60 121.111110
1.89 1.897970 2.333330 99.033330 120.0
1.88 1.888940 2.466670 99.466670 127.777780
1.87 1.87540 2.60 99.90 135.555560
1.86 1.861850 2.50 100.950 143.333330
1.85 1.852820 2.40 102.0 140.0
1.84 1.843790 2.40 99.066670 136.666670
1.83 1.834760 2.40 96.133330 131.971330
1.82 1.826640 2.40 93.20 127.275990
1.81 1.817610 2.333330 95.90 122.580650
1.80 1.808580 2.266670 98.60 132.831540
1.79 1.795030 2.20 101.30 143.082440
1.78 1.781490 2.166670 101.433330 153.333330
1.77 1.772460 2.133330 101.566670 154.444440
1.76 1.763430 2.10 101.70 155.555560
1.75 1.75440 2.20 98.50 156.666670
1.74 1.746280 2.30 95.30 141.666670
1.73 1.737250 2.366670 95.666670 126.666670
1.72 1.728220 2.433330 96.033330 128.888890
1.71 1.714670 2.50 96.40 131.111110
1.70 1.702030 2.433330 97.866670 133.333330
1.69 1.6930 2.366670 99.333330 160.0
1.68 1.683970 2.30 100.80 186.666670
1.67 1.674940 2.20 99.450 173.333330
1.66 1.665910 2.10 98.10 160.0
1.65 1.656880 2.10 98.566670 146.666670
1.64 1.647860 2.10 99.033330 151.111110
1.63 1.635210 2.10 99.50 155.555560
1.62 1.621670 2.20 100.20 160.0
1.61 1.612640 2.30 100.90 152.222220
1.60 1.603610 2.40 101.60 144.444440
1.59 1.594580 2.30 101.0 136.666670
1.58 1.585550 2.20 100.40 165.0
1.57 1.576520 2.133330 99.50 193.333330
1.56 1.56840 2.066670 98.60 173.333330
1.55 1.554850 2.0 97.70 153.333330
1.54 1.541310 1.933330 99.50 133.333330
1.53 1.532280 1.866670 101.30 146.666670
1.52 1.523250 1.80 103.10 160.0
1.51 1.514220 2.0 101.10 173.333330
1.50 1.505190 2.20 99.10 168.333330
1.49 1.496160 2.166670 100.966670 163.333330
1.48 1.487130 2.133330 102.833330 175.555560
1.47 1.47810 2.10 104.70 187.777780
1.46 1.464560 2.10 103.066670 200.0
1.45 1.451020 2.10 101.433330 171.666670
1.44 1.442890 2.10 99.80 143.333330
1.43 1.432960 2.060 100.160 171.111110
1.42 1.424830 2.020 100.520 198.888890
1.41 1.41580 1.980 100.880 226.666670
1.40 1.406770 1.940 101.240 220.0
1.39 1.397740 1.90 101.60 213.333330
1.38 1.388710 1.90 101.666670 206.666670
1.37 1.375170 1.90 101.733330 198.787880
1.36 1.361630 1.90 101.80 190.909090
1.35 1.35260 1.950 100.550 199.202550
1.34 1.343570 2.0 99.30 207.496010
1.33 1.334540 2.0 101.066670 215.789470
1.32 1.325510 2.0 102.833330 209.451050
1.31 1.316480 2.0 104.60 203.112620
1.30 1.307450 1.90 103.933330 196.774190
1.29 1.298420 1.80 103.266670 215.053760
1.28 1.284880 1.70 102.60 233.333330
1.27 1.274040 1.750 103.70 207.777780
1.26 1.264410 1.80 104.80 182.222220
1.25 -999.25 1.80 105.066670 156.666670
1.24 -999.25 1.80 105.333330 160.0
1.23 -999.25 1.80 105.60 163.333330
1.22 -999.25 1.816670 106.683330 166.666670
1.21 -999.25 1.833330 107.766670 172.222220
1.20 -999.25 1.850 108.850 177.777780
1.19 -999.25 1.866670 109.933330 183.333330
1.18 -999.25 1.883330 111.016670 175.0
1.17 -999.25 1.90 112.10 166.666670
1.16 -999.25 1.70 110.250 182.222220
1.15 -999.25 1.50 108.40 197.777780
1.14 -999.25 1.533330 110.133330 213.333330
1.13 -999.25 1.566670 111.866670 203.333330
1.12 -999.25 1.60 113.60 193.333330
1.11 -999.25 1.633330 112.966670 183.333330
1.10 -999.25 1.666670 112.333330 168.333330
1.09 -999.25 1.70 111.70 153.333330
1.08 -999.25 1.70 115.40 164.444440
1.07 -999.25 1.70 119.10 175.555560
1.06 -999.25 1.633330 117.533330 186.666670
1.05 -999.25 1.566670 115.966670 180.0
1.04 -999.25 1.50 114.40 173.333330
1.03 -999.25 1.466670 114.90 166.666670
1.02 -999.25 1.433330 115.40 166.666670
1.01 -999.25 1.40 115.90 166.666670
1.00 -999.25 1.450 114.20 151.111110
0.99 -999.25 1.50 112.50 135.555560
0.98 -999.25 1.60 111.50 120.0
0.97 -999.25 1.70 110.50 132.222220
0.96 -999.25 1.50 108.20 144.444440
0.95 -999.25 -999.25 -999.25 156.666670
0.94 -999.25 -999.25 -999.25 145.0
0.93 -999.25 -999.25 -999.25 133.333330
0.92 -999.25 -999.25 -999.25 147.777780
0.91 -999.25 -999.25 -999.25 162.222220
0.90 -999.25 -999.25 -999.25 176.666670
0.89 -999.25 -999.25 -999.25 165.555560
0.88 -999.25 -999.25 -999.25 154.444440
0.87 -999.25 -999.25 -999.25 143.333330
0.86 -999.25 -999.25 -999.25 141.111110
0.85 -999.25 -999.25 -999.25 138.888890
0.84 -999.25 -999.25 -999.25 136.666670
0.83 -999.25 -999.25 -999.25 130.0
0.82 -999.25 -999.25 -999.25 123.333330
0.81 -999.25 -999.25 -999.25 130.609320
0.80 -999.25 -999.25 -999.25 137.88530
0.79 -999.25 -999.25 -999.25 145.161290
0.78 -999.25 -999.25 -999.25 160.913980
0.77 -999.25 -999.25 -999.25 176.666670
0.76 -999.25 -999.25 -999.25 163.333330
0.75 -999.25 -999.25 -999.25 150.0
0.74 -999.25 -999.25 -999.25 136.666670
0.73 -999.25 -999.25 -999.25 151.111110
0.72 -999.25 -999.25 -999.25 165.555560
0.71 -999.25 -999.25 -999.25 180.0
0.70 -999.25 -999.25 -999.25 165.555560
0.69 -999.25 -999.25 -999.25 151.111110
0.68 -999.25 -999.25 -999.25 136.666670
0.67 -999.25 -999.25 -999.25 140.0
0.66 -999.25 -999.25 -999.25 143.333330
0.65 -999.25 -999.25 -999.25 163.333330
0.64 -999.25 -999.25 -999.25 183.333330
0.63 -999.25 -999.25 -999.25 203.333330
0.62 -999.25 -999.25 -999.25 181.111110
0.61 -999.25 -999.25 -999.25 158.888890
0.60 -999.25 -999.25 -999.25 136.666670
0.59 -999.25 -999.25 -999.25 191.060610
0.58 -999.25 -999.25 -999.25 245.454550
0.57 -999.25 -999.25 -999.25 207.496010
0.56 -999.25 -999.25 -999.25 169.537480
0.55 -999.25 -999.25 -999.25 131.578950
0.54 -999.25 -999.25 -999.25 133.274850
0.53 -999.25 -999.25 -999.25 134.970760
0.52 -999.25 -999.25 -999.25 136.666670
0.51 -999.25 -999.25 -999.25 168.333330
0.50 -999.25 -999.25 -999.25 200.0
0.49 -999.25 -999.25 -999.25 179.365080
0.48 -999.25 -999.25 -999.25 158.730160
0.47 -999.25 -999.25 -999.25 138.095240
0.46 -999.25 -999.25 -999.25 129.100530
0.45 -999.25 -999.25 -999.25 120.105820
0.44 -999.25 -999.25 -999.25 111.111110
0.43 -999.25 -999.25 -999.25 126.29630
0.42 -999.25 -999.25 -999.25 141.481480
0.41 -999.25 -999.25 -999.25 156.666670
0.40 -999.25 -999.25 -999.25 131.666670
0.39 -999.25 -999.25 -999.25 106.666670
0.38 -999.25 -999.25 -999.25 130.0
