~VERSION INFORMATION SECTION
VERS. 2.0 : CWLS LAS-VERSION 2.0
WRAP. NO : One line per depth step
~WELL INFORMATION SECTION
# MNEM.UNIT VALUE/NAME DESCRIPTION
#-------- -------------- ---------------------
STRT.Metres 16 : Start
STOP.Metres 0.47 : Stop
STEP.Metres -0.01 : Step
NULL.  -999.25 :NULL VALUE
DATE. 2025-03-11 : DATE
~CURVE INFORMATION SECTION
DEPTH.Metres : 0 Depth
Depth. : 1 Depth
Incline.Deg : 2 Incline
Azimuth.Deg : 3 Azimuth
GR.CPS : 4 GR
~PARAMETER INFORMATION SECTION
~OTHER
#-------------------------------------------------
#Produced By: GeoVista Logger - Version 7.1.107.0
Natural Gamma Sonde - 6447
Verticality Sonde - 6292
#-------------------------------------------------
~ASCII LOG DATA
# ...
10.20 10.21580 5.420 103.560 148.888890
10.19 10.205870 5.380 103.040 146.111110
10.18 10.195940 5.340 102.520 143.333330
10.17 10.186460 5.30 102.0 154.444440
10.16 10.176980 5.266670 101.983330 165.555560
10.15 10.167490 5.233330 101.966670 176.666670
10.14 10.158010 5.20 101.950 187.777780
10.13 10.139050 5.166670 101.933330 198.888890
10.12 10.129570 5.133330 101.916670 210.0
10.11 10.120090 5.10 101.90 202.777780
10.10 10.110160 5.116670 102.033330 195.555560
10.09 10.100230 5.133330 102.166670 188.333330
10.08 10.090740 5.150 102.30 181.111110
10.07 10.081260 5.166670 102.433330 173.888890
10.06 10.071780 5.183330 102.566670 166.666670
10.05 10.06230 5.20 102.70 169.444440
10.04 10.052820 5.20 103.080 172.222220
10.03 10.043340 5.20 103.460 175.0
10.02 10.033860 5.20 103.840 177.777780
10.01 10.024380 5.20 104.220 180.555560
10.00 10.01490 5.20 104.60 183.333330
9.99 10.005420 5.20 104.083330 184.086020
9.98 9.996390 5.20 103.566670 184.838710
9.97 9.987360 5.20 103.050 185.59140
9.96 9.977880 5.20 102.533330 186.344090
9.95 9.96840 5.20 102.016670 187.096770
9.94 9.949440 5.20 101.50 180.913980
9.93 9.939950 5.20 101.466670 174.731180
9.92 9.930470 5.20 101.433330 168.548390
9.91 9.920990 5.20 101.40 162.365590
9.90 9.911510 5.20 101.366670 156.18280
9.89 9.902480 5.20 101.333330 150.0
9.88 9.893450 5.20 101.30 156.666670
9.87 9.883970 5.220 101.820 163.333330
9.86 9.874490 5.240 102.340 170.0
9.85 9.865010 5.260 102.860 176.666670
9.84 9.855530 5.280 103.380 183.333330
9.83 9.846050 5.30 103.90 190.0
9.82 9.836570 5.30 103.850 182.666670
9.81 9.827090 5.30 103.80 175.333330
9.80 9.817610 5.30 103.750 168.0
9.79 9.808130 5.30 103.70 160.666670
9.78 9.798650 5.30 103.650 153.333330
9.77 9.779680 5.30 103.60 155.0
9.76 9.770650 5.283330 103.250 156.666670
9.75 9.761630 5.266670 102.90 158.333330
9.74 9.752140 5.250 102.550 160.0
9.73 9.742660 5.233330 102.20 161.666670
9.72 9.733180 5.216670 101.850 163.333330
9.71 9.72370 5.20 101.50 160.555560
9.70 9.714220 5.183330 101.750 157.777780
9.69 9.704740 5.166670 102.0 155.0
9.68 9.695260 5.150 102.250 152.222220
9.67 9.685780 5.133330 102.50 149.444440
9.66 9.67630 5.116670 102.750 146.666670
9.65 9.666820 5.10 103.0 150.666670
9.64 9.657340 5.10 102.880 154.666670
9.63 9.647860 5.10 102.760 158.666670
9.62 9.638370 5.10 102.640 162.666670
9.61 9.628890 5.10 102.520 166.666670
9.60 9.609930 5.10 102.40 164.444440
9.59 9.60 5.116670 102.150 162.222220
9.58 9.590070 5.133330 101.90 160.0
9.57 9.580590 5.150 101.650 157.777780
9.56 9.571110 5.166670 101.40 155.555560
9.55 9.561630 5.183330 101.150 153.333330
9.54 9.552140 5.20 100.90 155.555560
9.53 9.542660 5.166670 101.416670 157.777780
9.52 9.533180 5.133330 101.933330 160.0
9.51 9.52370 5.10 102.450 162.222220
9.50 9.514220 5.066670 102.966670 164.444440
9.49 9.504740 5.033330 103.483330 166.666670
9.48 9.495260 5.0 104.0 173.333330
9.47 9.485780 5.020 104.30 180.0
9.46 9.47630 5.040 104.60 186.666670
9.45 9.466820 5.060 104.90 193.333330
9.44 9.457340 5.080 105.20 200.0
9.43 9.447860 5.10 105.50 194.444440
9.42 9.438370 5.083330 104.333330 188.888890
9.41 9.428890 5.066670 103.166670 183.333330
9.40 9.419410 5.050 102.0 177.777780
9.39 9.399550 5.033330 100.833330 172.222220
9.38 9.390070 5.016670 99.666670 166.666670
9.37 9.380590 5.0 98.50 167.222220
9.36 9.371110 5.0 99.780 167.777780
9.35 9.361630 5.0 101.060 168.333330
9.34 9.352140 5.0 102.340 168.888890
9.33 9.342660 5.0 103.620 169.444440
9.32 9.333180 5.0 104.90 170.0
9.31 9.32370 5.0 104.583330 171.666670
9.30 9.314220 5.0 104.266670 173.333330
9.29 9.304740 5.0 103.950 175.0
9.28 9.294810 5.0 103.633330 176.666670
9.27 9.284880 5.0 103.316670 178.333330
9.26 9.27540 5.0 103.0 180.0
9.25 9.265910 4.983330 102.366670 180.666670
9.24 9.256430 4.966670 101.733330 181.333330
9.23 9.246950 4.950 101.10 182.0
9.22 9.237470 4.933330 100.466670 182.666670
9.21 9.227990 4.916670 99.833330 183.333330
9.20 9.209030 4.90 99.20 178.888890
9.19 9.199550 4.90 100.40 174.444440
9.18 9.190070 4.90 101.60 170.0
9.17 9.180590 4.90 102.80 165.555560
9.16 9.171110 4.90 104.0 161.111110
9.15 9.161630 4.90 105.20 156.666670
9.14 9.152140 4.90 106.40 158.333330
9.13 9.143120 4.90 106.120 160.0
9.12 9.134090 4.90 105.840 161.666670
9.11 9.12460 4.90 105.560 163.333330
9.10 9.115120 4.90 105.280 165.0
9.09 9.105640 4.90 105.0 166.666670
9.08 9.096160 4.90 103.966670 160.666670
9.07 9.086680 4.90 102.933330 154.666670
9.06 9.07720 4.90 101.90 148.666670
9.05 9.059140 4.90 100.866670 142.666670
9.04 9.049660 4.90 99.833330 136.666670
9.03 9.040180 4.90 98.80 134.444440
9.02 9.031150 4.90 99.866670 132.222220
9.01 9.022120 4.90 100.933330 130.0
9.00 9.012640 4.90 102.0 127.777780
8.99 9.003160 4.90 103.066670 125.555560
8.98 8.994130 4.90 104.133330 123.333330
8.97 8.98510 4.90 105.20 130.555560
8.96 8.975620 4.883330 104.283330 137.777780
8.95 8.966140 4.866670 103.366670 145.0
8.94 8.957110 4.850 102.450 152.222220
8.93 8.948080 4.833330 101.533330 159.444440
8.92 8.929120 4.816670 100.616670 166.666670
8.91 8.920090 4.80 99.70 163.010750
8.90 8.911060 4.80 99.554550 159.354840
8.89 8.901580 4.80 99.409090 155.698920
8.88 8.89210 4.80 99.263640 152.043010
8.87 8.882620 4.80 99.118180 148.38710
8.86 8.873140 4.80 98.972730 150.322580
8.85 8.863660 4.80 98.827270 152.258060
8.84 8.854180 4.80 98.681820 154.193550
8.83 8.845150 4.80 98.536360 156.129030
8.82 8.836120 4.80 98.390910 158.064520
8.81 8.826640 4.80 98.245450 160.0
8.80 8.817160 4.80 98.10 160.0
8.79 8.807670 4.80 99.360 160.0
8.78 8.798190 4.80 100.620 160.0
8.77 8.779230 4.80 101.880 160.0
8.76 8.77020 4.80 103.140 160.0
8.75 8.761170 4.80 104.40 160.0
8.74 8.751690 4.80 103.833330 155.333330
8.73 8.742210 4.80 103.266670 150.666670
8.72 8.732730 4.80 102.70 146.0
8.71 8.723250 4.80 102.133330 141.333330
8.70 8.714220 4.80 101.566670 136.666670
8.69 8.705190 4.80 101.0 138.055560
8.68 8.695710 4.80 101.566670 139.444440
8.67 8.686230 4.80 102.133330 140.833330
8.66 8.676750 4.80 102.70 142.222220
8.65 8.667270 4.80 103.266670 143.611110
8.64 8.657790 4.80 103.833330 145.0
8.63 8.648310 4.80 104.40 145.833330
8.62 8.629350 4.80 103.220 146.666670
8.61 8.619860 4.80 102.040 147.50
8.60 8.610380 4.80 100.860 148.333330
8.59 8.60090 4.80 99.680 149.166670
8.58 8.591420 4.80 98.50 150.0
8.57 8.581940 4.80 98.866670 149.333330
8.56 8.572460 4.80 99.233330 148.666670
8.55 8.562980 4.80 99.60 148.0
8.54 8.55350 4.80 99.966670 147.333330
8.53 8.544020 4.80 100.333330 146.666670
8.52 8.534540 4.80 100.70 146.111110
8.51 8.52460 4.80 101.060 145.555560
8.50 8.514670 4.80 101.420 145.0
8.49 8.505190 4.80 101.780 144.444440
8.48 8.495710 4.80 102.140 143.888890
8.47 8.486230 4.80 102.50 143.333330
8.46 8.476750 4.80 101.80 152.222220
8.45 8.467270 4.80 101.10 161.111110
8.44 8.457790 4.80 100.40 170.0
8.43 8.448310 4.80 99.70 178.888890
8.42 8.438830 4.80 99.0 187.777780
8.41 8.419860 4.80 98.30 196.666670
8.40 8.410380 4.80 99.316670 193.888890
8.39 8.40090 4.80 100.333330 191.111110
8.38 8.391420 4.80 101.350 188.333330
8.37 8.381940 4.80 102.366670 185.555560
8.36 8.372460 4.80 103.383330 182.777780
8.35 8.362980 4.80 104.40 180.0
8.34 8.35350 4.80 104.140 176.666670
8.33 8.344020 4.80 103.880 173.333330
8.32 8.334090 4.80 103.620 170.0
8.31 8.324150 4.80 103.360 166.666670
8.30 8.314670 4.80 103.10 163.333330
8.29 8.305190 4.80 102.683330 162.777780
8.28 8.295710 4.80 102.266670 162.222220
8.27 8.286230 4.80 101.850 161.666670
8.26 8.27630 4.80 101.433330 161.111110
8.25 8.266370 4.80 101.016670 160.555560
8.24 8.256880 4.80 100.60 160.0
8.23 8.24740 4.80 100.545450 154.545450
8.22 8.237920 4.80 100.490910 149.090910
8.21 8.228440 4.80 100.436360 143.636360
8.20 8.209480 4.80 100.381820 138.181820
8.19 8.20 4.80 100.327270 132.727270
8.18 8.190520 4.80 100.272730 127.272730
8.17 8.181040 4.80 100.218180 135.502390
8.16 8.171560 4.80 100.163640 143.732060
8.15 8.162080 4.80 100.109090 151.961720
8.14 8.15260 4.80 100.054550 160.191390
8.13 8.143120 4.80 100.0 168.421050
