~VERSION INFORMATION SECTION
VERS. 2.0 : CWLS LAS-VERSION 2.0
WRAP. NO : One line per depth step
~WELL INFORMATION SECTION
# MNEM.UNIT VALUE/NAME DESCRIPTION
#-------- -------------- ---------------------
STRT.Metres 16 : Start
STOP.Metres 0.47 : Stop
STEP.Metres -0.01 : Step
NULL.  -999.25 :NULL VALUE
DATE. 2025-03-11 : DATE
~CURVE INFORMATION SECTION
DEPTH.Metres : 0 Depth
Depth. : 1 Depth
Incline.Deg : 2 Incline
Azimuth.Deg : 3 Azimuth
GR.CPS : 4 GR
~PARAMETER INFORMATION SECTION
~OTHER
#-------------------------------------------------
#Produced By: GeoVista Logger - Version 7.1.107.0
Natural Gamma Sonde - 6447
Verticality Sonde - 6292
#-------------------------------------------------
~ASCII LOG DATA
# ...
8.12 8.133630 4.80 100.183330 167.57310
8.11 8.12460 4.80 100.366670 166.725150
8.10 8.115580 4.80 100.550 165.877190
8.09 8.106090 4.80 100.733330 165.029240
8.08 8.096610 4.80 100.916670 164.181290
8.07 8.087130 4.80 101.10 163.333330
8.06 8.077650 4.816670 101.316670 164.0
8.05 8.068170 4.833330 101.533330 164.666670
8.04 8.058690 4.850 101.750 165.333330
8.03 8.039730 4.866670 101.966670 166.0
8.02 8.030250 4.883330 102.183330 166.666670
8.01 8.020770 4.90 102.40 166.111110
8.00 8.011740 4.883330 102.383330 165.555560
7.99 8.002710 4.866670 102.366670 165.0
7.98 7.993230 4.850 102.350 164.444440
7.97 7.983750 4.833330 102.333330 163.888890
7.96 7.974270 4.816670 102.316670 163.333330
7.95 7.964790 4.80 102.30 162.777780
7.94 7.955760 4.820 101.70 162.222220
7.93 7.946730 4.840 101.10 161.666670
7.92 7.937250 4.860 100.50 161.111110
7.91 7.927770 4.880 99.90 160.555560
7.90 7.918280 4.90 99.30 160.0
7.89 7.90880 4.883330 99.433330 163.23810
7.88 7.889840 4.866670 99.566670 166.476190
7.87 7.880360 4.850 99.70 169.714290
7.86 7.870880 4.833330 99.833330 172.952380
7.85 7.86140 4.816670 99.966670 176.190480
7.84 7.851920 4.80 100.10 176.82540
7.83 7.842440 4.80 100.133330 177.460320
7.82 7.832960 4.80 100.166670 178.095240
7.81 7.823930 4.80 100.20 178.730160
7.80 7.81490 4.80 100.233330 179.365080
7.79 7.805420 4.80 100.266670 180.0
7.78 7.795940 4.80 100.30 162.0
7.77 7.786460 4.80 100.360 144.0
7.76 7.776980 4.80 100.420 126.0
7.75 7.767490 4.80 100.480 108.0
7.74 7.758010 4.80 100.540 90.0
7.73 7.739050 4.80 100.60 106.111110
7.72 7.729570 4.783330 100.316670 122.222220
7.71 7.720090 4.766670 100.033330 138.333330
7.70 7.710610 4.750 99.750 154.444440
7.69 7.701130 4.733330 99.466670 170.555560
7.68 7.691650 4.716670 99.183330 186.666670
7.67 7.682170 4.70 98.90 183.888890
7.66 7.673140 4.70 99.250 181.111110
7.65 7.664110 4.70 99.60 178.333330
7.64 7.654630 4.70 99.950 175.555560
7.63 7.645150 4.70 100.30 172.777780
7.62 7.635210 4.70 100.650 170.0
7.61 7.625280 4.70 101.0 173.333330
7.60 7.61580 4.680 100.320 176.666670
7.59 7.606320 4.660 99.640 180.0
7.58 7.596840 4.640 98.960 183.333330
7.57 7.587360 4.620 98.280 186.666670
7.56 7.577880 4.60 97.60 190.0
7.55 7.56840 4.616670 98.150 182.0
7.54 7.549440 4.633330 98.70 174.0
7.53 7.539950 4.650 99.250 166.0
7.52 7.530470 4.666670 99.80 158.0
7.51 7.520990 4.683330 100.350 150.0
7.50 7.511510 4.70 100.90 149.166670
7.49 7.502480 4.70 101.033330 148.333330
7.48 7.493450 4.70 101.166670 147.50
7.47 7.483970 4.70 101.30 146.666670
7.46 7.474490 4.70 101.433330 145.833330
7.45 7.465010 4.70 101.566670 145.0
7.44 7.455530 4.70 101.70 143.611110
7.43 7.44560 4.663640 101.372730 142.222220
7.42 7.435670 4.627270 101.045450 140.833330
7.41 7.426190 4.590910 100.718180 139.444440
7.40 7.41670 4.554550 100.390910 138.055560
7.39 7.407220 4.518180 100.063640 136.666670
7.38 7.397740 4.481820 99.736360 145.333330
7.37 7.387810 4.445450 99.409090 154.0
7.36 7.377880 4.409090 99.081820 162.666670
7.35 7.36840 4.372730 98.754550 171.333330
7.34 7.358920 4.336360 98.427270 180.0
7.33 7.339950 4.30 98.10 177.777780
7.32 7.330470 4.333330 98.40 175.555560
7.31 7.320990 4.366670 98.70 173.333330
7.30 7.311510 4.40 99.0 171.111110
7.29 7.302030 4.433330 99.30 168.888890
7.28 7.292550 4.466670 99.60 166.666670
7.27 7.283070 4.50 99.90 168.888890
7.26 7.273590 4.520 99.840 171.111110
7.25 7.264110 4.540 99.780 173.333330
7.24 7.255080 4.560 99.720 175.555560
7.23 7.246050 4.580 99.660 177.777780
7.22 7.236570 4.60 99.60 180.0
7.21 7.227090 4.60 99.433330 176.666670
7.20 7.217610 4.60 99.266670 173.333330
7.19 7.208130 4.60 99.10 170.0
7.18 7.189160 4.60 98.933330 166.666670
7.17 7.180140 4.60 98.766670 163.333330
7.16 7.171110 4.60 98.60 156.666670
7.15 7.161630 4.583330 99.30 150.0
7.14 7.152140 4.566670 100.0 143.333330
7.13 7.142660 4.550 100.70 136.666670
7.12 7.133180 4.533330 101.40 130.0
7.11 7.12370 4.516670 102.10 123.333330
7.10 7.114220 4.50 102.80 130.555560
7.09 7.104740 4.50 103.120 137.777780
7.08 7.095260 4.50 103.440 145.0
7.07 7.085780 4.50 103.760 152.222220
7.06 7.07630 4.50 104.080 159.444440
7.05 7.066820 4.50 104.40 166.666670
7.04 7.057340 4.50 103.283330 160.666670
7.03 7.047860 4.50 102.166670 154.666670
7.02 7.038370 4.50 101.050 148.666670
7.01 7.019410 4.50 99.933330 142.666670
7.00 7.010380 4.50 98.816670 136.666670
6.99 7.001350 4.50 97.70 138.333330
6.98 6.991870 4.50 98.383330 140.0
6.97 6.982390 4.50 99.066670 141.666670
6.96 6.973360 4.50 99.750 143.333330
6.95 6.964330 4.50 100.433330 145.0
6.94 6.95530 4.50 101.116670 146.666670
6.93 6.946280 4.50 101.80 147.777780
6.92 6.936790 4.480 101.580 148.888890
6.91 6.927310 4.460 101.360 150.0
6.90 6.908350 4.440 101.140 151.111110
6.89 6.899320 4.420 100.920 152.222220
6.88 6.890290 4.40 100.70 153.333330
6.87 6.880810 4.40 100.333330 148.666670
6.86 6.871330 4.40 99.966670 144.0
6.85 6.861850 4.40 99.60 139.333330
6.84 6.852370 4.40 99.233330 134.666670
6.83 6.842890 4.40 98.866670 130.0
6.82 6.833410 4.40 98.50 133.888890
6.81 6.823930 4.40 99.083330 137.777780
6.80 6.814450 4.40 99.666670 141.666670
6.79 6.804970 4.40 100.250 145.555560
6.78 6.795490 4.40 100.833330 149.444440
6.77 6.786460 4.40 101.416670 153.333330
6.76 6.777430 4.40 102.0 151.433690
6.75 6.767950 4.40 102.340 149.534050
6.74 6.758470 4.40 102.680 147.634410
6.73 6.748530 4.40 103.020 145.734770
6.72 6.73860 4.40 103.360 143.835130
6.71 6.719640 4.40 103.70 141.935480
6.70 6.710160 4.416670 102.466670 146.881720
6.69 6.700680 4.433330 101.233330 151.827960
6.68 6.69120 4.450 100.0 156.774190
6.67 6.681720 4.466670 98.766670 161.720430
6.66 6.672230 4.483330 97.533330 166.666670
6.65 6.662750 4.50 96.30 166.111110
6.64 6.653270 4.50 97.320 165.555560
6.63 6.643790 4.50 98.340 165.0
6.62 6.634310 4.50 99.360 164.444440
6.61 6.624830 4.50 100.380 163.888890
6.60 6.615350 4.50 101.40 163.333330
6.59 6.605870 4.466670 100.883330 161.111110
6.58 6.596390 4.433330 100.366670 158.888890
6.57 6.586910 4.40 99.850 156.666670
6.56 6.577430 4.366670 99.333330 154.444440
6.55 6.567950 4.333330 98.816670 152.222220
6.54 6.558470 4.30 98.30 150.0
6.53 6.548980 4.316670 97.783330 153.333330
6.52 6.529120 4.333330 97.266670 156.666670
6.51 6.519640 4.350 96.750 160.0
6.50 6.510160 4.366670 96.233330 163.333330
6.49 6.500680 4.383330 95.716670 166.666670
6.48 6.49120 4.40 95.20 170.0
6.47 6.481720 4.40 96.350 163.333330
6.46 6.472230 4.40 97.50 156.666670
6.45 6.462750 4.40 98.650 150.0
6.44 6.453270 4.40 99.80 143.333330
6.43 6.443790 4.40 100.950 136.666670
6.42 6.434310 4.40 102.10 134.444440
6.41 6.424830 4.40 101.920 132.222220
6.40 6.415350 4.40 101.740 130.0
6.39 6.405870 4.40 101.560 127.777780
6.38 6.396390 4.40 101.380 125.555560
6.37 6.386910 4.40 101.20 123.333330
6.36 6.377430 4.40 100.950 127.222220
6.35 6.359370 4.40 100.70 131.111110
6.34 6.349890 4.40 100.450 135.0
6.33 6.340410 4.40 100.20 138.888890
6.32 6.330930 4.40 99.950 142.777780
6.31 6.321440 4.40 99.70 146.666670
6.30 6.311960 4.40 99.716670 157.333330
6.29 6.302480 4.40 99.733330 168.0
6.28 6.2930 4.40 99.750 178.666670
6.27 6.283520 4.40 99.766670 189.333330
6.26 6.274040 4.40 99.783330 200.0
6.25 6.264560 4.40 99.80 188.888890
6.24 6.255080 4.40 99.660 177.777780
6.23 6.24560 4.40 99.520 166.666670
6.22 6.236120 4.40 99.380 155.555560
6.21 6.226640 4.40 99.240 144.444440
6.20 6.217160 4.40 99.10 133.333330
6.19 6.207670 4.366670 98.533330 139.682540
6.18 6.198190 4.333330 97.966670 146.031750
6.17 6.188710 4.30 97.40 152.380950
6.16 6.169750 4.266670 96.833330 158.730160
6.15 6.160270 4.233330 96.266670 165.079370
6.14 6.150790 4.20 95.70 171.428570
6.13 6.141310 4.216670 96.333330 183.809520
6.12 6.131830 4.233330 96.966670 196.190480
6.11 6.122350 4.250 97.60 208.571430
6.10 6.112870 4.266670 98.233330 220.952380
6.09 6.103390 4.283330 98.866670 233.333330
6.08 6.093910 4.30 99.50 225.555560
6.07 6.084420 4.320 99.0 217.777780
6.06 6.074940 4.340 98.50 210.0
6.05 6.065460 4.360 98.0 202.222220
6.04 6.055980 4.380 97.50 194.444440
