~VERSION INFORMATION SECTION
VERS. 2.0 : CWLS LAS-VERSION 2.0
WRAP. NO : One line per depth step
~WELL INFORMATION SECTION
# MNEM.UNIT VALUE/NAME DESCRIPTION
#-------- -------------- ---------------------
STRT.Metres 16 : Start
STOP.Metres 0.47 : Stop
STEP.Metres -0.01 : Step
NULL.  -999.25 :NULL VALUE
DATE. 2025-03-11 : DATE
~CURVE INFORMATION SECTION
DEPTH.Metres : 0 Depth
Depth. : 1 Depth
Incline.Deg : 2 Incline
Azimuth.Deg : 3 Azimuth
GR.CPS : 4 GR
~PARAMETER INFORMATION SECTION
~OTHER
#-------------------------------------------------
#Produced By: GeoVista Logger - Version 7.1.107.0
Natural Gamma Sonde - 6447
Verticality Sonde - 6292
#-------------------------------------------------
~ASCII LOG DATA
16.00 -999.25 -999.25 -999.25 -999.25
15.99 16.0 -999.25 -999.25 -999.25
15.98 15.990070 -999.25 -999.25 -999.25
15.97 15.980140 1.266670 15.983330 -999.25
15.96 15.970650 2.533330 31.966670 -999.25
15.95 15.961170 3.80 47.950 -999.25
15.94 15.951240 5.066670 63.933330 -999.25
15.93 15.941310 6.333330 79.916670 -999.25
15.92 15.931380 7.60 95.90 -999.25
15.91 15.921440 7.550 95.733330 -999.25
15.90 15.911960 7.50 95.566670 -999.25
15.89 15.902480 7.450 95.40 -999.25
15.88 15.892550 7.40 95.233330 -999.25
15.87 15.882620 7.350 95.066670 -999.25
15.86 15.872690 7.30 94.90 -999.25
15.85 15.862750 7.30 95.183330 -999.25
15.84 15.853270 7.30 95.466670 -999.25
15.83 15.843790 7.30 95.750 -999.25
15.82 15.833860 7.30 96.033330 -999.25
15.81 15.823930 7.30 96.316670 -999.25
15.80 15.8140 7.30 96.60 -999.25
15.79 15.804060 7.333330 96.533330 -999.25
15.78 15.794580 7.366670 96.466670 -999.25
15.77 15.78510 7.40 96.40 -999.25
15.76 15.774720 7.433330 96.333330 -999.25
15.75 15.764330 7.466670 96.266670 -999.25
15.74 15.75440 7.50 96.20 -999.25
15.73 15.744470 7.460 96.220 -999.25
15.72 15.734090 7.420 96.240 -999.25
15.71 15.72370 7.380 96.260 -999.25
15.70 15.713320 7.340 96.280 -999.25
15.69 15.702930 7.30 96.30 -999.25
15.68 15.692550 7.30 96.133330 -999.25
15.67 15.682170 7.30 95.966670 -999.25
15.66 15.672230 7.30 95.80 65.501210
15.65 15.66230 7.30 95.633330 131.002430
15.64 15.652370 7.30 95.466670 137.334950
15.63 15.642440 7.30 95.30 143.667480
15.62 15.632050 7.30 95.433330 150.0
15.61 15.621670 7.30 95.566670 149.166670
15.60 15.611740 7.30 95.70 148.333330
15.59 15.601810 7.30 95.833330 147.50
15.58 15.591420 7.30 95.966670 146.666670
15.57 15.581040 7.30 96.10 144.666670
15.56 15.571110 7.233330 95.833330 142.666670
15.55 15.561170 7.166670 95.566670 140.666670
15.54 15.550790 7.10 95.30 138.666670
15.53 15.540410 7.033330 95.033330 136.666670
15.52 15.530470 6.966670 94.766670 135.555560
15.51 15.520540 6.90 94.50 134.444440
15.50 15.513920 6.933330 94.466670 133.333330
15.49 15.50730 6.966670 94.433330 132.222220
15.48 15.500680 7.0 94.40 131.111110
15.47 15.479910 7.033330 94.366670 130.0
15.46 15.469980 7.066670 94.333330 134.666670
15.45 15.460050 7.10 94.30 139.333330
15.44 15.450110 7.116670 94.916670 144.0
15.43 15.440180 7.133330 95.533330 148.666670
15.42 15.432510 7.150 96.150 153.333330
15.41 15.424830 7.166670 96.766670 153.333330
15.40 15.41490 7.183330 97.383330 153.333330
15.39 15.404970 7.20 98.0 153.333330
15.38 15.395490 7.183330 97.716670 153.333330
15.37 15.3860 7.166670 97.433330 153.333330
15.36 15.376070 7.150 97.150 153.333330
15.35 15.366140 7.133330 96.866670 158.333330
15.34 15.356210 7.116670 96.583330 163.333330
15.33 15.346280 7.10 96.30 168.333330
15.32 15.336790 7.10 96.633330 173.333330
15.31 15.327310 7.10 96.966670 178.333330
15.30 15.317380 7.10 97.30 183.333330
15.29 15.307450 7.10 97.633330 184.444440
15.28 15.297520 7.10 97.966670 185.555560
15.27 15.287580 7.10 98.30 186.666670
15.26 15.27810 7.10 98.016670 187.777780
15.25 15.268620 7.10 97.733330 188.888890
15.24 15.258690 7.10 97.450 190.0
15.23 15.248760 7.10 97.166670 191.111110
15.22 15.238830 7.10 96.883330 192.222220
15.21 15.228890 7.10 96.60 193.333330
15.20 15.209930 7.116670 96.741670 194.444440
15.19 15.20 7.133330 96.883330 195.555560
15.18 15.190070 7.150 97.0250 196.666670
15.17 15.180140 7.166670 97.166670 190.666670
15.16 15.17020 7.183330 97.308330 184.666670
15.15 15.160720 7.20 97.450 178.666670
15.14 15.151240 7.216670 97.591670 172.666670
15.13 15.141310 7.233330 97.733330 166.666670
15.12 15.131380 7.250 97.8750 166.666670
15.11 15.12190 7.266670 98.016670 166.666670
15.10 15.112420 7.283330 98.158330 166.666670
15.09 15.102480 7.30 98.30 166.666670
15.08 15.092550 7.283330 98.433330 166.666670
15.07 15.082620 7.266670 98.566670 166.666670
15.06 15.072690 7.250 98.70 161.111110
15.05 15.062750 7.233330 98.833330 155.555560
15.04 15.052820 7.216670 98.966670 150.0
15.03 15.043340 7.20 99.10 144.444440
15.02 15.033860 7.216670 98.966670 138.888890
15.01 15.023930 7.233330 98.833330 133.333330
15.00 15.0140 7.250 98.70 136.111110
14.99 15.004060 7.266670 98.566670 138.888890
14.98 14.994130 7.283330 98.433330 141.666670
14.97 14.98420 7.30 98.30 144.444440
14.96 14.974270 7.260 98.30 147.222220
14.95 14.964790 7.220 98.30 150.0
14.94 14.95530 7.180 98.30 153.888890
14.93 14.945370 7.140 98.30 157.777780
14.92 14.935440 7.10 98.30 161.666670
14.91 14.925960 7.10 98.566670 165.555560
14.90 14.916480 7.10 98.833330 169.444440
14.89 14.906550 7.10 99.10 173.333330
14.88 14.896610 7.10 99.366670 171.111110
14.87 14.886680 7.10 99.633330 168.888890
14.86 14.876750 7.10 99.90 166.666670
14.85 14.866370 7.050 99.116670 164.444440
14.84 14.855980 7.0 98.333330 162.222220
14.83 14.846050 6.950 97.550 160.0
14.82 14.836120 6.90 96.766670 156.111110
14.81 14.826190 6.850 95.983330 152.222220
14.80 14.816250 6.80 95.20 148.333330
14.79 14.806320 6.766670 95.466670 144.444440
14.78 14.796390 6.733330 95.733330 140.555560
14.77 14.7860 6.70 96.0 136.666670
14.76 14.775620 6.666670 96.266670 139.444440
14.75 14.765690 6.633330 96.533330 142.222220
14.74 14.755760 6.60 96.80 145.0
14.73 14.745370 6.633330 96.833330 147.777780
14.72 14.734990 6.666670 96.866670 150.555560
14.71 14.725060 6.70 96.90 153.333330
14.70 14.715120 6.733330 96.933330 156.666670
14.69 14.704740 6.766670 96.966670 160.0
14.68 14.694360 6.80 97.0 163.333330
14.67 14.684420 6.766670 96.883330 166.666670
14.66 14.674490 6.733330 96.766670 170.0
14.65 14.663660 6.70 96.650 173.333330
14.64 14.652820 6.666670 96.533330 167.777780
14.63 14.642440 6.633330 96.416670 162.222220
14.62 14.632050 6.60 96.30 156.666670
14.61 14.624830 6.616670 96.683330 151.111110
14.60 14.617610 6.633330 97.066670 145.555560
14.59 14.610380 6.650 97.450 140.0
14.58 14.60 6.666670 97.833330 138.709680
14.57 14.589620 6.683330 98.216670 137.419350
14.56 14.578780 6.70 98.60 136.129030
14.55 14.567950 6.683330 98.50 134.838710
14.54 14.557560 6.666670 98.40 133.548390
14.53 14.547180 6.650 98.30 132.258060
14.52 14.536790 6.633330 98.20 128.548390
14.51 14.526410 6.616670 98.10 124.838710
14.50 14.516030 6.60 98.0 121.129030
14.49 14.505640 6.583330 97.616670 117.419350
14.48 14.495260 6.566670 97.233330 113.709680
14.47 14.484880 6.550 96.850 110.0
14.46 14.474490 6.533330 96.466670 107.50
14.45 14.464110 6.516670 96.083330 105.0
14.44 14.453720 6.50 95.70 102.50
14.43 14.443340 6.483330 96.133330 100.0
14.42 14.433410 6.466670 96.566670 97.50
14.41 14.423480 6.450 97.0 95.0
14.40 14.413090 6.433330 97.433330 100.833330
14.39 14.402710 6.416670 97.866670 106.666670
14.38 14.392330 6.40 98.30 112.50
14.37 14.381940 6.416670 97.90 118.333330
14.36 14.371560 6.433330 97.50 124.166670
14.35 14.361170 6.450 97.10 130.0
14.34 14.354250 6.466670 96.70 130.0
14.33 14.347330 6.483330 96.30 130.0
14.32 14.340410 6.50 95.90 130.0
14.31 14.330020 6.542860 96.028570 130.0
14.30 14.319640 6.585710 96.157140 130.0
14.29 14.309710 6.628570 96.285710 130.0
14.28 14.299770 6.671430 96.414290 130.0
14.27 14.289390 6.714290 96.542860 130.0
14.26 14.279010 6.757140 96.671430 130.0
14.25 14.268620 6.80 96.80 130.0
14.24 14.258240 6.783330 97.383330 130.0
14.23 14.247860 6.766670 97.966670 130.555560
14.22 14.237470 6.750 98.550 131.111110
14.21 14.227090 6.733330 99.133330 131.666670
14.20 14.21670 6.716670 99.716670 132.222220
14.19 14.206320 6.70 100.30 132.777780
14.18 14.195940 6.60 99.866670 133.333330
14.17 14.185550 6.50 99.433330 137.222220
14.16 14.175170 6.40 99.0 141.111110
14.15 14.164790 6.30 98.566670 145.0
14.14 14.15440 6.20 98.133330 148.888890
14.13 14.144020 6.10 97.70 152.777780
14.12 14.133630 6.166670 97.483330 156.666670
14.11 14.123250 6.233330 97.266670 151.666670
14.10 14.112870 6.30 97.050 146.666670
14.09 14.102480 6.366670 96.833330 141.666670
14.08 14.09210 6.433330 96.616670 136.666670
14.07 14.081720 6.50 96.40 131.666670
14.06 14.071330 6.528570 96.642860 126.666670
14.05 14.064410 6.557140 96.885710 130.555560
