~VERSION INFORMATION SECTION
VERS. 2.0 : CWLS LAS-VERSION 2.0
WRAP. NO : One line per depth step
~WELL INFORMATION SECTION
# MNEM.UNIT VALUE/NAME DESCRIPTION
#-------- -------------- ---------------------
STRT.Metres 15 : Start
STOP.Metres 0.51 : Stop
STEP.Metres -0.01 : Step
NULL.  -999.25 :NULL VALUE
DATE. 2025-09-11 : DATE
~CURVE INFORMATION SECTION
DEPTH.Metres : 0 Depth
Depth. : 1 Depth
Incline.Deg : 2 Incline
Azimuth.Deg : 3 Azimuth
GR.CPS : 4 GR
~PARAMETER INFORMATION SECTION
~OTHER
#-------------------------------------------------
#Produced By: GeoVista Logger - Version 7.1.107.0
Natural Gamma Sonde - 6447
Verticality Sonde - 6292
#-------------------------------------------------
~ASCII LOG DATA
# ...
13.15 13.188940 5.738460 98.153850 130.0
13.14 13.178330 5.730770 97.823080 129.523810
13.13 13.167950 5.723080 97.492310 129.047620
13.12 13.157560 5.715380 97.161540 128.571430
13.11 13.147180 5.707690 96.830770 128.095240
13.10 13.136790 5.70 96.50 127.619050
13.09 13.127090 5.676920 95.961540 127.142860
13.08 13.117380 5.653850 95.423080 126.666670
13.07 13.107670 5.630770 94.884620 132.051280
13.06 13.097970 5.607690 94.346150 137.43590
13.05 13.087130 5.584620 93.807690 142.820510
13.04 13.07630 5.561540 93.269230 148.205130
13.03 13.065460 5.538460 92.730770 153.589740
13.02 13.054630 5.515380 92.192310 158.974360
13.01 13.046320 5.492310 91.653850 164.358970
13.00 13.038010 5.469230 91.115380 169.743590
12.99 13.029710 5.446150 90.576920 175.128210
12.98 13.02140 5.423080 90.038460 180.512820
12.97 13.013090 5.40 89.50 185.897440
12.96 13.002030 5.407690 90.084620 191.282050
12.95 12.990970 5.415380 90.669230 196.666670
12.94 12.979910 5.423080 91.253850 192.820510
12.93 12.968850 5.430770 91.838460 188.974360
12.92 12.958240 5.438460 92.423080 185.128210
12.91 12.947630 5.446150 93.007690 181.282050
12.90 12.937020 5.453850 93.592310 177.43590
12.89 12.926410 5.461540 94.176920 173.589740
12.88 12.917920 5.469230 94.761540 169.743590
12.87 12.909440 5.476920 95.346150 165.897440
12.86 12.900950 5.484620 95.930770 162.051280
12.85 12.892460 5.492310 96.515380 158.205130
12.84 12.883970 5.50 97.10 154.358970
12.83 12.872910 5.491670 96.850 150.512820
12.82 12.861850 5.483330 96.60 146.666670
12.81 12.850790 5.4750 96.350 145.174830
12.80 12.839730 5.466670 96.10 143.682980
12.79 12.829120 5.458330 95.850 142.191140
12.78 12.818510 5.450 95.60 140.69930
12.77 12.80790 5.441670 95.350 139.207460
12.76 12.797290 5.433330 95.10 137.715620
12.75 12.786680 5.4250 94.850 136.223780
12.74 12.776070 5.416670 94.60 134.731930
12.73 12.765460 5.408330 94.350 133.240090
12.72 12.754850 5.40 94.10 131.748250
12.71 12.7460 5.423080 94.076920 130.256410
12.70 12.737160 5.446150 94.053850 128.764570
12.69 12.728310 5.469230 94.030770 127.272730
12.68 12.719460 5.492310 94.007690 128.008830
12.67 12.710610 5.515380 93.984620 128.744940
12.66 12.700230 5.538460 93.961540 129.481050
12.65 12.689840 5.561540 93.938460 130.217150
12.64 12.679460 5.584620 93.915380 130.953260
12.63 12.669070 5.607690 93.892310 131.689360
12.62 12.658690 5.630770 93.869230 132.425470
12.61 12.648310 5.653850 93.846150 133.161580
12.60 12.637920 5.676920 93.823080 133.897680
12.59 12.627540 5.70 93.80 134.633790
12.58 12.61670 5.70 94.223080 135.369890
12.57 12.605870 5.70 94.646150 136.1060
12.56 12.595030 5.70 95.069230 136.842110
12.55 12.58420 5.70 95.492310 134.777330
12.54 12.573810 5.70 95.915380 132.712550
12.53 12.563430 5.70 96.338460 130.647770
12.52 12.553050 5.70 96.761540 128.5830
12.51 12.542660 5.70 97.184620 126.518220
12.50 12.534360 5.70 97.607690 124.453440
12.49 12.526050 5.70 98.030770 122.388660
12.48 12.517740 5.70 98.453850 120.323890
12.47 12.509440 5.70 98.876920 118.259110
12.46 12.501130 5.70 99.30 116.194330
12.45 12.490290 5.661540 99.276920 114.129550
12.44 12.479460 5.623080 99.253850 112.064780
12.43 12.468620 5.584620 99.230770 110.0
12.42 12.457790 5.546150 99.207690 112.56410
12.41 12.447180 5.507690 99.184620 115.128210
12.40 12.436570 5.469230 99.161540 117.692310
12.39 12.425960 5.430770 99.138460 120.256410
12.38 12.415350 5.392310 99.115380 122.820510
12.37 12.406860 5.353850 99.092310 125.384620
12.36 12.398370 5.315380 99.069230 127.948720
12.35 12.389890 5.276920 99.046150 130.512820
12.34 12.38140 5.238460 99.023080 133.076920
12.33 12.372910 5.20 99.0 135.641030
12.32 12.36140 5.2750 99.066670 138.205130
12.31 12.349890 5.350 99.133330 140.769230
12.30 12.338370 5.4250 99.20 143.333330
12.29 12.326860 5.50 99.266670 145.367380
12.28 12.31670 5.5750 99.333330 147.401430
12.27 12.306550 5.650 99.40 149.435480
12.26 12.296390 5.7250 99.466670 151.469530
12.25 12.286230 5.80 99.533330 153.503580
12.24 12.275850 5.8750 99.60 155.537630
12.23 12.265460 5.950 99.666670 157.571680
12.22 12.255080 6.0250 99.733330 159.605730
12.21 12.24470 6.10 99.80 161.639780
12.20 12.235850 6.076920 99.646150 163.673840
12.19 12.2270 6.053850 99.492310 165.707890
12.18 12.218150 6.030770 99.338460 167.741940
12.17 12.20930 6.007690 99.184620 163.813070
12.16 12.200450 5.984620 99.030770 159.88420
12.15 12.189840 5.961540 98.876920 155.955330
12.14 12.179230 5.938460 98.723080 152.026470
12.13 12.168620 5.915380 98.569230 148.09760
12.12 12.158010 5.892310 98.415380 144.168730
12.11 12.147860 5.869230 98.261540 140.239870
12.10 12.13770 5.846150 98.107690 136.3110
12.09 12.127540 5.823080 97.953850 132.382130
12.08 12.117380 5.80 97.80 128.453270
12.07 12.106320 5.730770 97.930770 124.52440
12.06 12.095260 5.661540 98.061540 120.595530
12.05 12.08420 5.592310 98.192310 116.666670
12.04 12.073140 5.523080 98.323080 117.179490
12.03 12.064650 5.453850 98.453850 117.692310
12.02 12.056160 5.384620 98.584620 118.205130
12.01 12.047670 5.315380 98.715380 118.717950
12.00 12.039190 5.246150 98.846150 119.230770
11.99 12.03070 5.176920 98.976920 119.743590
11.98 12.020320 5.107690 99.107690 120.256410
11.97 12.009930 5.038460 99.238460 120.769230
11.96 11.999550 4.969230 99.369230 121.282050
11.95 11.989160 4.90 99.50 121.794870
11.94 11.97810 4.90 99.130770 122.307690
11.93 11.967040 4.90 98.761540 122.820510
11.92 11.955980 4.90 98.392310 123.333330
11.91 11.944920 4.90 98.023080 125.384620
11.90 11.934310 4.90 97.653850 127.43590
11.89 11.92370 4.90 97.284620 129.487180
11.88 11.913090 4.90 96.915380 131.538460
11.87 11.902480 4.90 96.546150 133.589740
11.86 11.894180 4.90 96.176920 135.641030
11.85 11.885870 4.90 95.807690 137.692310
11.84 11.877560 4.90 95.438460 139.743590
11.83 11.869260 4.90 95.069230 141.794870
11.82 11.860950 4.90 94.70 143.846150
11.81 11.849890 4.969230 95.276920 145.897440
11.80 11.838830 5.038460 95.853850 147.948720
11.79 11.827770 5.107690 96.430770 150.0
11.78 11.81670 5.176920 97.007690 146.666670
11.77 11.806320 5.246150 97.584620 143.333330
11.76 11.795940 5.315380 98.161540 140.0
11.75 11.785550 5.384620 98.738460 136.666670
11.74 11.775170 5.453850 99.315380 133.333330
11.73 11.764790 5.523080 99.892310 130.0
11.72 11.75440 5.592310 100.469230 126.666670
11.71 11.744020 5.661540 101.046150 123.333330
11.70 11.733630 5.730770 101.623080 120.0
11.69 11.724970 5.80 102.20 116.666670
11.68 11.71630 5.808330 102.3750 113.333330
11.67 11.707630 5.816670 102.550 110.0
11.66 11.698960 5.8250 102.7250 111.282050
11.65 11.690290 5.833330 102.90 112.56410
11.64 11.679680 5.841670 103.0750 113.846150
11.63 11.669070 5.850 103.250 115.128210
11.62 11.658470 5.858330 103.4250 116.410260
11.61 11.647860 5.866670 103.60 117.692310
11.60 11.63770 5.8750 103.7750 118.974360
11.59 11.627540 5.883330 103.950 120.256410
11.58 11.617380 5.891670 104.1250 121.538460
11.57 11.607220 5.90 104.30 122.820510
11.56 11.596160 5.869230 104.276920 124.102560
11.55 11.58510 5.838460 104.253850 125.384620
11.54 11.574040 5.807690 104.230770 126.666670
11.53 11.562980 5.776920 104.207690 127.692310
11.52 11.55260 5.746150 104.184620 128.717950
11.51 11.542210 5.715380 104.161540 129.743590
11.50 11.531830 5.684620 104.138460 130.769230
11.49 11.521440 5.653850 104.115380 131.794870
11.48 11.513320 5.623080 104.092310 132.820510
11.47 11.505190 5.592310 104.069230 133.846150
11.46 11.497070 5.561540 104.046150 134.871790
11.45 11.488940 5.530770 104.023080 135.897440
11.44 11.480810 5.50 104.0 136.923080
11.43 11.469750 5.484620 103.638460 137.948720
11.42 11.458690 5.469230 103.276920 138.974360
11.41 11.447630 5.453850 102.915380 140.0
11.40 11.436570 5.438460 102.553850 143.589740
11.39 11.426190 5.423080 102.192310 147.179490
11.38 11.41580 5.407690 101.830770 150.769230
11.37 11.405420 5.392310 101.469230 154.358970
11.36 11.395030 5.376920 101.107690 157.948720
11.35 11.384880 5.361540 100.746150 161.538460
11.34 11.374720 5.346150 100.384620 165.128210
11.33 11.364560 5.330770 100.023080 168.717950
