~VERSION INFORMATION SECTION
VERS. 2.0 : CWLS LAS-VERSION 2.0
WRAP. NO : One line per depth step
~WELL INFORMATION SECTION
# MNEM.UNIT VALUE/NAME DESCRIPTION
#-------- -------------- ---------------------
STRT.Metres 17 : Start
STOP.Metres 0.38 : Stop
STEP.Metres -0.01 : Step
NULL.  -999.25 :NULL VALUE
DATE. 2025-57-11 : DATE
~CURVE INFORMATION SECTION
DEPTH.Metres : 0 Depth
Depth. : 1 Depth
Incline.Deg : 2 Incline
Azimuth.Deg : 3 Azimuth
GR.CPS : 4 GR
~PARAMETER INFORMATION SECTION
~OTHER
#-------------------------------------------------
#Produced By: GeoVista Logger - Version 7.1.107.0
Natural Gamma Sonde - 6447
Verticality Sonde - 6292
#-------------------------------------------------
~ASCII LOG DATA
# ...
6.59 6.595030 4.50 95.10 160.0
6.58 6.5860 4.466670 97.30 173.333330
6.57 6.576980 4.433330 99.50 186.666670
6.56 6.567950 4.40 101.70 174.444440
6.55 6.55530 4.40 100.80 162.222220
6.54 6.541760 4.40 99.90 150.0
6.53 6.532730 4.433330 99.033330 178.333330
6.52 6.52460 4.466670 98.166670 206.666670
6.51 6.515580 4.50 97.30 196.666670
6.50 6.506550 4.466670 98.833330 186.666670
6.49 6.497520 4.433330 100.366670 176.666670
6.48 6.484880 4.40 101.90 177.777780
6.47 6.471330 4.450 100.050 178.888890
6.46 6.46230 4.50 98.20 180.0
6.45 6.453270 4.50 98.766670 153.333330
6.44 6.444240 4.50 99.333330 126.666670
6.43 6.436120 4.50 99.90 127.777780
6.42 6.427090 4.50 99.650 128.888890
6.41 6.418060 4.50 99.40 130.0
6.40 6.404970 4.466670 100.333330 127.777780
6.39 6.391870 4.433330 101.266670 125.555560
6.38 6.382840 4.40 102.20 123.333330
6.37 6.374720 4.433330 100.766670 131.666670
6.36 6.365690 4.466670 99.333330 140.0
6.35 6.356660 4.50 97.90 157.777780
6.34 6.347630 4.50 97.80 175.555560
6.33 6.334540 4.50 97.70 193.333330
6.32 6.321440 4.466670 98.70 194.480290
6.31 6.312420 4.433330 99.70 195.627240
6.30 6.304290 4.40 100.70 196.774190
6.29 6.295260 4.40 99.60 176.720430
6.28 6.286230 4.40 98.50 156.666670
6.27 6.27810 4.40 97.40 165.555560
6.26 6.264560 4.40 98.50 174.444440
6.25 6.251920 4.40 99.60 183.333330
6.24 6.242890 4.40 99.733330 181.666670
6.23 6.233860 4.40 99.866670 180.0
6.22 6.225730 4.40 100.0 180.0
6.21 6.21670 4.40 99.433330 180.0
6.20 6.208580 4.40 98.866670 180.0
6.19 6.195030 4.40 98.30 167.777780
6.18 6.181490 4.40 98.30 155.555560
6.17 6.173360 4.40 98.30 143.333330
6.16 6.164330 4.40 98.90 138.333330
6.15 6.15530 4.40 99.50 133.333330
6.14 6.146280 4.40 100.10 134.444440
6.13 6.138150 4.40 99.50 135.555560
6.12 6.12460 4.40 98.90 136.666670
6.11 6.111960 4.40 98.30 132.222220
6.10 6.102930 4.40 99.150 127.777780
6.09 6.093910 4.40 100.0 123.333330
6.08 6.084880 4.40 99.866670 143.333330
6.07 6.076750 4.40 99.733330 163.333330
6.06 6.067720 4.40 99.60 161.111110
6.05 6.054630 4.40 99.450 158.888890
6.04 6.041530 4.40 99.30 156.666670
6.03 6.032510 4.40 98.266670 183.333330
6.02 6.024380 4.40 97.233330 210.0
6.01 6.015350 4.40 96.20 195.555560
6.00 6.006320 4.40 98.166670 181.111110
5.99 5.997290 4.40 100.133330 166.666670
5.98 5.984650 4.40 102.10 156.666670
5.97 5.971110 4.30 101.80 146.666670
5.96 5.962980 4.20 101.50 142.222220
5.95 5.953950 4.233330 99.633330 137.777780
5.94 5.944920 4.266670 97.766670 133.333330
5.93 5.935890 4.30 95.90 131.111110
5.92 5.927770 4.30 96.833330 128.888890
5.91 5.918740 4.30 97.766670 126.666670
5.90 5.905190 4.30 98.70 140.0
5.89 5.891650 4.250 99.850 153.333330
5.88 5.883520 4.20 101.0 166.666670
5.87 5.874490 4.20 99.966670 180.0
5.86 5.865460 4.20 98.933330 193.333330
5.85 5.856430 4.20 97.90 185.0
5.84 5.848310 4.250 97.30 176.666670
5.83 5.835210 4.30 96.70 174.767030
5.82 5.822120 4.266670 97.966670 172.867380
5.81 5.813090 4.233330 99.233330 170.967740
5.80 5.804970 4.20 100.50 167.311830
5.79 5.795940 4.20 99.266670 163.655910
5.78 5.787810 4.20 98.033330 160.0
5.77 5.778780 4.20 96.80 157.777780
5.76 5.765690 4.250 96.10 155.555560
5.75 5.75260 4.30 95.40 153.333330
5.74 5.744470 4.30 97.233330 151.666670
5.73 5.735440 4.30 99.066670 150.0
5.72 5.726410 4.30 100.90 146.666670
5.71 5.718280 4.266670 100.466670 143.333330
5.70 5.704740 4.233330 100.033330 140.0
5.69 5.69210 4.20 99.60 145.0
5.68 5.683070 4.250 98.150 150.0
5.67 5.674940 4.30 96.70 148.888890
5.66 5.665910 4.30 97.266670 147.777780
5.65 5.656880 4.30 97.833330 146.666670
5.64 5.648760 4.30 98.40 147.777780
5.63 5.635210 4.266670 98.766670 148.888890
5.62 5.621670 4.233330 99.133330 150.0
5.61 5.613540 4.20 99.50 156.666670
5.60 5.604510 4.20 97.850 163.333330
5.59 5.595490 4.20 96.20 162.222220
5.58 5.586460 4.20 96.50 161.111110
5.57 5.577430 4.20 96.80 160.0
5.56 5.564790 4.20 97.10 156.666670
5.55 5.551240 4.150 97.050 153.333330
5.54 5.542210 4.10 97.0 150.0
5.53 5.533180 4.10 96.90 131.666670
5.52 5.524150 4.10 96.80 113.333330
5.51 5.516030 4.10 96.70 131.111110
5.50 5.5070 4.133330 96.60 148.888890
5.49 5.497970 4.166670 96.50 166.666670
5.48 5.484880 4.20 96.40 151.111110
5.47 5.471780 4.0 96.10 135.555560
5.46 5.462750 3.80 95.80 120.0
5.45 5.453720 3.866670 96.366670 131.666670
5.44 5.44560 3.933330 96.933330 143.333330
5.43 5.436570 4.0 97.50 143.333330
5.42 5.427540 4.050 97.550 143.333330
5.41 5.414450 4.10 97.60 143.333330
5.40 5.401350 4.10 97.866670 155.0
5.39 5.392330 4.10 98.133330 166.666670
5.38 5.38420 4.10 98.40 163.333330
5.37 5.375170 4.066670 97.80 160.0
5.36 5.367040 4.033330 97.20 156.666670
5.35 5.358010 4.0 96.60 162.222220
5.34 5.344920 4.0 95.70 167.777780
5.33 5.331830 4.0 94.80 173.333330
5.32 5.32280 3.966670 96.666670 167.311830
5.31 5.314670 3.933330 98.533330 161.290320
5.30 5.305640 3.90 100.40 161.971330
5.29 5.296610 3.933330 99.50 162.652330
5.28 5.288490 3.966670 98.60 163.333330
5.27 5.274940 4.0 97.70 156.666670
5.26 5.26230 4.0 96.40 150.0
5.25 5.253270 4.0 95.10 143.333330
5.24 5.244240 4.0 95.90 155.0
5.23 5.236120 4.0 96.70 166.666670
5.22 5.227090 4.0 97.50 162.222220
5.21 5.218060 3.966670 97.166670 157.777780
5.20 5.205420 3.933330 96.833330 153.333330
5.19 5.192780 3.90 96.50 163.333330
5.18 5.183750 3.950 96.650 173.333330
5.17 5.174720 4.0 96.80 162.222220
5.16 5.166590 3.966670 97.50 151.111110
5.15 5.157560 3.933330 98.20 140.0
5.14 5.144470 3.90 98.90 137.777780
5.13 5.131380 3.90 98.40 135.555560
5.12 5.122350 3.90 97.90 133.333330
5.11 5.114220 3.90 97.166670 145.0
5.10 5.105190 3.90 96.433330 156.666670
5.09 5.096160 3.90 95.70 155.555560
5.08 5.087130 3.90 96.10 154.444440
5.07 5.079010 3.90 96.50 153.333330
5.06 5.065460 3.90 96.90 157.777780
5.05 5.051920 3.90 98.70 162.222220
5.04 5.043790 3.90 100.50 166.666670
5.03 5.034760 3.90 98.70 156.666670
5.02 5.025730 3.90 96.90 146.666670
5.01 5.01670 3.90 95.10 150.0
5.00 5.008580 3.90 96.20 153.333330
4.99 4.995030 3.90 97.30 156.666670
4.98 4.981490 3.90 98.40 157.777780
4.97 4.972460 3.90 96.20 158.888890
4.96 4.964330 3.90 94.0 160.0
4.95 4.95530 3.866670 95.033330 163.333330
4.94 4.946280 3.833330 96.066670 166.666670
4.93 4.937250 3.80 97.10 157.777780
4.92 4.92460 3.80 97.150 148.888890
4.91 4.911060 3.80 97.20 140.0
4.90 4.902030 3.80 97.40 150.0
4.89 4.893910 3.80 97.60 160.0
4.88 4.884880 3.80 97.80 143.333330
4.87 4.875850 3.80 97.833330 126.666670
4.86 4.866820 3.80 97.866670 110.0
4.85 4.857790 3.80 97.90 117.777780
4.84 4.845150 3.850 96.40 125.555560
4.83 4.83160 3.90 94.90 133.333330
4.82 4.822570 3.866670 96.033330 145.698920
4.81 4.813540 3.833330 97.166670 158.064520
4.80 4.804510 3.80 98.30 146.487460
4.79 4.795490 3.750 99.20 134.910390
4.78 4.786460 3.70 100.10 123.333330
4.77 4.778330 3.733330 98.033330 133.333330
4.76 4.764790 3.766670 95.966670 143.333330
4.75 4.751240 3.80 93.90 138.888890
4.74 4.743120 3.80 94.90 134.444440
4.73 4.734090 3.80 95.90 130.0
4.72 4.725060 3.80 96.90 142.222220
4.71 4.716030 3.80 96.750 154.444440
4.70 4.7070 3.80 96.60 166.666670
4.69 4.698870 3.80 96.40 168.333330
4.68 4.685330 3.80 96.20 170.0
4.67 4.671780 3.80 96.0 152.222220
4.66 4.663660 3.80 95.433330 134.444440
4.65 4.654630 3.80 94.866670 116.666670
4.64 4.64560 3.80 94.30 133.333330
4.63 4.637470 3.80 94.90 150.0
4.62 4.624380 3.80 95.50 166.666670
4.61 4.611290 3.633330 95.0 169.696970
4.60 4.603160 3.466670 94.50 172.727270
4.59 4.594130 3.30 94.0 171.291870
4.58 4.5860 3.40 94.533330 169.856460
4.57 4.576980 3.50 95.066670 168.421050
4.56 4.567950 3.60 95.60 154.502920
4.55 4.55530 3.650 96.750 140.58480
4.54 4.541760 3.70 97.90 126.666670
4.53 4.533630 3.70 98.033330 128.333330
4.52 4.52460 3.70 98.166670 130.0
4.51 4.515580 3.70 98.30 131.111110
4.50 4.507450 3.70 96.133330 132.222220
4.49 4.498420 3.70 93.966670 133.333330
4.48 4.485330 3.70 91.80 135.0
4.47 4.472230 3.70 95.10 136.666670
4.46 4.463210 3.70 98.40 141.111110
4.45 4.455080 3.70 96.60 145.555560
4.44 4.446050 3.70 94.80 150.0
