~VERSION INFORMATION SECTION
VERS. 2.0 : CWLS LAS-VERSION 2.0
WRAP. NO : One line per depth step
~WELL INFORMATION SECTION
# MNEM.UNIT VALUE/NAME DESCRIPTION
#-------- -------------- ---------------------
STRT.Metres 15 : Start
STOP.Metres 0.43 : Stop
STEP.Metres -0.01 : Step
NULL.  -999.25 :NULL VALUE
DATE. 2025-07-11 : DATE
~CURVE INFORMATION SECTION
DEPTH.Metres : 0 Depth
Depth. : 1 Depth
Incline.Deg : 2 Incline
Azimuth.Deg : 3 Azimuth
GR.CPS : 4 GR
~PARAMETER INFORMATION SECTION
~OTHER
#-------------------------------------------------
#Produced By: GeoVista Logger - Version 7.1.107.0
Natural Gamma Sonde - 6447
Verticality Sonde - 6292
#-------------------------------------------------
~ASCII LOG DATA
# ...
5.16 5.181940 3.70 96.142860 147.142860
5.15 5.173810 3.70 96.085710 148.571430
5.14 5.161630 3.70 96.028570 150.0
5.13 5.149440 3.70 95.971430 150.833330
5.12 5.141010 3.70 95.914290 151.666670
5.11 5.132580 3.70 95.857140 152.50
5.10 5.124150 3.70 95.80 153.333330
5.09 5.111960 3.70 96.728570 154.166670
5.08 5.099770 3.70 97.657140 155.0
5.07 5.087130 3.70 98.585710 155.833330
5.06 5.074490 3.70 99.514290 156.666670
5.05 5.066370 3.70 100.442860 160.0
5.04 5.058240 3.70 101.371430 163.333330
5.03 5.050110 3.70 102.30 166.666670
5.02 5.037920 3.68750 101.30 170.0
5.01 5.025730 3.6750 100.30 173.333330
5.00 5.017310 3.66250 99.30 176.666670
4.99 5.008880 3.650 98.30 180.0
4.98 5.000450 3.63750 97.30 182.380950
4.97 4.988260 3.6250 96.30 184.76190
4.96 4.976070 3.61250 95.30 187.142860
4.95 4.967950 3.60 94.30 189.523810
4.94 4.959820 3.60 94.528570 191.904760
4.93 4.951690 3.60 94.757140 194.285710
4.92 4.93860 3.60 94.985710 196.666670
4.91 4.925510 3.60 95.214290 190.535710
4.90 4.917380 3.60 95.442860 184.404760
4.89 4.909260 3.60 95.671430 178.273810
4.88 4.901130 3.60 95.90 172.142860
4.87 4.888490 3.60 96.28750 166.01190
4.86 4.875850 3.60 96.6750 159.880950
4.85 4.867420 3.60 97.06250 153.750
4.84 4.858990 3.60 97.450 147.619050
4.83 4.850560 3.60 97.83750 145.578230
4.82 4.838370 3.60 98.2250 143.537410
4.81 4.826190 3.60 98.61250 141.49660
4.80 4.817760 3.60 99.0 139.455780
4.79 4.809330 3.614290 98.771430 137.414970
4.78 4.80090 3.628570 98.542860 135.374150
4.77 4.788710 3.642860 98.314290 133.333330
4.76 4.776520 3.657140 98.085710 136.666670
4.75 4.76810 3.671430 97.857140 140.0
4.74 4.759670 3.685710 97.628570 143.333330
4.73 4.751240 3.70 97.40 146.666670
4.72 4.739050 3.642860 97.271430 150.0
4.71 4.726860 3.585710 97.142860 153.333330
4.70 4.718740 3.528570 97.014290 156.666670
4.69 4.710610 3.471430 96.885710 160.0
4.68 4.702480 3.414290 96.757140 161.904760
4.67 4.690290 3.357140 96.628570 163.809520
4.66 4.67810 3.30 96.50 165.714290
4.65 4.669980 3.30 96.7750 167.619050
4.64 4.661850 3.30 97.050 169.523810
4.63 4.653720 3.30 97.3250 171.428570
4.62 4.641530 3.30 97.60 173.333330
4.61 4.629350 3.30 97.8750 172.50
4.60 4.617160 3.30 98.150 171.666670
4.59 4.604970 3.30 98.4250 170.833330
4.58 4.596840 3.30 98.70 170.0
4.57 4.588710 3.271430 97.871430 169.166670
4.56 4.580590 3.242860 97.042860 168.333330
4.55 4.567950 3.214290 96.214290 167.50
4.54 4.55530 3.185710 95.385710 166.666670
4.53 4.547480 3.157140 94.557140 163.809520
4.52 4.539650 3.128570 93.728570 160.952380
4.51 4.531830 3.10 92.90 158.095240
4.50 4.519640 3.0750 93.3750 155.23810
4.49 4.507450 3.050 93.850 152.380950
4.48 4.499020 3.0250 94.3250 149.523810
4.47 4.490590 3.0 94.80 146.666670
4.46 4.482170 2.9750 95.2750 142.857140
4.45 4.469980 2.950 95.750 139.047620
4.44 4.457790 2.9250 96.2250 135.23810
4.43 4.449660 2.90 96.70 131.428570
4.42 4.441530 2.857140 96.142860 127.619050
4.41 4.433410 2.814290 95.585710 123.809520
4.40 4.421220 2.771430 95.028570 120.0
4.39 4.409030 2.728570 94.471430 122.916670
4.38 4.396840 2.685710 93.914290 125.833330
4.37 4.384650 2.642860 93.357140 128.750
4.36 4.376520 2.60 92.80 131.666670
4.35 4.36840 2.714290 93.057140 134.583330
4.34 4.360270 2.828570 93.314290 137.50
4.33 4.347630 2.942860 93.571430 140.416670
4.32 4.334990 3.057140 93.828570 143.333330
4.31 4.326860 3.171430 94.085710 145.23810
4.30 4.318740 3.285710 94.342860 147.142860
4.29 4.310610 3.40 94.60 149.047620
4.28 4.298420 3.450 94.7750 150.952380
4.27 4.286230 3.50 94.950 152.857140
4.26 4.27810 3.550 95.1250 154.76190
4.25 4.269980 3.60 95.30 156.666670
4.24 4.261850 3.650 95.4750 153.809520
4.23 4.249660 3.70 95.650 150.952380
4.22 4.237470 3.750 95.8250 148.095240
4.21 4.229040 3.80 96.0 145.23810
4.20 4.220620 3.80 95.857140 142.380950
4.19 4.212190 3.80 95.714290 139.523810
4.18 4.20 3.80 95.571430 136.666670
4.17 4.187810 3.80 95.428570 140.0
4.16 4.179680 3.80 95.285710 143.333330
4.15 4.171560 3.80 95.142860 146.666670
4.14 4.163430 3.80 95.0 150.0
4.13 4.151240 3.785710 95.657140 153.333330
4.12 4.139050 3.771430 96.314290 156.666670
4.11 4.130620 3.757140 96.971430 160.0
4.10 4.12220 3.742860 97.628570 163.333330
4.09 4.113770 3.728570 98.285710 166.666670
4.08 4.101580 3.714290 98.942860 170.0
4.07 4.089390 3.70 99.60 173.333330
4.06 4.080960 3.70 98.8750 176.666670
4.05 4.072540 3.70 98.150 180.0
4.04 4.064110 3.70 97.4250 183.333330
4.03 4.051020 3.70 96.70 186.666670
4.02 4.037920 3.70 95.9750 181.881720
4.01 4.02950 3.70 95.250 177.096770
4.00 4.021070 3.70 94.5250 172.311830
3.99 4.012640 3.70 93.80 167.526880
3.98 4.0 3.70 93.914290 162.741940
3.97 3.987360 3.70 94.028570 157.956990
3.96 3.978930 3.70 94.142860 153.172040
3.95 3.97050 3.70 94.257140 148.38710
3.94 3.962080 3.70 94.371430 148.617510
3.93 3.949440 3.70 94.485710 148.847930
3.92 3.936790 3.70 94.60 149.078340
3.91 3.928370 3.70 94.63750 149.308760
3.90 3.919940 3.70 94.6750 149.539170
3.89 3.911510 3.70 94.71250 149.769590
3.88 3.898420 3.70 94.750 150.0
3.87 3.885330 3.70 94.78750 138.750
3.86 3.87690 3.70 94.8250 127.50
3.85 3.868470 3.70 94.86250 116.250
3.84 3.860050 3.70 94.90 105.0
3.83 3.851620 3.685710 94.90 93.750
3.82 3.843190 3.671430 94.90 82.50
3.81 3.834760 3.657140 94.90 71.250
3.80 3.821670 3.642860 94.90 60.0
3.79 3.808580 3.628570 94.90 76.190480
3.78 3.800150 3.614290 94.90 92.380950
3.77 3.791720 3.60 94.90 108.571430
3.76 3.78330 3.61250 94.7750 124.76190
3.75 3.770650 3.6250 94.650 140.952380
3.74 3.758010 3.63750 94.5250 157.142860
3.73 3.749590 3.650 94.40 173.333330
3.72 3.741160 3.66250 94.2750 166.666670
3.71 3.732730 3.6750 94.150 160.0
3.70 3.720090 3.68750 94.0250 153.333330
3.69 3.707450 3.70 93.90 146.666670
3.68 3.699020 3.70 93.842860 140.0
3.67 3.690590 3.70 93.785710 133.333330
3.66 3.682170 3.70 93.728570 126.666670
3.65 3.669070 3.70 93.671430 129.583330
3.64 3.655980 3.70 93.614290 132.50
3.63 3.647860 3.70 93.557140 135.416670
3.62 3.639730 3.70 93.50 138.333330
3.61 3.63160 3.70 93.43750 141.250
3.60 3.619410 3.70 93.3750 144.166670
3.59 3.607220 3.70 93.31250 147.083330
3.58 3.59880 3.70 93.250 150.0
3.57 3.590370 3.70 93.18750 146.666670
3.56 3.581940 3.70 93.1250 143.333330
3.55 3.569750 3.70 93.06250 140.0
3.54 3.557560 3.70 93.0 136.666670
3.53 3.549440 3.71250 93.33750 133.333330
3.52 3.541310 3.7250 93.6750 130.0
3.51 3.533180 3.73750 94.01250 126.666670
3.50 3.520990 3.750 94.350 124.76190
3.49 3.50880 3.76250 94.68750 122.857140
3.48 3.500380 3.7750 95.0250 120.952380
3.47 3.491950 3.78750 95.36250 119.047620
3.46 3.483520 3.80 95.70 117.142860
3.45 3.471330 3.742860 96.0 115.23810
3.44 3.459140 3.685710 96.30 113.333330
3.43 3.450710 3.628570 96.60 118.750
3.42 3.442290 3.571430 96.90 124.166670
3.41 3.433860 3.514290 97.20 129.583330
3.40 3.421670 3.457140 97.50 135.0
3.39 3.409480 3.40 97.80 140.416670
3.38 3.401050 3.38750 96.20 145.833330
3.37 3.392630 3.3750 94.60 151.250
3.36 3.38420 3.36250 93.0 156.666670
3.35 3.371560 3.350 91.40 158.095240
3.34 3.358920 3.33750 89.80 159.523810
3.33 3.350490 3.3250 88.20 160.952380
3.32 3.342060 3.31250 86.60 162.380950
3.31 3.333630 3.30 85.0 163.809520
3.30 3.321440 3.328570 86.20 165.23810
3.29 3.309260 3.357140 87.40 166.666670
3.28 3.300530 3.385710 88.60 166.666670
3.27 3.29180 3.414290 89.80 166.666670
3.26 3.283070 3.442860 91.0 166.666670
3.25 3.270880 3.471430 92.20 166.666670
3.24 3.258690 3.50 93.40 166.666670
3.23 3.250260 3.50 93.78750 166.666670
3.22 3.241840 3.50 94.1750 166.666670
3.21 3.233410 3.50 94.56250 166.666670
3.20 3.220770 3.50 94.950 170.0
3.19 3.208130 3.50 95.33750 173.333330
3.18 3.19970 3.50 95.7250 176.666670
3.17 3.191270 3.50 96.11250 180.0
3.16 3.182840 3.50 96.50 183.333330
3.15 3.170650 3.357140 95.228570 186.666670
3.14 3.158470 3.214290 93.957140 190.0
3.13 3.149740 3.071430 92.685710 182.50
3.12 3.141010 2.928570 91.414290 175.0
3.11 3.132280 2.785710 90.142860 167.50
3.10 3.119640 2.642860 88.871430 160.0
3.09 3.1070 2.50 87.60 152.50
3.08 3.098570 2.58750 88.150 145.0
