~VERSION INFORMATION SECTION
VERS. 2.0 : CWLS LAS-VERSION 2.0
WRAP. NO : One line per depth step
~WELL INFORMATION SECTION
# MNEM.UNIT VALUE/NAME DESCRIPTION
#-------- -------------- ---------------------
STRT.Metres 17 : Start
STOP.Metres 0.38 : Stop
STEP.Metres -0.01 : Step
NULL.  -999.25 :NULL VALUE
DATE. 2025-57-11 : DATE
~CURVE INFORMATION SECTION
DEPTH.Metres : 0 Depth
Depth. : 1 Depth
Incline.Deg : 2 Incline
Azimuth.Deg : 3 Azimuth
GR.CPS : 4 GR
~PARAMETER INFORMATION SECTION
~OTHER
#-------------------------------------------------
#Produced By: GeoVista Logger - Version 7.1.107.0
Natural Gamma Sonde - 6447
Verticality Sonde - 6292
#-------------------------------------------------
~ASCII LOG DATA
# ...
8.75 8.753950 4.90 100.90 154.444440
8.74 8.744920 4.866670 101.966670 155.555560
8.73 8.736790 4.833330 103.033330 156.666670
8.72 8.727770 4.80 104.10 145.0
8.71 8.714670 4.80 103.533330 133.333330
8.70 8.701580 4.80 102.966670 126.666670
8.69 8.693450 4.80 102.40 120.0
8.68 8.684420 4.80 102.10 113.333330
8.67 8.67540 4.80 101.80 130.0
8.66 8.666370 4.80 102.533330 146.666670
8.65 8.658240 4.80 103.266670 163.333330
8.64 8.64470 4.80 104.0 185.0
8.63 8.632050 4.80 102.0 206.666670
8.62 8.623020 4.80 100.0 192.222220
8.61 8.6140 4.80 99.966670 177.777780
8.60 8.605870 4.80 99.933330 163.333330
8.59 8.596840 4.80 99.90 165.555560
8.58 8.587810 4.80 101.333330 167.777780
8.57 8.575170 4.80 102.766670 170.0
8.56 8.561630 4.80 104.20 148.333330
8.55 8.55350 4.80 103.0 126.666670
8.54 8.544470 4.80 101.80 141.111110
8.53 8.535440 4.80 101.833330 155.555560
8.52 8.526410 4.80 101.866670 170.0
8.51 8.518280 4.80 101.90 166.666670
8.50 8.504740 4.80 101.450 163.333330
8.49 8.49120 4.80 101.0 160.0
8.48 8.482170 4.80 101.133330 163.333330
8.47 8.474040 4.80 101.266670 166.666670
8.46 8.465010 4.80 101.40 164.444440
8.45 8.455980 4.80 101.366670 162.222220
8.44 8.446950 4.80 101.333330 160.0
8.43 8.437920 4.80 101.30 156.666670
8.42 8.428890 4.80 101.30 153.333330
8.41 8.415350 4.80 101.30 150.0
8.40 8.401810 4.80 101.433330 146.666670
8.39 8.393680 4.80 101.566670 143.333330
8.38 8.384650 4.80 101.70 136.666670
8.37 8.375620 4.80 101.766670 130.0
8.36 8.366590 4.80 101.833330 123.333330
8.35 8.357560 4.80 101.90 132.222220
8.34 8.344920 4.80 101.550 141.111110
8.33 8.331380 4.80 101.20 150.0
8.32 8.322350 4.80 101.40 145.967740
8.31 8.313320 4.80 101.60 141.935480
8.30 8.304290 4.80 101.80 137.956990
8.29 8.296160 4.80 101.40 133.978490
8.28 8.287130 4.80 101.0 130.0
8.27 8.27810 4.80 100.933330 145.0
8.26 8.264560 4.80 100.866670 160.0
8.25 8.251020 4.80 100.80 174.444440
8.24 8.241990 4.80 100.90 188.888890
8.23 8.233860 4.80 101.0 203.333330
8.22 8.224830 4.80 101.10 204.444440
8.21 8.21580 4.80 101.350 205.555560
8.20 8.206770 4.80 101.60 206.666670
8.19 8.197740 4.80 101.066670 156.666670
8.18 8.18510 4.80 100.533330 106.666670
8.17 8.171560 4.80 100.0 127.777780
8.16 8.162530 4.80 99.966670 148.888890
8.15 8.15350 4.80 99.933330 170.0
8.14 8.145370 4.80 99.90 171.111110
8.13 8.136340 4.80 100.0 172.222220
8.12 8.127310 4.80 100.10 173.333330
8.11 8.118280 4.80 100.533330 183.333330
8.10 8.105190 4.80 100.966670 193.333330
8.09 8.09210 4.80 101.40 173.333330
8.08 8.083070 4.80 100.50 153.333330
8.07 8.074940 4.80 99.60 133.333330
8.06 8.065910 4.80 98.70 131.111110
8.05 8.056880 4.80 100.050 128.888890
8.04 8.048760 4.80 101.40 126.666670
8.03 8.035210 4.80 101.40 126.666670
8.02 8.022570 4.80 101.40 126.666670
8.01 8.013540 4.80 101.40 151.111110
8.00 8.004510 4.80 100.433330 175.555560
7.99 7.996390 4.80 99.466670 200.0
7.98 7.987360 4.80 98.50 176.666670
7.97 7.974270 4.850 99.60 153.333330
7.96 7.961170 4.90 100.70 164.444440
7.95 7.952140 4.90 100.40 175.555560
7.94 7.944020 4.90 100.10 186.666670
7.93 7.934990 4.90 99.80 190.0
7.92 7.925960 4.90 99.70 193.333330
7.91 7.917830 4.90 99.60 196.666670
7.90 7.90880 4.90 99.50 210.0
7.89 7.895710 4.90 99.750 223.333330
7.88 7.882620 4.90 100.0 198.888890
7.87 7.873590 4.90 99.766670 174.444440
7.86 7.865460 4.90 99.533330 150.0
7.85 7.856430 4.90 99.30 153.333330
7.84 7.848310 4.866670 99.466670 156.666670
7.83 7.834760 4.833330 99.633330 156.057350
7.82 7.822120 4.80 99.80 155.448030
7.81 7.813090 4.80 100.050 154.838710
7.80 7.804060 4.80 100.30 146.559140
7.79 7.795940 4.80 100.40 138.279570
7.78 7.786910 4.80 100.50 130.0
7.77 7.777880 4.80 100.60 150.0
7.76 7.765240 4.80 100.466670 170.0
7.75 7.751690 4.80 100.333330 168.888890
7.74 7.743570 4.80 100.20 167.777780
7.73 7.734540 4.80 99.650 166.666670
7.72 7.725510 4.80 99.10 165.0
7.71 7.716480 4.80 99.366670 163.333330
7.70 7.708350 4.80 99.633330 167.777780
7.69 7.695260 4.80 99.90 172.222220
7.68 7.682170 4.750 99.450 176.666670
7.67 7.673140 4.70 99.0 161.111110
7.66 7.664110 4.733330 98.966670 145.555560
7.65 7.655980 4.766670 98.933330 130.0
7.64 7.646950 4.80 98.90 138.333330
7.63 7.637920 4.80 99.90 146.666670
7.62 7.625280 4.80 100.90 142.222220
7.61 7.611740 4.80 101.90 137.777780
7.60 7.603610 4.80 100.250 133.333330
7.59 7.594580 4.80 98.60 151.111110
7.58 7.585550 4.80 99.60 168.888890
7.57 7.576520 4.80 100.60 186.666670
7.56 7.56840 4.80 101.60 178.333330
7.55 7.554850 4.80 101.350 170.0
7.54 7.541310 4.80 101.10 156.666670
7.53 7.532280 4.80 100.566670 143.333330
7.52 7.523250 4.80 100.033330 130.0
7.51 7.515120 4.80 99.50 138.888890
7.50 7.506090 4.80 100.433330 147.777780
7.49 7.497070 4.80 101.366670 156.666670
7.48 7.488040 4.80 102.30 156.666670
7.47 7.47540 4.750 101.550 156.666670
7.46 7.461850 4.70 100.80 153.333330
7.45 7.453720 4.733330 100.133330 150.0
7.44 7.44470 4.766670 99.466670 146.666670
7.43 7.435670 4.80 98.80 151.111110
7.42 7.426640 4.766670 100.033330 155.555560
7.41 7.418510 4.733330 101.266670 160.0
7.40 7.404970 4.70 102.50 170.0
7.39 7.391420 4.70 101.650 180.0
7.38 7.38330 4.70 100.80 164.444440
7.37 7.374270 4.70 100.30 148.888890
7.36 7.365240 4.70 99.80 133.333330
7.35 7.356210 4.70 99.30 145.555560
7.34 7.347180 4.70 99.650 157.777780
7.33 7.338150 4.70 100.0 170.0
7.32 7.32460 4.70 100.233330 139.838710
7.31 7.311060 4.70 100.466670 109.677420
7.30 7.302930 4.70 100.70 120.896060
7.29 7.293910 4.666670 100.60 132.11470
7.28 7.284880 4.633330 100.50 143.333330
7.27 7.275850 4.60 100.40 142.222220
7.26 7.266820 4.650 100.50 141.111110
7.25 7.257790 4.70 100.60 140.0
7.24 7.245150 4.70 100.70 153.333330
7.23 7.23160 4.70 100.80 166.666670
7.22 7.222570 4.70 100.90 160.0
7.21 7.213540 4.666670 101.20 153.333330
7.20 7.205420 4.633330 101.50 146.666670
7.19 7.196390 4.60 101.80 163.333330
7.18 7.187360 4.60 101.850 180.0
7.17 7.174720 4.60 101.90 196.666670
7.16 7.161170 4.60 101.833330 170.0
7.15 7.153050 4.60 101.766670 143.333330
7.14 7.144020 4.60 101.70 160.0
7.13 7.134990 4.60 102.20 176.666670
7.12 7.126860 4.60 102.70 193.333330
7.11 7.117830 4.60 103.20 173.333330
7.10 7.104740 4.60 102.150 153.333330
7.09 7.091650 4.60 101.10 162.222220
7.08 7.082620 4.60 101.733330 171.111110
7.07 7.073590 4.60 102.366670 180.0
7.06 7.065460 4.60 103.0 184.444440
7.05 7.056430 4.566670 101.733330 188.888890
7.04 7.04740 4.533330 100.466670 193.333330
7.03 7.034310 4.50 99.20 156.666670
7.02 7.021220 4.50 100.30 120.0
7.01 7.012190 4.50 101.40 132.222220
7.00 7.004060 4.50 101.50 144.444440
6.99 6.995030 4.50 101.60 156.666670
6.98 6.9860 4.50 101.70 163.17460
6.97 6.977880 4.50 101.333330 169.682540
6.96 6.968850 4.50 100.966670 176.190480
6.95 6.955760 4.50 100.60 160.317460
6.94 6.942660 4.50 100.050 144.444440
6.93 6.934540 4.50 99.50 156.29630
6.92 6.925510 4.466670 100.033330 168.148150
6.91 6.917380 4.433330 100.566670 180.0
6.90 6.904290 4.40 101.10 144.76190
6.89 6.89120 4.40 100.30 109.523810
6.88 6.883070 4.40 99.50 117.460320
6.87 6.874040 4.40 99.333330 125.396830
6.86 6.865910 4.40 99.166670 133.333330
6.85 6.856880 4.40 99.0 137.777780
6.84 6.848760 4.40 99.70 142.222220
6.83 6.835670 4.40 100.40 146.666670
6.82 6.822570 4.40 101.10 170.107530
6.81 6.814450 4.40 100.350 193.548390
6.80 6.805420 4.40 99.60 182.365590
6.79 6.796390 4.40 100.166670 171.18280
6.78 6.788260 4.40 100.733330 160.0
6.77 6.774720 4.40 101.30 146.666670
6.76 6.762080 4.40 100.70 133.333330
6.75 6.753050 4.40 100.10 146.666670
6.74 6.744020 4.40 99.50 160.0
6.73 6.735890 4.40 100.20 173.333330
6.72 6.726860 4.40 100.90 155.555560
6.71 6.717830 4.40 100.80 137.777780
6.70 6.705190 4.40 100.70 120.0
6.69 6.691650 4.40 100.60 150.0
6.68 6.683520 4.450 98.80 180.0
6.67 6.674490 4.50 97.0 182.222220
6.66 6.665460 4.50 98.466670 184.444440
6.65 6.656430 4.50 99.933330 186.666670
6.64 6.64740 4.50 101.40 190.0
6.63 6.638370 4.50 100.20 193.333330
6.62 6.625280 4.50 99.0 196.666670
6.61 6.612190 4.50 97.80 171.666670
6.60 6.603160 4.50 96.450 146.666670
