~VERSION INFORMATION SECTION
VERS. 2.0 : CWLS LAS-VERSION 2.0
WRAP. NO : One line per depth step
~WELL INFORMATION SECTION
# MNEM.UNIT VALUE/NAME DESCRIPTION
#-------- -------------- ---------------------
STRT.Metres 15 : Start
STOP.Metres 0.43 : Stop
STEP.Metres -0.01 : Step
NULL.  -999.25 :NULL VALUE
DATE. 2025-07-11 : DATE
~CURVE INFORMATION SECTION
DEPTH.Metres : 0 Depth
Depth. : 1 Depth
Incline.Deg : 2 Incline
Azimuth.Deg : 3 Azimuth
GR.CPS : 4 GR
~PARAMETER INFORMATION SECTION
~OTHER
#-------------------------------------------------
#Produced By: GeoVista Logger - Version 7.1.107.0
Natural Gamma Sonde - 6447
Verticality Sonde - 6292
#-------------------------------------------------
~ASCII LOG DATA
# ...
11.13 11.151240 5.614290 103.242860 159.583330
11.12 11.143120 5.628570 103.385710 160.833330
11.11 11.130930 5.642860 103.528570 162.083330
11.10 11.118740 5.657140 103.671430 163.333330
11.09 11.110310 5.671430 103.814290 160.476190
11.08 11.101880 5.685710 103.957140 157.619050
11.07 11.093450 5.70 104.10 154.76190
11.06 11.081260 5.70 103.80 151.904760
11.05 11.069070 5.70 103.50 149.047620
11.04 11.060650 5.70 103.20 146.190480
11.03 11.052220 5.70 102.90 143.333330
11.02 11.043790 5.70 102.60 149.585250
11.01 11.03160 5.70 102.30 155.837170
11.00 11.019410 5.70 102.0 162.089090
10.99 11.007220 5.70 102.11250 168.341010
10.98 10.995030 5.70 102.2250 174.592930
10.97 10.986910 5.70 102.33750 180.844850
10.96 10.978780 5.70 102.450 187.096770
10.95 10.970650 5.70 102.56250 179.959680
10.94 10.958010 5.70 102.6750 172.822580
10.93 10.945370 5.70 102.78750 165.685480
10.92 10.937250 5.70 102.90 158.548390
10.91 10.929120 5.671430 102.814290 151.411290
10.90 10.920990 5.642860 102.728570 144.274190
10.89 10.908350 5.614290 102.642860 137.13710
10.88 10.895710 5.585710 102.557140 130.0
10.87 10.887580 5.557140 102.471430 130.476190
10.86 10.879460 5.528570 102.385710 130.952380
10.85 10.871330 5.50 102.30 131.428570
10.84 10.859140 5.450 102.38750 131.904760
10.83 10.846950 5.40 102.4750 132.380950
10.82 10.838830 5.350 102.56250 132.857140
10.81 10.83070 5.30 102.650 133.333330
10.80 10.822570 5.250 102.73750 134.166670
10.79 10.810380 5.20 102.8250 135.0
10.78 10.798190 5.150 102.91250 135.833330
10.77 10.790070 5.10 103.0 136.666670
10.76 10.781940 5.114290 103.10 137.50
10.75 10.773810 5.128570 103.20 138.333330
10.74 10.761630 5.142860 103.30 139.166670
10.73 10.749440 5.157140 103.40 140.0
10.72 10.737250 5.171430 103.50 137.142860
10.71 10.725060 5.185710 103.60 134.285710
10.70 10.716930 5.20 103.70 131.428570
10.69 10.70880 5.226670 103.713330 128.571430
10.68 10.700680 5.253330 103.726670 125.714290
10.67 10.688490 5.280 103.740 122.857140
10.66 10.67630 5.306670 103.753330 120.0
10.65 10.668170 5.333330 103.766670 126.190480
10.64 10.660050 5.360 103.780 132.380950
10.63 10.651920 5.386670 103.793330 138.571430
10.62 10.639280 5.413330 103.806670 144.76190
10.61 10.626640 5.440 103.820 150.952380
10.60 10.618510 5.466670 103.833330 157.142860
10.59 10.610380 5.493330 103.846670 163.333330
10.58 10.602260 5.520 103.860 155.416670
10.57 10.590070 5.546670 103.873330 147.50
10.56 10.577880 5.573330 103.886670 139.583330
10.55 10.569750 5.60 103.90 131.666670
10.54 10.561630 5.571430 103.614290 123.750
10.53 10.55350 5.542860 103.328570 115.833330
10.52 10.541310 5.514290 103.042860 107.916670
10.51 10.529120 5.485710 102.757140 100.0
10.50 10.516930 5.457140 102.471430 109.022560
10.49 10.504740 5.428570 102.185710 118.045110
10.48 10.496610 5.40 101.90 127.067670
10.47 10.488490 5.371430 101.971430 136.090230
10.46 10.480360 5.342860 102.042860 145.112780
10.45 10.467720 5.314290 102.114290 154.135340
10.44 10.455080 5.285710 102.185710 163.157890
10.43 10.446950 5.257140 102.257140 162.230580
10.42 10.438830 5.228570 102.328570 161.303260
10.41 10.43070 5.20 102.40 160.375940
10.40 10.418510 5.21250 101.9750 159.448620
10.39 10.406320 5.2250 101.550 158.52130
10.38 10.398190 5.23750 101.1250 157.593980
10.37 10.390070 5.250 100.70 156.666670
10.36 10.381940 5.26250 100.2750 155.416670
10.35 10.36930 5.2750 99.850 154.166670
10.34 10.356660 5.28750 99.4250 152.916670
10.33 10.348530 5.30 99.0 151.666670
10.32 10.340410 5.314290 99.814290 150.416670
10.31 10.332280 5.328570 100.628570 149.166670
10.30 10.319640 5.342860 101.442860 147.916670
10.29 10.3070 5.357140 102.257140 146.666670
10.28 10.298870 5.371430 103.071430 151.428570
10.27 10.290740 5.385710 103.885710 156.190480
10.26 10.282620 5.40 104.70 160.952380
10.25 10.270430 5.40 104.842860 165.714290
10.24 10.258240 5.40 104.985710 170.476190
10.23 10.250110 5.40 105.128570 175.23810
10.22 10.241990 5.40 105.271430 180.0
10.21 10.233860 5.40 105.414290 178.333330
10.20 10.221670 5.40 105.557140 176.666670
10.19 10.209480 5.40 105.70 175.0
10.18 10.201050 5.40 105.03750 173.333330
10.17 10.192630 5.40 104.3750 171.666670
10.16 10.18420 5.40 103.71250 170.0
10.15 10.172010 5.40 103.050 168.333330
10.14 10.159820 5.40 102.38750 166.666670
10.13 10.147180 5.40 101.7250 161.904760
10.12 10.134540 5.40 101.06250 157.142860
10.11 10.126410 5.40 100.40 152.380950
10.10 10.118280 5.328570 100.385710 147.619050
10.09 10.110160 5.257140 100.371430 142.857140
10.08 10.097970 5.185710 100.357140 138.095240
10.07 10.085780 5.114290 100.342860 133.333330
10.06 10.077650 5.042860 100.328570 136.190480
10.05 10.069530 4.971430 100.314290 139.047620
10.04 10.06140 4.90 100.30 141.904760
10.03 10.048760 4.90 100.31250 144.76190
10.02 10.036120 4.90 100.3250 147.619050
10.01 10.027990 4.90 100.33750 150.476190
10.00 10.019860 4.90 100.350 153.333330
9.99 10.011740 4.90 100.36250 158.03030
9.98 9.999550 4.90 100.3750 162.727270
9.97 9.987360 4.90 100.38750 167.424240
9.96 9.979230 4.90 100.40 172.121210
9.95 9.971110 4.942860 100.50 176.818180
9.94 9.962980 4.985710 100.60 181.515150
9.93 9.950790 5.028570 100.70 186.212120
9.92 9.93860 5.071430 100.80 190.909090
9.91 9.930470 5.114290 100.90 186.944630
9.90 9.922350 5.157140 101.0 182.980180
9.89 9.914220 5.20 101.10 179.015720
9.88 9.902030 5.214290 101.385710 175.051260
9.87 9.889840 5.228570 101.671430 171.086810
9.86 9.877650 5.242860 101.957140 167.122350
9.85 9.865460 5.257140 102.242860 163.157890
9.84 9.857640 5.271430 102.528570 157.944860
9.83 9.849810 5.285710 102.814290 152.731830
9.82 9.841990 5.30 103.10 147.51880
9.81 9.829350 5.23750 103.06250 142.305760
9.80 9.81670 5.1750 103.0250 137.092730
9.79 9.808580 5.11250 102.98750 131.87970
9.78 9.800450 5.050 102.950 126.666670
9.77 9.792330 4.98750 102.91250 130.833330
9.76 9.780140 4.9250 102.8750 135.0
9.75 9.767950 4.86250 102.83750 139.166670
9.74 9.759820 4.80 102.80 143.333330
9.73 9.751690 4.857140 102.70 147.50
9.72 9.743570 4.914290 102.60 151.666670
9.71 9.731380 4.971430 102.50 155.833330
9.70 9.719190 5.028570 102.40 160.0
9.69 9.7070 5.085710 102.30 165.714290
9.68 9.694810 5.142860 102.20 171.428570
9.67 9.686680 5.20 102.10 177.142860
9.66 9.678560 5.185710 102.185710 182.857140
9.65 9.670430 5.171430 102.271430 188.571430
9.64 9.658240 5.157140 102.357140 194.285710
9.63 9.646050 5.142860 102.442860 200.0
9.62 9.637920 5.128570 102.528570 197.695850
9.61 9.62980 5.114290 102.614290 195.391710
9.60 9.621670 5.10 102.70 193.087560
9.59 9.609480 5.10 102.83750 190.783410
9.58 9.597290 5.10 102.9750 188.479260
9.57 9.589160 5.10 103.11250 186.175120
9.56 9.581040 5.10 103.250 183.870970
9.55 9.572910 5.10 103.38750 178.38710
9.54 9.560270 5.10 103.5250 172.903230
9.53 9.547630 5.10 103.66250 167.419350
9.52 9.53950 5.10 103.80 161.935480
9.51 9.531380 5.071430 103.485710 156.451610
9.50 9.523250 5.042860 103.171430 150.967740
9.49 9.511060 5.014290 102.857140 145.483870
9.48 9.498870 4.985710 102.542860 140.0
9.47 9.490740 4.957140 102.228570 145.23810
9.46 9.482620 4.928570 101.914290 150.476190
9.45 9.474490 4.90 101.60 155.714290
9.44 9.461850 4.90 102.028570 160.952380
9.43 9.449210 4.90 102.457140 166.190480
9.42 9.440780 4.90 102.885710 171.428570
9.41 9.432360 4.90 103.314290 176.666670
9.40 9.423930 4.90 103.742860 177.619050
9.39 9.411740 4.90 104.171430 178.571430
9.38 9.399550 4.90 104.60 179.523810
9.37 9.391120 4.90 104.60 180.476190
9.36 9.382690 4.90 104.60 181.428570
9.35 9.374270 4.90 104.60 182.380950
9.34 9.362080 4.90 104.60 183.333330
9.33 9.349890 4.90 104.60 182.916670
9.32 9.33770 4.90 104.60 182.50
9.31 9.325510 4.90 104.60 182.083330
9.30 9.317080 4.90 104.60 181.666670
9.29 9.308650 4.914290 104.128570 181.250
9.28 9.300230 4.928570 103.657140 180.833330
9.27 9.288040 4.942860 103.185710 180.416670
9.26 9.275850 4.957140 102.714290 180.0
9.25 9.267720 4.971430 102.242860 173.333330
9.24 9.259590 4.985710 101.771430 166.666670
9.23 9.251470 5.0 101.30 160.0
