~VERSION INFORMATION SECTION
VERS. 2.0 : CWLS LAS-VERSION 2.0
WRAP. NO : One line per depth step
~WELL INFORMATION SECTION
# MNEM.UNIT VALUE/NAME DESCRIPTION
#-------- -------------- ---------------------
STRT.Metres 15 : Start
STOP.Metres 0.43 : Stop
STEP.Metres -0.01 : Step
NULL.  -999.25 :NULL VALUE
DATE. 2025-07-11 : DATE
~CURVE INFORMATION SECTION
DEPTH.Metres : 0 Depth
Depth. : 1 Depth
Incline.Deg : 2 Incline
Azimuth.Deg : 3 Azimuth
GR.CPS : 4 GR
~PARAMETER INFORMATION SECTION
~OTHER
#-------------------------------------------------
#Produced By: GeoVista Logger - Version 7.1.107.0
Natural Gamma Sonde - 6447
Verticality Sonde - 6292
#-------------------------------------------------
~ASCII LOG DATA
# ...
9.22 9.238830 4.98750 101.4750 153.333330
9.21 9.226190 4.9750 101.650 146.666670
9.20 9.218060 4.96250 101.8250 140.0
9.19 9.209930 4.950 102.0 133.333330
9.18 9.201810 4.93750 102.1750 138.333330
9.17 9.189620 4.9250 102.350 143.333330
9.16 9.177430 4.91250 102.5250 148.333330
9.15 9.1690 4.90 102.70 153.333330
9.14 9.160570 4.90 102.971430 158.333330
9.13 9.152140 4.90 103.242860 163.333330
9.12 9.139950 4.90 103.514290 168.333330
9.11 9.127770 4.90 103.785710 173.333330
9.10 9.119640 4.90 104.057140 170.476190
9.09 9.111510 4.90 104.328570 167.619050
9.08 9.103390 4.90 104.60 164.76190
9.07 9.09120 4.90 104.526670 161.904760
9.06 9.079010 4.90 104.453330 159.047620
9.05 9.066820 4.90 104.380 156.190480
9.04 9.054630 4.90 104.306670 153.333330
9.03 9.04650 4.90 104.233330 156.666670
9.02 9.038370 4.90 104.160 160.0
9.01 9.030250 4.90 104.086670 163.333330
9.00 9.018060 4.90 104.013330 166.666670
8.99 9.005870 4.90 103.940 170.0
8.98 8.997740 4.90 103.866670 173.333330
8.97 8.989620 4.90 103.793330 176.666670
8.96 8.981490 4.90 103.720 174.166670
8.95 8.96930 4.90 103.646670 171.666670
8.94 8.957110 4.90 103.573330 169.166670
8.93 8.949290 4.90 103.50 166.666670
8.92 8.941460 4.885710 103.842860 164.166670
8.91 8.933630 4.871430 104.185710 161.666670
8.90 8.921440 4.857140 104.528570 159.166670
8.89 8.909260 4.842860 104.871430 156.666670
8.88 8.897070 4.828570 105.214290 153.809520
8.87 8.884880 4.814290 105.557140 150.952380
8.86 8.876750 4.80 105.90 148.095240
8.85 8.868620 4.80 105.36250 145.23810
8.84 8.86050 4.80 104.8250 142.380950
8.83 8.848310 4.80 104.28750 139.523810
8.82 8.836120 4.80 103.750 136.666670
8.81 8.827990 4.80 103.21250 139.047620
8.80 8.819860 4.80 102.6750 141.428570
8.79 8.811740 4.80 102.13750 143.809520
8.78 8.799550 4.80 101.60 146.190480
8.77 8.787360 4.80 101.628570 148.571430
8.76 8.779230 4.80 101.657140 150.952380
8.75 8.771110 4.80 101.685710 153.333330
8.74 8.762980 4.80 101.714290 161.547620
8.73 8.750790 4.80 101.742860 169.76190
8.72 8.73860 4.80 101.771430 177.976190
8.71 8.730470 4.80 101.80 186.190480
8.70 8.722350 4.80 102.228570 194.404760
8.69 8.714220 4.80 102.657140 202.619050
8.68 8.702030 4.80 103.085710 210.833330
8.67 8.689840 4.80 103.514290 219.047620
8.66 8.677650 4.80 103.942860 208.390020
8.65 8.665460 4.80 104.371430 197.732430
8.64 8.657340 4.80 104.80 187.074830
8.63 8.649210 4.785710 104.80 176.417230
8.62 8.641080 4.771430 104.80 165.759640
8.61 8.628890 4.757140 104.80 155.102040
8.60 8.61670 4.742860 104.80 144.444440
8.59 8.608280 4.728570 104.80 148.571430
8.58 8.599850 4.714290 104.80 152.698410
8.57 8.591420 4.70 104.80 156.82540
8.56 8.579230 4.71250 104.16250 160.952380
8.55 8.567040 4.7250 103.5250 165.079370
8.54 8.558920 4.73750 102.88750 169.206350
8.53 8.550790 4.750 102.250 173.333330
8.52 8.542660 4.76250 101.61250 169.166670
8.51 8.530020 4.7750 100.9750 165.0
8.50 8.517380 4.78750 100.33750 160.833330
8.49 8.509260 4.80 99.70 156.666670
8.48 8.501130 4.80 100.685710 152.50
8.47 8.4930 4.80 101.671430 148.333330
8.46 8.480810 4.80 102.657140 144.166670
8.45 8.468620 4.80 103.642860 140.0
8.44 8.46020 4.80 104.628570 140.952380
8.43 8.451770 4.80 105.614290 141.904760
8.42 8.443340 4.80 106.60 142.857140
8.41 8.431150 4.80 105.657140 143.809520
8.40 8.418960 4.80 104.714290 144.76190
8.39 8.410530 4.80 103.771430 145.714290
8.38 8.402110 4.80 102.828570 146.666670
8.37 8.393680 4.80 101.885710 151.060610
8.36 8.381490 4.80 100.942860 155.454550
8.35 8.36930 4.80 100.0 159.848480
8.34 8.361170 4.80 99.7250 164.242420
8.33 8.353050 4.80 99.450 168.636360
8.32 8.344920 4.80 99.1750 173.03030
8.31 8.332280 4.80 98.90 177.424240
8.30 8.319640 4.80 98.6250 181.818180
8.29 8.311510 4.80 98.350 178.400550
8.28 8.303390 4.80 98.0750 174.982910
8.27 8.295260 4.80 97.80 171.565280
8.26 8.282620 4.80 99.0 168.147640
8.25 8.269980 4.80 100.20 164.730010
8.24 8.257790 4.80 101.40 161.312370
8.23 8.24560 4.80 102.60 157.894740
8.22 8.237170 4.80 103.80 155.614840
8.21 8.228740 4.80 105.0 153.334950
8.20 8.220320 4.80 106.20 151.055060
8.19 8.208130 4.80 105.86250 148.775160
8.18 8.195940 4.80 105.5250 146.495270
8.17 8.187810 4.80 105.18750 144.215380
8.16 8.179680 4.80 104.850 141.935480
8.15 8.171560 4.80 104.51250 146.276880
8.14 8.159370 4.80 104.1750 150.618280
8.13 8.147180 4.80 103.83750 154.959680
8.12 8.139050 4.80 103.50 159.301080
8.11 8.130930 4.814290 102.914290 163.642470
8.10 8.12280 4.828570 102.328570 167.983870
8.09 8.110610 4.842860 101.742860 172.325270
8.08 8.098420 4.857140 101.157140 176.666670
8.07 8.090290 4.871430 100.571430 174.285710
8.06 8.082170 4.885710 99.985710 171.904760
8.05 8.074040 4.90 99.40 169.523810
8.04 8.061850 4.885710 100.10 167.142860
8.03 8.049660 4.871430 100.80 164.76190
8.02 8.037920 4.857140 101.50 162.380950
8.01 8.026190 4.842860 102.20 160.0
8.00 8.017760 4.828570 102.90 159.047620
7.99 8.009330 4.814290 103.60 158.095240
7.98 8.00090 4.80 104.30 157.142860
7.97 7.989160 4.80 103.6750 156.190480
7.96 7.977430 4.80 103.050 155.23810
7.95 7.96930 4.80 102.4250 154.285710
7.94 7.961170 4.80 101.80 153.333330
7.93 7.953050 4.80 101.1750 155.0
7.92 7.940860 4.80 100.550 156.666670
7.91 7.928670 4.80 99.9250 158.333330
7.90 7.920540 4.80 99.30 160.0
7.89 7.912420 4.806670 99.266670 161.666670
7.88 7.904290 4.813330 99.233330 163.333330
7.87 7.89210 4.820 99.20 165.0
7.86 7.879910 4.826670 99.166670 166.666670
7.85 7.867720 4.833330 99.133330 162.857140
7.84 7.855530 4.840 99.10 159.047620
7.83 7.84740 4.846670 99.066670 155.23810
7.82 7.839280 4.853330 99.033330 151.428570
7.81 7.831150 4.860 99.0 147.619050
7.80 7.818960 4.866670 98.966670 143.809520
7.79 7.806770 4.873330 98.933330 140.0
7.78 7.798650 4.880 98.90 142.380950
7.77 7.790520 4.886670 98.866670 144.76190
7.76 7.782390 4.893330 98.833330 147.142860
7.75 7.770650 4.90 98.80 149.523810
7.74 7.758920 4.885710 99.057140 151.904760
7.73 7.746280 4.871430 99.314290 154.285710
7.72 7.733630 4.857140 99.571430 156.666670
7.71 7.725810 4.842860 99.828570 154.166670
7.70 7.717980 4.828570 100.085710 151.666670
7.69 7.710160 4.814290 100.342860 149.166670
7.68 7.697970 4.80 100.60 146.666670
7.67 7.685780 4.785710 100.557140 144.166670
7.66 7.677650 4.771430 100.514290 141.666670
7.65 7.669530 4.757140 100.471430 139.166670
7.64 7.66140 4.742860 100.428570 136.666670
7.63 7.648760 4.728570 100.385710 145.714290
7.62 7.636120 4.714290 100.342860 154.76190
7.61 7.627990 4.70 100.30 163.809520
7.60 7.619860 4.70 100.385710 172.857140
7.59 7.611740 4.70 100.471430 181.904760
7.58 7.599550 4.70 100.557140 190.952380
7.57 7.587360 4.70 100.642860 200.0
7.56 7.578930 4.70 100.728570 195.0
7.55 7.57050 4.70 100.814290 190.0
7.54 7.562080 4.70 100.90 185.0
7.53 7.549890 4.70 100.81250 180.0
7.52 7.53770 4.70 100.7250 175.0
7.51 7.529570 4.70 100.63750 170.0
7.50 7.521440 4.70 100.550 165.0
7.49 7.513320 4.70 100.46250 160.0
7.48 7.501130 4.70 100.3750 160.952380
7.47 7.488940 4.70 100.28750 161.904760
7.46 7.480510 4.70 100.20 162.857140
7.45 7.472080 4.642860 99.557140 163.809520
7.44 7.463660 4.585710 98.914290 164.76190
7.43 7.451470 4.528570 98.271430 165.714290
7.42 7.439280 4.471430 97.628570 166.666670
7.41 7.430850 4.414290 96.985710 164.285710
7.40 7.422420 4.357140 96.342860 161.904760
7.39 7.4140 4.30 95.70 159.523810
7.38 7.401810 4.128570 94.371430 157.142860
7.37 7.389620 3.957140 93.042860 154.76190
7.36 7.377430 3.785710 91.714290 152.380950
7.35 7.365240 3.614290 90.385710 150.0
7.34 7.357110 3.442860 89.057140 149.583330
7.33 7.348980 3.271430 87.728570 149.166670
7.32 7.340860 3.10 86.40 148.750
7.31 7.328220 3.1750 87.01250 148.333330
7.30 7.315580 3.250 87.6250 147.916670
7.29 7.307450 3.3250 88.23750 147.50
7.28 7.299320 3.40 88.850 147.083330
7.27 7.29120 3.4750 89.46250 146.666670
7.26 7.279010 3.550 90.0750 142.380950
7.25 7.266820 3.6250 90.68750 138.095240
7.24 7.258690 3.70 91.30 133.809520
7.23 7.250560 3.828570 93.014290 129.523810
7.22 7.242440 3.957140 94.728570 125.23810
