~VERSION INFORMATION SECTION
VERS. 2.0 : CWLS LAS-VERSION 2.0
WRAP. NO : One line per depth step
~WELL INFORMATION SECTION
# MNEM.UNIT VALUE/NAME DESCRIPTION
#-------- -------------- ---------------------
STRT.Metres 16 : Start
STOP.Metres 0.47 : Stop
STEP.Metres -0.01 : Step
NULL.  -999.25 :NULL VALUE
DATE. 2025-03-11 : DATE
~CURVE INFORMATION SECTION
DEPTH.Metres : 0 Depth
Depth. : 1 Depth
Incline.Deg : 2 Incline
Azimuth.Deg : 3 Azimuth
GR.CPS : 4 GR
~PARAMETER INFORMATION SECTION
~OTHER
#-------------------------------------------------
#Produced By: GeoVista Logger - Version 7.1.107.0
Natural Gamma Sonde - 6447
Verticality Sonde - 6292
#-------------------------------------------------
~ASCII LOG DATA
# ...
14.04 14.057490 6.585710 97.128570 134.444440
14.03 14.050560 6.614290 97.371430 138.333330
14.02 14.040180 6.642860 97.614290 142.222220
14.01 14.02980 6.671430 97.857140 146.111110
14.00 14.019410 6.70 98.10 150.0
13.99 14.009030 6.666670 98.333330 150.0
13.98 13.998650 6.633330 98.566670 150.0
13.97 13.988260 6.60 98.80 150.0
13.96 13.977880 6.566670 99.033330 150.0
13.95 13.967490 6.533330 99.266670 150.0
13.94 13.956660 6.50 99.50 150.0
13.93 13.945820 6.483330 98.966670 153.333330
13.92 13.935440 6.466670 98.433330 156.666670
13.91 13.925060 6.450 97.90 160.0
13.90 13.914670 6.433330 97.366670 163.333330
13.89 13.904290 6.416670 96.833330 166.666670
13.88 13.893910 6.40 96.30 170.0
13.87 13.883520 6.40 96.816670 174.444440
13.86 13.873140 6.40 97.333330 178.888890
13.85 13.862750 6.40 97.850 183.333330
13.84 13.852370 6.40 98.366670 187.777780
13.83 13.841990 6.40 98.883330 192.222220
13.82 13.83160 6.40 99.40 196.666670
13.81 13.821220 6.40 99.666670 186.111110
13.80 13.81430 6.40 99.933330 175.555560
13.79 13.807370 6.40 100.20 165.0
13.78 13.800450 6.40 100.466670 154.444440
13.77 13.790070 6.40 100.733330 143.888890
13.76 13.779680 6.40 101.0 133.333330
13.75 13.76930 6.414290 100.314290 139.047620
13.74 13.758920 6.428570 99.628570 144.76190
13.73 13.748080 6.442860 98.942860 150.476190
13.72 13.737250 6.457140 98.257140 156.190480
13.71 13.726860 6.471430 97.571430 161.904760
13.70 13.716480 6.485710 96.885710 167.619050
13.69 13.706090 6.50 96.20 173.333330
13.68 13.695710 6.50 96.850 169.444440
13.67 13.685330 6.50 97.50 165.555560
13.66 13.674940 6.50 98.150 161.666670
13.65 13.664560 6.50 98.80 157.777780
13.64 13.654180 6.50 99.450 153.888890
13.63 13.643790 6.50 100.10 150.0
13.62 13.633410 6.483330 100.0 152.222220
13.61 13.623020 6.466670 99.90 154.444440
13.60 13.612640 6.450 99.80 156.666670
13.59 13.602260 6.433330 99.70 158.888890
13.58 13.591870 6.416670 99.60 161.111110
13.57 13.581940 6.40 99.50 163.333330
13.56 13.572010 6.40 99.30 166.111110
13.55 13.561630 6.40 99.10 168.888890
13.54 13.551240 6.40 98.90 171.666670
13.53 13.544320 6.40 98.70 174.444440
13.52 13.53740 6.40 98.50 177.222220
13.51 13.530470 6.40 98.30 180.0
13.50 13.520090 6.40 98.328570 179.444440
13.49 13.509710 6.40 98.357140 178.888890
13.48 13.499320 6.40 98.385710 178.333330
13.47 13.488940 6.40 98.414290 177.777780
13.46 13.478560 6.40 98.442860 177.222220
13.45 13.468170 6.40 98.471430 176.666670
13.44 13.457790 6.40 98.50 175.391710
13.43 13.44740 6.316670 98.366670 174.116740
13.42 13.436570 6.233330 98.233330 172.841780
13.41 13.425730 6.150 98.10 171.566820
13.40 13.415350 6.066670 97.966670 170.291860
13.39 13.404970 5.983330 97.833330 169.01690
13.38 13.395030 5.90 97.70 167.741940
13.37 13.38510 5.983330 97.950 164.229390
13.36 13.374720 6.066670 98.20 160.716850
13.35 13.364330 6.150 98.450 157.20430
13.34 13.35440 6.233330 98.70 153.691760
13.33 13.344470 6.316670 98.950 150.179210
13.32 13.334540 6.40 99.20 146.666670
13.31 13.32460 6.383330 99.233330 148.888890
13.30 13.314670 6.366670 99.266670 151.111110
13.29 13.304740 6.350 99.30 153.333330
13.28 13.294360 6.333330 99.333330 155.555560
13.27 13.283970 6.316670 99.366670 157.777780
13.26 13.274040 6.30 99.40 160.0
13.25 13.264110 6.271430 98.857140 161.111110
13.24 13.253720 6.242860 98.314290 162.222220
13.23 13.243340 6.214290 97.771430 163.333330
13.22 13.233410 6.185710 97.228570 164.444440
13.21 13.223480 6.157140 96.685710 165.555560
13.20 13.213540 6.128570 96.142860 166.666670
13.19 13.203610 6.10 95.60 161.904760
13.18 13.193230 6.133330 95.950 157.142860
13.17 13.182840 6.166670 96.30 152.380950
13.16 13.172910 6.20 96.650 147.619050
13.15 13.162980 6.233330 97.0 142.857140
13.14 13.15260 6.266670 97.350 138.095240
13.13 13.142210 6.30 97.70 133.333330
13.12 13.132280 6.30 98.116670 137.222220
13.11 13.122350 6.30 98.533330 141.111110
13.10 13.111960 6.30 98.950 145.0
13.09 13.101580 6.30 99.366670 148.888890
13.08 13.091650 6.30 99.783330 152.777780
13.07 13.081720 6.30 100.20 156.666670
13.06 13.071330 6.30 100.0 153.333330
13.05 13.060950 6.30 99.80 150.0
13.04 13.050560 6.30 99.60 146.666670
13.03 13.040180 6.30 99.40 143.333330
13.02 13.033560 6.30 99.20 140.0
13.01 13.026940 6.30 99.0 136.666670
13.00 13.020320 6.30 99.250 139.444440
12.99 13.009930 6.30 99.50 142.222220
12.98 12.999550 6.30 99.750 145.0
12.97 12.989160 6.30 100.0 147.777780
12.96 12.978780 6.30 100.250 150.555560
12.95 12.968850 6.30 100.50 153.333330
12.94 12.958920 6.283330 100.650 153.333330
12.93 12.948530 6.266670 100.80 153.333330
12.92 12.938150 6.250 100.950 153.333330
12.91 12.927770 6.233330 101.10 153.333330
12.90 12.917380 6.216670 101.250 153.333330
12.89 12.907450 6.20 101.40 153.333330
12.88 12.897520 6.20 101.083330 153.333330
12.87 12.887130 6.20 100.766670 150.555560
12.86 12.876750 6.20 100.450 147.777780
12.85 12.866370 6.20 100.133330 145.0
12.84 12.855980 6.20 99.816670 142.222220
12.83 12.846050 6.20 99.50 139.444440
12.82 12.836120 6.20 99.450 136.666670
12.81 12.825730 6.20 99.40 140.0
12.80 12.815350 6.20 99.350 143.333330
12.79 12.804970 6.20 99.30 146.666670
12.78 12.794580 6.20 99.250 150.0
12.77 12.784650 6.20 99.20 153.333330
12.76 12.774720 6.185710 99.742860 156.666670
12.75 12.764330 6.171430 100.285710 162.222220
12.74 12.753950 6.157140 100.828570 167.777780
12.73 12.743570 6.142860 101.371430 173.333330
12.72 12.733180 6.128570 101.914290 178.888890
12.71 12.723250 6.114290 102.457140 184.444440
12.70 12.713320 6.10 103.0 190.0
12.69 12.702930 6.116670 102.583330 184.444440
12.68 12.692550 6.133330 102.166670 178.888890
12.67 12.682620 6.150 101.750 173.333330
12.66 12.672690 6.166670 101.333330 167.777780
12.65 12.662750 6.183330 100.916670 162.222220
12.64 12.652820 6.20 100.50 156.666670
12.63 12.642890 6.166670 100.350 158.571430
12.62 12.632960 6.133330 100.20 160.476190
12.61 12.623020 6.10 100.050 162.380950
12.60 12.613090 6.066670 99.90 164.285710
12.59 12.602710 6.033330 99.750 166.190480
12.58 12.592330 6.0 99.60 168.095240
12.57 12.582390 6.016670 100.116670 170.0
12.56 12.572460 6.033330 100.633330 167.222220
12.55 12.562530 6.050 101.150 164.444440
12.54 12.55260 6.066670 101.666670 161.666670
12.53 12.542660 6.083330 102.183330 158.888890
12.52 12.532730 6.10 102.70 156.111110
12.51 12.522350 6.10 102.266670 153.333330
12.50 12.511960 6.10 101.833330 152.222220
12.49 12.502030 6.10 101.40 151.111110
12.48 12.49210 6.10 100.966670 150.0
12.47 12.482170 6.10 100.533330 148.888890
12.46 12.472230 6.10 100.10 147.777780
12.45 12.46230 6.10 99.766670 146.666670
12.44 12.452370 6.10 99.433330 150.0
12.43 12.442440 6.10 99.10 153.333330
12.42 12.432510 6.10 98.766670 156.666670
12.41 12.422120 6.10 98.433330 160.0
12.40 12.411740 6.10 98.10 163.333330
12.39 12.401810 6.10 99.016670 166.666670
12.38 12.391870 6.10 99.933330 165.555560
12.37 12.384950 6.10 100.850 164.444440
12.36 12.378030 6.10 101.766670 163.333330
12.35 12.371110 6.10 102.683330 162.222220
12.34 12.360270 6.10 103.60 161.111110
12.33 12.349440 6.10 103.433330 160.0
12.32 12.339050 6.10 103.266670 161.666670
12.31 12.328670 6.10 103.10 163.333330
12.30 12.318280 6.10 102.933330 165.0
12.29 12.30790 6.10 102.766670 166.666670
12.28 12.298420 6.10 102.60 168.333330
12.27 12.288940 6.10 102.416670 170.0
12.26 12.279010 6.10 102.233330 168.010750
12.25 12.269070 6.10 102.050 166.021510
12.24 12.259140 6.10 101.866670 164.032260
12.23 12.249210 6.10 101.683330 162.043010
12.22 12.238830 6.10 101.50 160.053760
12.21 12.228440 6.083330 101.666670 158.064520
12.20 12.218510 6.066670 101.833330 152.831540
12.19 12.208580 6.050 102.0 147.598570
12.18 12.198650 6.033330 102.166670 142.365590
12.17 12.188710 6.016670 102.333330 137.132620
12.16 12.178330 6.0 102.50 131.899640
12.15 12.167950 5.966670 102.333330 126.666670
12.14 12.158010 5.933330 102.166670 124.76190
12.13 12.148080 5.90 102.0 122.857140
12.12 12.13770 5.866670 101.833330 120.952380
12.11 12.127310 5.833330 101.666670 119.047620
12.10 12.117380 5.80 101.50 117.142860
