~VERSION INFORMATION SECTION
VERS. 2.0 : CWLS LAS-VERSION 2.0
WRAP. NO : One line per depth step
~WELL INFORMATION SECTION
# MNEM.UNIT VALUE/NAME DESCRIPTION
#-------- -------------- ---------------------
STRT.Metres 15 : Start
STOP.Metres 0.43 : Stop
STEP.Metres -0.01 : Step
NULL.  -999.25 :NULL VALUE
DATE. 2025-07-11 : DATE
~CURVE INFORMATION SECTION
DEPTH.Metres : 0 Depth
Depth. : 1 Depth
Incline.Deg : 2 Incline
Azimuth.Deg : 3 Azimuth
GR.CPS : 4 GR
~PARAMETER INFORMATION SECTION
~OTHER
#-------------------------------------------------
#Produced By: GeoVista Logger - Version 7.1.107.0
Natural Gamma Sonde - 6447
Verticality Sonde - 6292
#-------------------------------------------------
~ASCII LOG DATA
# ...
13.03 13.051020 5.971430 96.342860 119.583330
13.02 13.038370 6.028570 96.557140 119.166670
13.01 13.027540 6.085710 96.771430 118.750
13.00 13.01670 6.142860 96.985710 118.333330
12.99 13.008280 6.20 97.20 117.916670
12.98 12.999850 6.214290 97.514290 117.50
12.97 12.991420 6.228570 97.828570 117.083330
12.96 12.979230 6.242860 98.142860 116.666670
12.95 12.967040 6.257140 98.457140 116.666670
12.94 12.958920 6.271430 98.771430 116.666670
12.93 12.950790 6.285710 99.085710 116.666670
12.92 12.942660 6.30 99.40 116.666670
12.91 12.930020 6.2750 99.53750 116.666670
12.90 12.917380 6.250 99.6750 116.666670
12.89 12.909260 6.2250 99.81250 116.666670
12.88 12.901130 6.20 99.950 116.666670
12.87 12.8930 6.1750 100.08750 121.904760
12.86 12.880810 6.150 100.2250 127.142860
12.85 12.868620 6.1250 100.36250 132.380950
12.84 12.86020 6.10 100.50 137.619050
12.83 12.851770 6.114290 100.40 142.857140
12.82 12.843340 6.128570 100.30 148.095240
12.81 12.831150 6.142860 100.20 153.333330
12.80 12.818960 6.157140 100.10 148.333330
12.79 12.810530 6.171430 100.0 143.333330
12.78 12.802110 6.185710 99.90 138.333330
12.77 12.793680 6.20 99.80 133.333330
12.76 12.781490 6.171430 100.10 128.333330
12.75 12.76930 6.142860 100.40 123.333330
12.74 12.761170 6.114290 100.70 118.333330
12.73 12.753050 6.085710 101.0 113.333330
12.72 12.744920 6.057140 101.30 115.23810
12.71 12.732280 6.028570 101.60 117.142860
12.70 12.719640 6.0 101.90 119.047620
12.69 12.707450 6.0 101.88750 120.952380
12.68 12.695260 6.0 101.8750 122.857140
12.67 12.687130 6.0 101.86250 124.76190
12.66 12.679010 6.0 101.850 126.666670
12.65 12.670880 6.0 101.83750 126.666670
12.64 12.659140 6.0 101.8250 126.666670
12.63 12.64740 6.0 101.81250 126.666670
12.62 12.638980 6.0 101.80 126.666670
12.61 12.630550 5.985710 101.214290 126.666670
12.60 12.622120 5.971430 100.628570 126.666670
12.59 12.609930 5.957140 100.042860 126.666670
12.58 12.597740 5.942860 99.457140 126.666670
12.57 12.589620 5.928570 98.871430 128.571430
12.56 12.581490 5.914290 98.285710 130.476190
12.55 12.573360 5.90 97.70 132.380950
12.54 12.561170 5.9250 98.10 134.285710
12.53 12.548980 5.950 98.50 136.190480
12.52 12.540860 5.9750 98.90 138.095240
12.51 12.532730 6.0 99.30 140.0
12.50 12.52460 6.0250 99.70 140.952380
12.49 12.511960 6.050 100.10 141.904760
12.48 12.499320 6.0750 100.50 142.857140
12.47 12.487130 6.10 100.90 143.809520
12.46 12.474940 6.10 101.114290 144.76190
12.45 12.466820 6.10 101.328570 145.714290
12.44 12.458690 6.10 101.542860 146.666670
12.43 12.450560 6.10 101.757140 146.881720
12.42 12.438370 6.10 101.971430 147.096770
12.41 12.426190 6.10 102.185710 147.311830
12.40 12.418060 6.10 102.40 147.526880
12.39 12.409930 6.10 102.128570 147.741940
12.38 12.401810 6.10 101.857140 147.956990
12.37 12.389160 6.10 101.585710 148.172040
12.36 12.376520 6.10 101.314290 148.38710
12.35 12.36780 6.10 101.042860 155.760370
12.34 12.359070 6.10 100.771430 163.133640
12.33 12.350340 6.10 100.50 170.506910
12.32 12.341910 6.10 100.450 177.880180
12.31 12.333480 6.10 100.40 185.253460
12.30 12.325060 6.10 100.350 192.626730
12.29 12.312420 6.10 100.30 200.0
12.28 12.299770 6.10 100.250 193.333330
12.27 12.288040 6.10 100.20 186.666670
12.26 12.27630 6.10 100.150 180.0
12.25 12.268170 6.10 100.10 173.333330
12.24 12.260050 6.10 100.528570 166.666670
12.23 12.251920 6.10 100.957140 160.0
12.22 12.239280 6.10 101.385710 153.333330
12.21 12.226640 6.10 101.814290 146.666670
12.20 12.218510 6.10 102.242860 150.476190
12.19 12.210380 6.10 102.671430 154.285710
12.18 12.202260 6.10 103.10 158.095240
12.17 12.190070 6.071430 102.828570 161.904760
12.16 12.177880 6.042860 102.557140 165.714290
12.15 12.169450 6.014290 102.285710 169.523810
12.14 12.161020 5.985710 102.014290 173.333330
12.13 12.15260 5.957140 101.742860 173.809520
12.12 12.140410 5.928570 101.471430 174.285710
12.11 12.128220 5.90 101.20 174.76190
12.10 12.119790 5.90 101.0750 175.23810
12.09 12.111360 5.90 100.950 175.714290
12.08 12.102930 5.90 100.8250 176.190480
12.07 12.090740 5.90 100.70 176.666670
12.06 12.078560 5.90 100.5750 170.833330
12.05 12.070430 5.90 100.450 165.0
12.04 12.06230 5.90 100.3250 159.166670
12.03 12.054180 5.90 100.20 153.333330
12.02 12.041530 5.90 100.742860 147.50
12.01 12.028890 5.90 101.285710 141.666670
12.00 12.020470 5.90 101.828570 135.833330
11.99 12.012040 5.90 102.371430 130.0
11.98 12.003610 5.90 102.914290 130.476190
11.97 11.991420 5.90 103.457140 130.952380
11.96 11.979230 5.90 104.0 131.428570
11.95 11.970810 5.88750 104.26250 131.904760
11.94 11.962380 5.8750 104.5250 132.380950
11.93 11.953950 5.86250 104.78750 132.857140
11.92 11.941310 5.850 105.050 133.333330
11.91 11.928670 5.83750 105.31250 136.666670
11.90 11.920540 5.8250 105.5750 140.0
11.89 11.912420 5.81250 105.83750 143.333330
11.88 11.904290 5.80 106.10 146.666670
11.87 11.89210 5.814290 105.757140 150.0
11.86 11.879910 5.828570 105.414290 153.333330
11.85 11.867270 5.842860 105.071430 156.666670
11.84 11.854630 5.857140 104.728570 155.833330
11.83 11.84650 5.871430 104.385710 155.0
11.82 11.838370 5.885710 104.042860 154.166670
11.81 11.830250 5.90 103.70 153.333330
11.80 11.817610 5.90 103.53750 152.50
11.79 11.804970 5.90 103.3750 151.666670
11.78 11.796840 5.90 103.21250 150.833330
11.77 11.788710 5.90 103.050 150.0
11.76 11.780590 5.90 102.88750 148.095240
11.75 11.76840 5.90 102.7250 146.190480
11.74 11.756210 5.90 102.56250 144.285710
11.73 11.748080 5.90 102.40 142.380950
11.72 11.739950 5.885710 102.80 140.476190
11.71 11.731830 5.871430 103.20 138.571430
11.70 11.719640 5.857140 103.60 136.666670
11.69 11.707450 5.842860 104.0 130.833330
11.68 11.699020 5.828570 104.40 125.0
11.67 11.690590 5.814290 104.80 119.166670
11.66 11.682170 5.80 105.20 113.333330
11.65 11.669980 5.80 104.471430 107.50
11.64 11.657790 5.80 103.742860 101.666670
11.63 11.649660 5.80 103.014290 95.833330
11.62 11.641530 5.80 102.285710 90.0
11.61 11.633410 5.80 101.557140 100.952380
11.60 11.621220 5.80 100.828570 111.904760
11.59 11.609030 5.80 100.10 122.857140
11.58 11.596840 5.81250 100.28750 133.809520
11.57 11.584650 5.8250 100.4750 144.76190
11.56 11.576520 5.83750 100.66250 155.714290
11.55 11.56840 5.850 100.850 166.666670
11.54 11.560270 5.86250 101.03750 158.095240
11.53 11.547630 5.8750 101.2250 149.523810
11.52 11.534990 5.88750 101.41250 140.952380
11.51 11.526860 5.90 101.60 132.380950
11.50 11.518740 5.771430 101.185710 123.809520
11.49 11.510610 5.642860 100.771430 115.23810
11.48 11.498420 5.514290 100.357140 106.666670
11.47 11.486230 5.385710 99.942860 111.250
11.46 11.47810 5.257140 99.528570 115.833330
11.45 11.469980 5.128570 99.114290 120.416670
11.44 11.461850 5.0 98.70 125.0
11.43 11.449660 5.06250 98.76250 129.583330
11.42 11.437470 5.1250 98.8250 134.166670
11.41 11.429350 5.18750 98.88750 138.750
11.40 11.421220 5.250 98.950 143.333330
11.39 11.413090 5.31250 99.01250 144.625850
11.38 11.40090 5.3750 99.0750 145.918370
11.37 11.388710 5.43750 99.13750 147.210880
11.36 11.380590 5.50 99.20 148.50340
11.35 11.372460 5.542860 99.785710 149.795920
11.34 11.364330 5.585710 100.371430 151.088440
11.33 11.352140 5.628570 100.957140 152.380950
11.32 11.339950 5.671430 101.542860 155.555560
11.31 11.327770 5.714290 102.128570 158.730160
11.30 11.315580 5.757140 102.714290 161.904760
11.29 11.307450 5.80 103.30 165.079370
11.28 11.299320 5.786670 103.286670 168.253970
11.27 11.29120 5.773330 103.273330 171.428570
11.26 11.278560 5.760 103.260 174.603170
11.25 11.265910 5.746670 103.246670 177.777780
11.24 11.257790 5.733330 103.233330 174.285710
11.23 11.249660 5.720 103.220 170.793650
11.22 11.241530 5.706670 103.206670 167.301590
11.21 11.228890 5.693330 103.193330 163.809520
11.20 11.216250 5.680 103.180 160.317460
11.19 11.208130 5.666670 103.166670 156.82540
11.18 11.20 5.653330 103.153330 153.333330
11.17 11.191870 5.640 103.140 154.583330
11.16 11.179680 5.626670 103.126670 155.833330
11.15 11.167490 5.613330 103.113330 157.083330
11.14 11.159370 5.60 103.10 158.333330
