~VERSION INFORMATION SECTION
VERS. 2.0 : CWLS LAS-VERSION 2.0
WRAP. NO : One line per depth step
~WELL INFORMATION SECTION
# MNEM.UNIT VALUE/NAME DESCRIPTION
#-------- -------------- ---------------------
STRT.Metres 16 : Start
STOP.Metres 0.47 : Stop
STEP.Metres -0.01 : Step
NULL.  -999.25 :NULL VALUE
DATE. 2025-03-11 : DATE
~CURVE INFORMATION SECTION
DEPTH.Metres : 0 Depth
Depth. : 1 Depth
Incline.Deg : 2 Incline
Azimuth.Deg : 3 Azimuth
GR.CPS : 4 GR
~PARAMETER INFORMATION SECTION
~OTHER
#-------------------------------------------------
#Produced By: GeoVista Logger - Version 7.1.107.0
Natural Gamma Sonde - 6447
Verticality Sonde - 6292
#-------------------------------------------------
~ASCII LOG DATA
# ...
6.03 6.04650 4.40 97.0 186.666670
6.02 6.037020 4.350 97.233330 182.0
6.01 6.027540 4.30 97.466670 177.333330
6.00 6.018060 4.250 97.70 172.666670
5.99 5.99910 4.20 97.933330 168.0
5.98 5.989620 4.150 98.166670 163.333330
5.97 5.980140 4.10 98.40 162.777780
5.96 5.970650 4.050 98.550 162.222220
5.95 5.961170 4.0 98.70 161.666670
5.94 5.951690 3.950 98.850 161.111110
5.93 5.942210 3.90 99.0 160.555560
5.92 5.932730 3.850 99.150 160.0
5.91 5.923250 3.80 99.30 166.111110
5.90 5.913770 3.820 98.20 172.222220
5.89 5.904290 3.840 97.10 178.333330
5.88 5.894810 3.860 96.0 184.444440
5.87 5.885330 3.880 94.90 190.555560
5.86 5.87630 3.90 93.80 196.666670
5.85 5.867270 3.933330 94.850 184.666670
5.84 5.857790 3.966670 95.90 172.666670
5.83 5.848310 4.0 96.950 160.666670
5.82 5.829350 4.033330 98.0 148.666670
5.81 5.819860 4.066670 99.050 136.666670
5.80 5.810380 4.10 100.10 132.777780
5.79 5.801350 4.10 99.250 128.888890
5.78 5.792330 4.10 98.40 125.0
5.77 5.782840 4.10 97.550 121.111110
5.76 5.773360 4.10 96.70 117.222220
5.75 5.763880 4.10 95.850 113.333330
5.74 5.75440 4.10 95.0 120.0
5.73 5.744920 4.120 94.80 126.666670
5.72 5.735440 4.140 94.60 133.333330
5.71 5.725960 4.160 94.40 140.0
5.70 5.716480 4.180 94.20 146.666670
5.69 5.7070 4.20 94.0 153.333330
5.68 5.697520 4.183330 94.783330 147.827960
5.67 5.688040 4.166670 95.566670 142.322580
5.66 5.678560 4.150 96.350 136.81720
5.65 5.659590 4.133330 97.133330 131.311830
5.64 5.650110 4.116670 97.916670 125.806450
5.63 5.640630 4.10 98.70 127.616490
5.62 5.63070 4.066670 98.050 129.426520
5.61 5.620770 4.033330 97.40 131.236560
5.60 5.611290 4.0 96.750 133.046590
5.59 5.601810 3.966670 96.10 134.856630
5.58 5.592330 3.933330 95.450 136.666670
5.57 5.582840 3.90 94.80 137.777780
5.56 5.573360 3.880 94.920 138.888890
5.55 5.563880 3.860 95.040 140.0
5.54 5.55440 3.840 95.160 141.111110
5.53 5.544920 3.820 95.280 142.222220
5.52 5.535440 3.80 95.40 143.333330
5.51 5.525960 3.816670 95.366670 140.666670
5.50 5.516480 3.833330 95.333330 138.0
5.49 5.5070 3.850 95.30 135.333330
5.48 5.497520 3.866670 95.266670 132.666670
5.47 5.488040 3.883330 95.233330 130.0
5.46 5.469070 3.90 95.20 133.333330
5.45 5.459590 3.866670 95.30 136.666670
5.44 5.450110 3.833330 95.40 140.0
5.43 5.441080 3.80 95.50 143.333330
5.42 5.432050 3.766670 95.60 146.666670
5.41 5.422570 3.733330 95.70 150.0
5.40 5.413090 3.70 95.80 153.333330
5.39 5.403610 3.740 96.920 156.666670
5.38 5.394130 3.780 98.040 160.0
5.37 5.384650 3.820 99.160 163.333330
5.36 5.375170 3.860 100.280 166.666670
5.35 5.365690 3.90 101.40 170.0
5.34 5.356210 3.80 99.750 172.0
5.33 5.346730 3.70 98.10 174.0
5.32 5.337250 3.60 96.450 176.0
5.31 5.319190 3.50 94.80 178.0
5.30 5.309710 3.40 93.150 180.0
5.29 5.300230 3.30 91.50 175.0
5.28 5.290740 3.366670 92.40 170.0
5.27 5.281260 3.433330 93.30 165.0
5.26 5.271780 3.50 94.20 160.0
5.25 5.26230 3.566670 95.10 155.0
5.24 5.253270 3.633330 96.0 150.0
5.23 5.244240 3.70 96.90 148.888890
5.22 5.234760 3.733330 97.233330 147.777780
5.21 5.225280 3.766670 97.566670 146.666670
5.20 5.21580 3.80 97.90 145.555560
5.19 5.206320 3.833330 98.233330 144.444440
5.18 5.196840 3.866670 98.566670 143.333330
5.17 5.187360 3.90 98.90 147.222220
5.16 5.177880 3.90 99.180 151.111110
5.15 5.16840 3.90 99.460 155.0
5.14 5.149440 3.90 99.740 158.888890
5.13 5.139950 3.90 100.020 162.777780
5.12 5.130470 3.90 100.30 166.666670
5.11 5.120990 3.883330 99.233330 168.666670
5.10 5.111510 3.866670 98.166670 170.666670
5.09 5.102030 3.850 97.10 172.666670
5.08 5.092550 3.833330 96.033330 174.666670
5.07 5.083070 3.816670 94.966670 176.666670
5.06 5.073590 3.80 93.90 173.888890
5.05 5.064110 3.80 95.220 171.111110
5.04 5.054630 3.80 96.540 168.333330
5.03 5.045150 3.80 97.860 165.555560
5.02 5.035670 3.80 99.180 162.777780
5.01 5.026190 3.80 100.50 160.0
5.00 5.01670 3.808330 99.941670 161.111110
4.99 5.007220 3.816670 99.383330 162.222220
4.98 4.997740 3.8250 98.8250 163.333330
4.97 4.988260 3.833330 98.266670 164.444440
4.96 4.978780 3.841670 97.708330 165.555560
4.95 4.959820 3.850 97.150 166.666670
4.94 4.950340 3.858330 96.591670 161.333330
4.93 4.940860 3.866670 96.033330 156.0
4.92 4.930930 3.8750 95.4750 150.666670
4.91 4.920990 3.883330 94.916670 145.333330
4.90 4.911510 3.891670 94.358330 140.0
4.89 4.902030 3.90 93.80 138.333330
4.88 4.892550 3.860 95.480 136.666670
4.87 4.883070 3.820 97.160 135.0
4.86 4.873590 3.780 98.840 133.333330
4.85 4.864110 3.740 100.520 131.666670
4.84 4.854630 3.70 102.20 130.0
4.83 4.845150 3.70 100.750 135.333330
4.82 4.835670 3.70 99.30 140.666670
4.81 4.826190 3.70 97.850 146.0
4.80 4.816250 3.70 96.40 151.333330
4.79 4.806320 3.70 94.950 156.666670
4.78 4.796840 3.70 93.50 157.222220
4.77 4.787360 3.683330 94.483330 157.777780
4.76 4.76930 3.666670 95.466670 158.333330
4.75 4.759820 3.650 96.450 158.888890
4.74 4.750340 3.633330 97.433330 159.444440
4.73 4.740860 3.616670 98.416670 160.0
4.72 4.731380 3.60 99.40 156.111110
4.71 4.72190 3.60 99.10 152.222220
4.70 4.712420 3.60 98.80 148.333330
4.69 4.703390 3.60 98.50 144.444440
4.68 4.694360 3.60 98.20 140.555560
4.67 4.684880 3.60 97.90 136.666670
4.66 4.67540 3.516670 96.60 134.444440
4.65 4.665910 3.433330 95.30 132.222220
4.64 4.656430 3.350 94.0 130.0
4.63 4.646950 3.266670 92.70 127.777780
4.62 4.637470 3.183330 91.40 125.555560
4.61 4.627990 3.10 90.10 123.333330
4.60 4.618510 3.083330 90.950 121.892470
4.59 4.599550 3.066670 91.80 120.451610
4.58 4.590520 3.050 92.650 119.010750
4.57 4.581490 3.033330 93.50 117.569890
4.56 4.572010 3.016670 94.350 116.129030
4.55 4.562530 3.0 95.20 122.88530
4.54 4.553050 3.116670 95.316670 129.641580
4.53 4.543570 3.233330 95.433330 136.397850
4.52 4.534090 3.350 95.550 143.154120
4.51 4.52460 3.466670 95.666670 149.910390
4.50 4.515120 3.583330 95.783330 156.666670
4.49 4.505640 3.70 95.90 153.888890
4.48 4.496160 3.70 95.440 151.111110
4.47 4.486680 3.70 94.980 148.333330
4.46 4.477650 3.70 94.520 145.555560
4.45 4.468620 3.70 94.060 142.777780
4.44 4.449660 3.70 93.60 140.0
4.43 4.440180 3.70 94.283330 146.666670
4.42 4.43070 3.70 94.966670 153.333330
4.41 4.421220 3.70 95.650 160.0
4.40 4.411740 3.70 96.333330 166.666670
4.39 4.402260 3.70 97.016670 173.333330
4.38 4.392780 3.70 97.70 163.333330
4.37 4.383750 3.70 97.383330 153.333330
4.36 4.374720 3.70 97.066670 143.333330
4.35 4.365240 3.70 96.750 133.333330
4.34 4.355760 3.70 96.433330 123.333330
4.33 4.346280 3.70 96.116670 113.333330
4.32 4.336790 3.70 95.80 122.777780
4.31 4.327310 3.70 95.840 132.222220
4.30 4.317830 3.70 95.880 141.666670
4.29 4.298870 3.70 95.920 151.111110
4.28 4.289840 3.70 95.960 160.555560
4.27 4.280810 3.70 96.0 170.0
4.26 4.271330 3.70 96.116670 166.0
4.25 4.261850 3.70 96.233330 162.0
4.24 4.252370 3.70 96.350 158.0
4.23 4.242890 3.70 96.466670 154.0
4.22 4.233860 3.70 96.583330 150.0
4.21 4.224830 3.70 96.70 151.111110
4.20 4.215350 3.70 96.283330 152.222220
4.19 4.205870 3.70 95.866670 153.333330
4.18 4.196840 3.70 95.450 154.444440
4.17 4.187810 3.70 95.033330 155.555560
4.16 4.178330 3.70 94.616670 156.666670
4.15 4.168850 3.70 94.20 148.333330
4.14 4.149890 3.70 94.260 140.0
4.13 4.140410 3.70 94.320 131.666670
4.12 4.130930 3.70 94.380 123.333330
4.11 4.121440 3.70 94.440 115.0
4.10 4.111960 3.70 94.50 106.666670
4.09 4.102480 3.683330 94.30 120.666670
4.08 4.0930 3.666670 94.10 134.666670
4.07 4.083520 3.650 93.90 148.666670
4.06 4.074040 3.633330 93.70 162.666670
4.05 4.064560 3.616670 93.50 176.666670
4.04 4.055080 3.60 93.30 172.777780
4.03 4.04560 3.620 93.40 168.888890
4.02 4.036120 3.640 93.50 165.0
4.01 4.026190 3.660 93.60 161.111110
4.00 4.016250 3.680 93.70 157.222220
3.99 4.006770 3.70 93.80 153.333330
3.98 3.997290 3.683330 94.266670 156.666670
3.97 3.987810 3.666670 94.733330 160.0
3.96 3.978330 3.650 95.20 163.333330
3.95 3.96840 3.633330 95.666670 166.666670
3.94 3.958470 3.616670 96.133330 170.0
3.93 3.948530 3.60 96.60 173.333330
3.92 3.93860 3.60 95.683330 171.333330
3.91 3.929120 3.60 94.766670 169.333330
