~VERSION INFORMATION SECTION
VERS. 2.0 : CWLS LAS-VERSION 2.0
WRAP. NO : One line per depth step
~WELL INFORMATION SECTION
# MNEM.UNIT VALUE/NAME DESCRIPTION
#-------- -------------- ---------------------
STRT.Metres 17 : Start
STOP.Metres 0.38 : Stop
STEP.Metres -0.01 : Step
NULL.  -999.25 :NULL VALUE
DATE. 2025-57-11 : DATE
~CURVE INFORMATION SECTION
DEPTH.Metres : 0 Depth
Depth. : 1 Depth
Incline.Deg : 2 Incline
Azimuth.Deg : 3 Azimuth
GR.CPS : 4 GR
~PARAMETER INFORMATION SECTION
~OTHER
#-------------------------------------------------
#Produced By: GeoVista Logger - Version 7.1.107.0
Natural Gamma Sonde - 6447
Verticality Sonde - 6292
#-------------------------------------------------
~ASCII LOG DATA
# ...
10.84 10.844240 5.366670 100.90 171.428570
10.83 10.835210 5.20 100.60 166.137570
10.82 10.827090 5.333330 99.766670 160.846560
10.81 10.818060 5.466670 98.933330 155.555560
10.80 10.805420 5.60 98.10 131.003580
10.79 10.791870 5.650 100.450 106.451610
10.78 10.783750 5.70 102.80 117.634410
10.77 10.774720 5.70 102.433330 128.81720
10.76 10.765690 5.70 102.066670 140.0
10.75 10.757560 5.70 101.70 143.333330
10.74 10.748530 5.70 100.10 146.666670
10.73 10.735440 5.70 98.50 150.0
10.72 10.722350 5.666670 100.733330 148.333330
10.71 10.713320 5.633330 102.966670 146.666670
10.70 10.704290 5.60 105.20 154.444440
10.69 10.695260 5.60 104.133330 162.222220
10.68 10.687130 5.60 103.066670 170.0
10.67 10.67810 5.60 102.0 173.333330
10.66 10.665010 5.650 101.750 176.666670
10.65 10.651920 5.70 101.50 157.777780
10.64 10.642890 5.666670 101.866670 138.888890
10.63 10.633860 5.633330 102.233330 120.0
10.62 10.625730 5.60 102.60 136.666670
10.61 10.61670 5.60 102.40 153.333330
10.60 10.607670 5.60 102.20 170.0
10.59 10.594580 5.60 102.0 185.0
10.58 10.581490 5.60 101.80 200.0
10.57 10.572460 5.60 101.60 173.333330
10.56 10.564330 5.60 101.60 146.666670
10.55 10.55530 5.60 101.60 120.0
10.54 10.546280 5.60 101.60 131.111110
10.53 10.537250 5.60 101.20 142.222220
10.52 10.52460 5.60 100.80 153.333330
10.51 10.511060 5.60 102.30 155.0
10.50 10.502930 5.60 103.80 156.666670
10.49 10.493910 5.60 105.30 158.888890
10.48 10.484880 5.60 103.533330 161.111110
10.47 10.475850 5.60 101.766670 163.333330
10.46 10.467720 5.60 100.0 165.555560
10.45 10.458690 5.60 101.30 167.777780
10.44 10.445150 5.60 102.60 170.0
10.43 10.432510 5.566670 103.466670 166.666670
10.42 10.423480 5.533330 104.333330 163.333330
10.41 10.414450 5.50 105.20 154.444440
10.40 10.405420 5.50 104.366670 145.555560
10.39 10.397290 5.50 103.533330 136.666670
10.38 10.388260 5.50 102.70 133.333330
10.37 10.374720 5.550 102.70 130.0
10.36 10.362080 5.60 102.70 142.222220
10.35 10.353050 5.566670 103.033330 154.444440
10.34 10.344020 5.533330 103.366670 166.666670
10.33 10.335890 5.50 103.70 157.777780
10.32 10.326860 5.50 103.133330 148.888890
10.31 10.317830 5.50 102.566670 140.0
10.30 10.304740 5.50 102.0 150.645160
10.29 10.291650 5.50 102.650 161.290320
10.28 10.282620 5.50 103.30 153.082440
10.27 10.273590 5.50 102.966670 144.874550
10.26 10.264560 5.50 102.633330 136.666670
10.25 10.255530 5.50 102.30 140.0
10.24 10.24740 5.50 102.50 143.333330
10.23 10.238370 5.50 102.70 146.666670
10.22 10.224830 5.50 102.40 161.666670
10.21 10.212190 5.50 102.10 176.666670
10.20 10.203160 5.50 101.80 171.111110
10.19 10.194130 5.50 102.0 165.555560
10.18 10.18510 5.50 102.20 160.0
10.17 10.176980 5.50 102.40 160.0
10.16 10.167950 5.450 102.20 160.0
10.15 10.158920 5.40 102.0 160.0
10.14 10.145820 5.40 102.50 160.0
10.13 10.132730 5.40 103.0 160.0
10.12 10.12370 5.40 103.50 168.888890
10.11 10.114670 5.40 103.333330 177.777780
10.10 10.106550 5.40 103.166670 186.666670
10.09 10.097520 5.40 103.0 160.0
10.08 10.088490 5.40 103.250 133.333330
10.07 10.074940 5.40 103.50 141.111110
10.06 10.06140 5.266670 103.30 148.888890
10.05 10.053270 5.133330 103.10 156.666670
10.04 10.044240 5.0 102.90 160.0
10.03 10.035210 5.066670 102.466670 163.333330
10.02 10.026190 5.133330 102.033330 166.666670
10.01 10.018060 5.20 101.60 148.333330
10.00 10.009030 5.250 102.50 130.0
9.99 9.995490 5.30 103.40 144.444440
9.98 9.982840 5.266670 103.20 158.888890
9.97 9.973810 5.233330 103.0 173.333330
9.96 9.964790 5.20 102.80 170.0
9.95 9.955760 5.233330 102.066670 166.666670
9.94 9.947630 5.266670 101.333330 163.333330
9.93 9.93860 5.30 100.60 150.0
9.92 9.925510 5.30 101.150 136.666670
9.91 9.912420 5.30 101.70 146.666670
9.90 9.903390 5.30 102.133330 156.666670
9.89 9.895260 5.30 102.566670 166.666670
9.88 9.886230 5.30 103.0 173.333330
9.87 9.87720 5.30 102.450 180.0
9.86 9.864560 5.30 101.90 170.793650
9.85 9.851020 5.30 102.066670 161.58730
9.84 9.842890 5.30 102.233330 152.380950
9.83 9.833860 5.30 102.40 164.920630
9.82 9.824830 5.30 102.866670 177.460320
9.81 9.81670 5.30 103.333330 190.0
9.80 9.807670 5.30 103.80 180.0
9.79 9.794580 5.30 103.30 170.0
9.78 9.781490 5.30 102.80 172.222220
9.77 9.773360 5.30 102.166670 174.444440
9.76 9.764330 5.30 101.533330 176.666670
9.75 9.75530 5.30 100.90 160.0
9.74 9.747180 5.30 102.066670 143.333330
9.73 9.738150 5.30 103.233330 126.666670
9.72 9.725060 5.30 104.40 145.0
9.71 9.711960 5.30 103.950 163.333330
9.70 9.702930 5.30 103.50 156.666670
9.69 9.694810 5.266670 102.566670 150.0
9.68 9.685780 5.233330 101.633330 143.333330
9.67 9.676750 5.20 100.70 157.777780
9.66 9.668620 5.20 101.70 172.222220
9.65 9.655080 5.20 102.70 186.666670
9.64 9.642440 5.20 103.70 185.0
9.63 9.633410 5.20 103.0 183.333330
9.62 9.624380 5.20 102.30 178.888890
9.61 9.616250 5.20 101.866670 174.444440
9.60 9.607220 5.20 101.433330 170.0
9.59 9.598190 5.20 101.0 170.714290
9.58 9.58510 5.20 102.80 171.428570
9.57 9.572010 5.20 104.60 173.544970
9.56 9.562980 5.20 104.433330 175.661380
9.55 9.553950 5.20 104.266670 177.777780
9.54 9.545820 5.20 104.10 174.074070
9.53 9.536790 5.166670 103.333330 170.370370
9.52 9.527770 5.133330 102.566670 166.666670
9.51 9.514670 5.10 101.80 153.333330
9.50 9.501580 5.10 102.80 140.0
9.49 9.492550 5.10 103.80 143.333330
9.48 9.483520 5.10 103.30 146.666670
9.47 9.474490 5.10 102.80 150.0
9.46 9.466370 5.10 102.30 165.555560
9.45 9.457340 5.10 103.066670 181.111110
9.44 9.448310 5.10 103.833330 196.666670
9.43 9.435210 5.10 104.60 186.428570
9.42 9.422120 5.10 102.350 176.190480
9.41 9.413090 5.10 100.10 182.539680
9.40 9.404970 5.066670 100.733330 188.888890
9.39 9.395940 5.033330 101.366670 195.23810
9.38 9.386910 5.0 102.0 196.82540
9.37 9.377880 5.0 102.60 198.41270
9.36 9.368850 5.0 103.20 200.0
9.35 9.35530 5.0 103.833330 176.666670
9.34 9.341760 5.0 104.466670 153.333330
9.33 9.333630 5.0 105.10 171.111110
9.32 9.32460 5.0 103.566670 188.888890
9.31 9.315580 5.0 102.033330 206.666670
9.30 9.306550 5.0 100.50 190.465950
9.29 9.297520 5.0 101.70 174.265230
9.28 9.284420 5.0 102.90 158.064520
9.27 9.271330 5.0 102.90 149.032260
9.26 9.26230 5.0 102.90 140.0
9.25 9.253270 5.0 102.90 138.888890
9.24 9.245150 5.0 102.466670 137.777780
9.23 9.236120 5.0 102.033330 136.666670
9.22 9.227090 5.0 101.60 132.777780
9.21 9.218060 5.0 101.950 128.888890
9.20 9.204970 5.0 102.30 125.0
9.19 9.191870 5.0 103.033330 157.50
9.18 9.182840 5.0 103.766670 190.0
9.17 9.173810 5.0 104.50 181.111110
9.16 9.164790 5.0 103.566670 172.222220
9.15 9.155760 5.0 102.633330 163.333330
9.14 9.147630 5.0 101.70 176.666670
9.13 9.13860 4.950 101.60 190.0
9.12 9.125060 4.90 101.50 182.222220
9.11 9.111510 4.90 103.033330 174.444440
9.10 9.103390 4.90 104.566670 166.666670
9.09 9.094360 4.90 106.10 176.666670
9.08 9.085330 4.90 104.50 186.666670
9.07 9.07630 4.90 102.90 196.666670
9.06 9.067270 4.90 102.933330 205.0
9.05 9.054630 4.90 102.966670 213.333330
9.04 9.041080 4.90 103.0 194.444440
9.03 9.032960 4.90 103.80 175.555560
9.02 9.023930 4.90 104.60 156.666670
9.01 9.01490 4.90 105.40 160.0
9.00 9.006770 4.90 102.90 163.333330
8.99 8.997740 4.90 100.40 166.666670
8.98 8.984650 4.90 100.833330 163.333330
8.97 8.971560 4.90 101.266670 160.0
8.96 8.962530 4.90 101.70 165.555560
8.95 8.95440 4.90 102.466670 171.111110
8.94 8.945370 4.90 103.233330 176.666670
8.93 8.936340 4.90 104.0 185.0
8.92 8.928220 4.90 103.050 193.333330
8.91 8.915120 4.90 102.10 186.666670
8.90 8.902030 4.90 102.766670 180.0
8.89 8.8930 4.90 103.433330 173.333330
8.88 8.884880 4.90 104.10 164.444440
8.87 8.875850 4.90 103.733330 155.555560
8.86 8.866820 4.90 103.366670 146.666670
8.85 8.858690 4.90 103.0 160.0
8.84 8.845150 4.90 102.850 173.333330
8.83 8.832510 4.90 102.70 166.093190
8.82 8.823480 4.90 103.166670 158.853050
8.81 8.815350 4.90 103.633330 151.61290
8.80 8.806320 4.90 104.10 140.806450
8.79 8.797290 4.866670 103.866670 130.0
8.78 8.784650 4.833330 103.633330 137.777780
8.77 8.771110 4.80 103.40 145.555560
8.76 8.762980 4.850 102.150 153.333330
