~VERSION INFORMATION SECTION
VERS. 2.0 : CWLS LAS-VERSION 2.0
WRAP. NO : One line per depth step
~WELL INFORMATION SECTION
# MNEM.UNIT VALUE/NAME DESCRIPTION
#-------- -------------- ---------------------
STRT.Metres 15 : Start
STOP.Metres 0.51 : Stop
STEP.Metres -0.01 : Step
NULL.  -999.25 :NULL VALUE
DATE. 2025-09-11 : DATE
~CURVE INFORMATION SECTION
DEPTH.Metres : 0 Depth
Depth. : 1 Depth
Incline.Deg : 2 Incline
Azimuth.Deg : 3 Azimuth
GR.CPS : 4 GR
~PARAMETER INFORMATION SECTION
~OTHER
#-------------------------------------------------
#Produced By: GeoVista Logger - Version 7.1.107.0
Natural Gamma Sonde - 6447
Verticality Sonde - 6292
#-------------------------------------------------
~ASCII LOG DATA
# ...
3.74 3.777340 3.423080 93.176920 168.461540
3.73 3.768490 3.469230 93.330770 166.410260
3.72 3.759640 3.515380 93.484620 164.358970
3.71 3.750790 3.561540 93.638460 162.307690
3.70 3.740410 3.607690 93.792310 160.256410
3.69 3.730020 3.653850 93.946150 158.205130
3.68 3.719640 3.70 94.10 156.153850
3.67 3.709260 3.70 94.223080 154.102560
3.66 3.697970 3.70 94.346150 152.051280
3.65 3.686680 3.70 94.469230 150.0
3.64 3.67540 3.70 94.592310 150.277780
3.63 3.664110 3.70 94.715380 150.555560
3.62 3.65350 3.70 94.838460 150.833330
3.61 3.642890 3.70 94.961540 151.111110
3.60 3.632280 3.70 95.084620 151.388890
3.59 3.621670 3.70 95.207690 151.666670
3.58 3.613540 3.70 95.330770 151.944440
3.57 3.605420 3.70 95.453850 152.222220
3.56 3.597290 3.70 95.576920 152.50
3.55 3.589160 3.70 95.70 152.777780
3.54 3.581040 3.70 95.578570 153.055560
3.53 3.569980 3.70 95.457140 153.333330
3.52 3.558920 3.70 95.335710 153.333330
3.51 3.547860 3.70 95.214290 153.333330
3.50 3.536790 3.70 95.092860 153.333330
3.49 3.526190 3.70 94.971430 153.333330
3.48 3.515580 3.70 94.850 153.333330
3.47 3.504970 3.70 94.728570 153.333330
3.46 3.494360 3.70 94.607140 153.333330
3.45 3.486230 3.70 94.485710 153.333330
3.44 3.47810 3.70 94.364290 153.333330
3.43 3.469980 3.70 94.242860 153.333330
3.42 3.461850 3.70 94.121430 153.333330
3.41 3.453720 3.70 94.0 153.333330
3.40 3.442440 3.70 93.941670 153.333330
3.39 3.431150 3.70 93.883330 152.161170
3.38 3.419860 3.70 93.8250 150.989010
3.37 3.408580 3.70 93.766670 149.816850
3.36 3.397970 3.70 93.708330 148.644690
3.35 3.387360 3.70 93.650 147.472530
3.34 3.376750 3.70 93.591670 146.300370
3.33 3.366140 3.70 93.533330 145.128210
3.32 3.357830 3.70 93.4750 143.956040
3.31 3.349530 3.70 93.416670 142.783880
3.30 3.341220 3.70 93.358330 141.611720
3.29 3.332910 3.70 93.30 140.439560
3.28 3.32460 3.653850 93.584620 139.26740
3.27 3.313320 3.607690 93.869230 138.095240
3.26 3.302030 3.561540 94.153850 134.465530
3.25 3.290740 3.515380 94.438460 130.835830
3.24 3.279460 3.469230 94.723080 127.206130
3.23 3.268620 3.423080 95.007690 123.576420
3.22 3.257790 3.376920 95.292310 119.946720
3.21 3.246950 3.330770 95.576920 116.317020
3.20 3.236120 3.284620 95.861540 112.687310
3.19 3.227990 3.238460 96.146150 109.057610
3.18 3.219860 3.192310 96.430770 105.427910
3.17 3.211740 3.146150 96.715380 101.79820
3.16 3.203610 3.10 97.0 98.16850
3.15 3.195490 3.10 96.792310 94.538790
3.14 3.183970 3.10 96.584620 90.909090
3.13 3.172460 3.10 96.376920 94.847260
3.12 3.160950 3.10 96.169230 98.785430
3.11 3.149440 3.10 95.961540 102.723590
3.10 3.138370 3.10 95.753850 106.661760
3.09 3.127310 3.10 95.546150 110.599930
3.08 3.116250 3.10 95.338460 114.538090
3.07 3.105190 3.10 95.130770 118.476260
3.06 3.09670 3.10 94.923080 122.414430
3.05 3.088220 3.10 94.715380 126.352590
3.04 3.079730 3.10 94.507690 130.290760
3.03 3.071240 3.10 94.30 134.228930
3.02 3.062750 3.092310 93.992310 138.16710
3.01 3.051020 3.084620 93.684620 142.105260
3.00 3.039280 3.076920 93.376920 143.225370
2.99 3.027540 3.069230 93.069230 144.345480
2.98 3.01580 3.061540 92.761540 145.465590
2.97 3.005190 3.053850 92.453850 146.58570
2.96 2.994580 3.046150 92.146150 147.70580
2.95 2.983970 3.038460 91.838460 148.825910
2.94 2.973360 3.030770 91.530770 149.946020
2.93 2.965060 3.023080 91.223080 151.066130
2.92 2.956750 3.015380 90.915380 152.186230
2.91 2.948440 3.007690 90.607690 153.306340
2.90 2.940140 3.0 90.30 154.426450
2.89 2.931830 2.946150 90.684620 155.546560
2.88 2.920320 2.892310 91.069230 156.666670
2.87 2.90880 2.838460 91.453850 156.410260
2.86 2.897290 2.784620 91.838460 156.153850
2.85 2.885780 2.730770 92.223080 155.897440
2.84 2.875170 2.676920 92.607690 155.641030
2.83 2.864560 2.623080 92.992310 155.384620
2.82 2.853950 2.569230 93.376920 155.128210
2.81 2.843340 2.515380 93.761540 154.871790
2.80 2.835030 2.461540 94.146150 154.615380
2.79 2.826730 2.407690 94.530770 154.358970
2.78 2.818420 2.353850 94.915380 154.102560
2.77 2.810110 2.30 95.30 153.846150
2.76 2.801810 2.369230 94.769230 153.589740
2.75 2.790290 2.438460 94.238460 153.333330
2.74 2.778780 2.507690 93.707690 152.051280
2.73 2.767270 2.576920 93.176920 150.769230
2.72 2.755760 2.646150 92.646150 149.487180
2.71 2.745150 2.715380 92.115380 148.205130
2.70 2.734540 2.784620 91.584620 146.923080
2.69 2.723930 2.853850 91.053850 145.641030
2.68 2.713320 2.923080 90.523080 144.358970
2.67 2.705010 2.992310 89.992310 143.076920
2.66 2.69670 3.061540 89.461540 141.794870
2.65 2.68840 3.130770 88.930770 140.512820
2.64 2.680090 3.20 88.40 139.230770
2.63 2.671780 3.184620 88.753850 137.948720
2.62 2.66050 3.169230 89.107690 136.666670
2.61 2.649210 3.153850 89.461540 137.568240
2.60 2.637920 3.138460 89.815380 138.469810
2.59 2.626640 3.123080 90.169230 139.371380
2.58 2.61580 3.107690 90.523080 140.272950
2.57 2.604970 3.092310 90.876920 141.174520
2.56 2.594130 3.076920 91.230770 142.07610
2.55 2.58330 3.061540 91.584620 142.977670
2.54 2.574990 3.046150 91.938460 143.879240
2.53 2.566680 3.030770 92.292310 144.780810
2.52 2.558370 3.015380 92.646150 145.682380
2.51 2.550070 3.0 93.0 146.583950
2.50 2.541760 2.976920 92.369230 147.485530
2.49 2.530470 2.953850 91.738460 148.38710
2.48 2.519190 2.930770 91.107690 150.818860
2.47 2.50790 2.907690 90.476920 153.250620
2.46 2.496610 2.884620 89.846150 155.682380
2.45 2.486230 2.861540 89.215380 158.114140
2.44 2.475850 2.838460 88.584620 160.545910
2.43 2.465460 2.815380 87.953850 162.977670
2.42 2.455080 2.792310 87.323080 165.409430
2.41 2.444920 2.769230 86.692310 167.841190
2.40 2.434760 2.746150 86.061540 170.272950
2.39 2.42460 2.723080 85.430770 172.704710
2.38 2.414450 2.70 84.80 175.136480
2.37 2.40560 2.723080 85.346150 177.568240
2.36 2.396750 2.746150 85.892310 180.0
2.35 2.38790 2.769230 86.438460 177.692310
2.34 2.379050 2.792310 86.984620 175.384620
2.33 2.37020 2.815380 87.530770 173.076920
2.32 2.359590 2.838460 88.076920 170.769230
2.31 2.348980 2.861540 88.623080 168.461540
2.30 2.338370 2.884620 89.169230 166.153850
2.29 2.327770 2.907690 89.715380 163.846150
2.28 2.317380 2.930770 90.261540 161.538460
2.27 2.3070 2.953850 90.807690 159.230770
2.26 2.296610 2.976920 91.353850 156.923080
2.25 2.286230 3.0 91.90 154.615380
2.24 2.27720 2.992310 92.353850 152.307690
2.23 2.268170 2.984620 92.807690 150.0
2.22 2.259140 2.976920 93.261540 147.692310
2.21 2.250110 2.969230 93.715380 145.384620
2.20 2.241080 2.961540 94.169230 143.076920
2.19 2.230250 2.953850 94.623080 140.769230
2.18 2.219410 2.946150 95.076920 138.461540
2.17 2.208580 2.938460 95.530770 136.153850
2.16 2.197740 2.930770 95.984620 133.846150
2.15 2.187360 2.923080 96.438460 131.538460
2.14 2.176980 2.915380 96.892310 129.230770
2.13 2.166590 2.907690 97.346150 126.923080
2.12 2.156210 2.90 97.80 124.615380
2.11 2.147180 2.884620 97.607690 122.307690
2.10 2.138150 2.869230 97.415380 120.0
2.09 2.129120 2.853850 97.223080 120.256410
2.08 2.120090 2.838460 97.030770 120.512820
2.07 2.111060 2.823080 96.838460 120.769230
2.06 2.100680 2.807690 96.646150 121.025640
2.05 2.090290 2.792310 96.453850 121.282050
2.04 2.079910 2.776920 96.261540 121.538460
2.03 2.069530 2.761540 96.069230 121.794870
2.02 2.059590 2.746150 95.876920 122.051280
2.01 2.049660 2.730770 95.684620 122.307690
2.00 2.039730 2.715380 95.492310 122.56410
1.99 2.02980 2.70 95.30 122.820510
1.98 2.019190 2.638460 95.623080 123.076920
1.97 2.008580 2.576920 95.946150 123.333330
1.96 1.997970 2.515380 96.269230 125.897440
1.95 1.987360 2.453850 96.592310 128.461540
1.94 1.974420 2.392310 96.915380 131.025640
1.93 1.961470 2.330770 97.238460 133.589740
1.92 1.948530 2.269230 97.561540 136.153850
1.91 1.939280 2.207690 97.884620 138.717950
1.90 1.930020 2.146150 98.207690 141.282050
1.89 1.920770 2.084620 98.530770 143.846150
1.88 1.911510 2.023080 98.853850 146.410260
1.87 1.901580 1.961540 99.176920 148.974360
1.86 1.891650 1.90 99.50 151.538460
1.85 1.881720 1.941670 98.366670 154.102560
1.84 1.871780 1.983330 97.233330 156.666670
