~VERSION INFORMATION SECTION
VERS. 2.0 : CWLS LAS-VERSION 2.0
WRAP. NO : One line per depth step
~WELL INFORMATION SECTION
# MNEM.UNIT VALUE/NAME DESCRIPTION
#-------- -------------- ---------------------
STRT.Metres 15 : Start
STOP.Metres 0.51 : Stop
STEP.Metres -0.01 : Step
NULL.  -999.25 :NULL VALUE
DATE. 2025-09-11 : DATE
~CURVE INFORMATION SECTION
DEPTH.Metres : 0 Depth
Depth. : 1 Depth
Incline.Deg : 2 Incline
Azimuth.Deg : 3 Azimuth
GR.CPS : 4 GR
~PARAMETER INFORMATION SECTION
~OTHER
#-------------------------------------------------
#Produced By: GeoVista Logger - Version 7.1.107.0
Natural Gamma Sonde - 6447
Verticality Sonde - 6292
#-------------------------------------------------
~ASCII LOG DATA
# ...
1.83 1.862530 2.0250 96.10 156.923080
1.82 1.853270 2.066670 94.966670 157.179490
1.81 1.844020 2.108330 93.833330 157.43590
1.80 1.834760 2.150 92.70 157.692310
1.79 1.825730 2.191670 91.566670 157.948720
1.78 1.81670 2.233330 90.433330 158.205130
1.77 1.807670 2.2750 89.30 158.461540
1.76 1.798650 2.316670 88.166670 158.717950
1.75 1.78540 2.358330 87.033330 158.974360
1.74 1.772160 2.40 85.90 159.230770
1.73 1.758920 2.3750 87.850 159.487180
1.72 1.749660 2.350 89.80 159.743590
1.71 1.740410 2.3250 91.750 160.0
1.70 1.731150 2.30 93.70 159.230770
1.69 1.72190 2.2750 95.650 158.461540
1.68 1.712870 2.250 97.60 157.692310
1.67 1.703840 2.2250 99.550 156.923080
1.66 1.694810 2.20 101.50 156.153850
1.65 1.685780 2.1750 103.450 155.384620
1.64 1.675850 2.150 105.40 154.615380
1.63 1.665910 2.1250 107.350 153.846150
1.62 1.655980 2.10 109.30 153.076920
1.61 1.646050 2.10 108.265220 152.307690
1.60 1.633710 2.10 107.230430 151.538460
1.59 1.621370 2.10 106.195650 150.769230
1.58 1.609030 2.10 105.160870 150.0
1.57 1.60 2.10 104.126090 152.820510
1.56 1.590970 2.10 103.09130 155.641030
1.55 1.581940 2.10 102.056520 158.461540
1.54 1.572910 2.10 101.021740 161.282050
1.53 1.560270 2.10 99.986960 164.102560
1.52 1.547630 2.10 98.952170 166.923080
1.51 1.534990 2.10 97.917390 169.743590
1.50 1.524450 2.10 96.882610 172.56410
1.49 1.513920 2.10 95.847830 175.384620
1.48 1.503390 2.10 94.813040 178.205130
1.47 1.490740 2.10 93.778260 181.025640
1.46 1.47810 2.10 92.743480 183.846150
1.45 1.457340 2.10 91.70870 186.666670
1.44 1.441990 2.10 90.673910 187.948720
1.43 1.430250 2.10 89.639130 189.230770
1.42 1.420320 2.10 88.604350 190.512820
1.41 1.413090 2.10 87.569570 191.794870
1.40 1.405420 2.10 86.534780 193.076920
1.39 1.3940 2.10 85.50 194.358970
1.38 -999.25 2.072730 88.090910 195.641030
1.37 -999.25 2.045450 90.681820 196.923080
1.36 -999.25 2.018180 93.272730 198.205130
1.35 -999.25 1.990910 95.863640 199.487180
1.34 -999.25 1.963640 98.454550 200.769230
1.33 -999.25 1.936360 101.045450 202.051280
1.32 -999.25 1.909090 103.636360 203.333330
1.31 -999.25 1.881820 106.227270 202.222220
1.30 -999.25 1.854550 108.818180 201.111110
1.29 -999.25 1.827270 111.409090 200.0
1.28 -999.25 1.80 114.0 198.888890
1.27 -999.25 1.780 113.720 197.777780
1.26 -999.25 1.760 113.440 196.666670
1.25 -999.25 1.740 113.160 195.555560
1.24 -999.25 1.720 112.880 194.444440
1.23 -999.25 1.70 112.60 193.333330
1.22 -999.25 1.680 112.320 192.222220
1.21 -999.25 1.660 112.040 191.111110
1.20 -999.25 1.640 111.760 190.0
1.19 -999.25 1.620 111.480 191.538460
1.18 -999.25 1.60 111.20 193.076920
1.17 -999.25 1.50 109.5250 194.615380
1.16 -999.25 1.40 107.850 196.153850
1.15 -999.25 1.30 106.1750 197.692310
1.14 -999.25 1.20 104.50 199.230770
1.13 -999.25 1.30 108.233330 200.769230
1.12 -999.25 1.40 111.966670 202.307690
1.11 -999.25 1.50 115.70 203.846150
1.10 -999.25 1.50 122.10 205.384620
1.09 -999.25 1.60 121.30 206.923080
1.08 -999.25 -999.25 -999.25 208.461540
1.07 -999.25 -999.25 -999.25 210.0
1.06 -999.25 -999.25 -999.25 202.121210
1.05 -999.25 -999.25 -999.25 194.242420
1.04 -999.25 -999.25 -999.25 186.363640
1.03 -999.25 -999.25 -999.25 178.484850
1.02 -999.25 -999.25 -999.25 170.606060
1.01 -999.25 -999.25 -999.25 162.727270
1.00 -999.25 -999.25 -999.25 154.848480
0.99 -999.25 -999.25 -999.25 146.96970
0.98 -999.25 -999.25 -999.25 139.090910
0.97 -999.25 -999.25 -999.25 131.212120
0.96 -999.25 -999.25 -999.25 123.333330
0.95 -999.25 -999.25 -999.25 125.757580
0.94 -999.25 -999.25 -999.25 128.181820
0.93 -999.25 -999.25 -999.25 130.606060
0.92 -999.25 -999.25 -999.25 133.03030
0.91 -999.25 -999.25 -999.25 135.454550
0.90 -999.25 -999.25 -999.25 137.878790
0.89 -999.25 -999.25 -999.25 140.303030
0.88 -999.25 -999.25 -999.25 142.727270
0.87 -999.25 -999.25 -999.25 145.151520
0.86 -999.25 -999.25 -999.25 147.575760
0.85 -999.25 -999.25 -999.25 150.0
0.84 -999.25 -999.25 -999.25 148.106060
0.83 -999.25 -999.25 -999.25 146.212120
0.82 -999.25 -999.25 -999.25 144.318180
0.81 -999.25 -999.25 -999.25 142.424240
0.80 -999.25 -999.25 -999.25 140.53030
0.79 -999.25 -999.25 -999.25 138.636360
0.78 -999.25 -999.25 -999.25 136.742420
0.77 -999.25 -999.25 -999.25 134.848480
0.76 -999.25 -999.25 -999.25 132.954550
0.75 -999.25 -999.25 -999.25 131.060610
0.74 -999.25 -999.25 -999.25 129.166670
0.73 -999.25 -999.25 -999.25 127.272730
0.72 -999.25 -999.25 -999.25 129.808610
0.71 -999.25 -999.25 -999.25 132.34450
0.70 -999.25 -999.25 -999.25 134.880380
0.69 -999.25 -999.25 -999.25 137.416270
0.68 -999.25 -999.25 -999.25 139.952150
0.67 -999.25 -999.25 -999.25 142.488040
0.66 -999.25 -999.25 -999.25 145.023920
0.65 -999.25 -999.25 -999.25 147.559810
0.64 -999.25 -999.25 -999.25 150.095690
0.63 -999.25 -999.25 -999.25 152.631580
0.62 -999.25 -999.25 -999.25 156.081870
0.61 -999.25 -999.25 -999.25 159.532160
0.60 -999.25 -999.25 -999.25 162.982460
0.59 -999.25 -999.25 -999.25 166.432750
0.58 -999.25 -999.25 -999.25 169.883040
0.57 -999.25 -999.25 -999.25 173.333330
0.56 -999.25 -999.25 -999.25 170.0
0.55 -999.25 -999.25 -999.25 166.666670
0.54 -999.25 -999.25 -999.25 163.333330
0.53 -999.25 -999.25 -999.25 114.285710
0.52 -999.25 -999.25 -999.25 150.0
0.51 -999.25 -999.25 -999.25 158.333330
