~VERSION INFORMATION SECTION
VERS. 2.0 : CWLS LAS-VERSION 2.0
WRAP. NO : One line per depth step
~WELL INFORMATION SECTION
# MNEM.UNIT VALUE/NAME DESCRIPTION
#-------- -------------- ---------------------
STRT.Metres 15 : Start
STOP.Metres 0.51 : Stop
STEP.Metres -0.01 : Step
NULL.  -999.25 :NULL VALUE
DATE. 2025-09-11 : DATE
~CURVE INFORMATION SECTION
DEPTH.Metres : 0 Depth
Depth. : 1 Depth
Incline.Deg : 2 Incline
Azimuth.Deg : 3 Azimuth
GR.CPS : 4 GR
~PARAMETER INFORMATION SECTION
~OTHER
#-------------------------------------------------
#Produced By: GeoVista Logger - Version 7.1.107.0
Natural Gamma Sonde - 6447
Verticality Sonde - 6292
#-------------------------------------------------
~ASCII LOG DATA
# ...
5.67 5.704060 3.430770 94.369230 161.282050
5.66 5.693450 3.376920 94.323080 160.256410
5.65 5.682840 3.323080 94.276920 159.230770
5.64 5.672230 3.269230 94.230770 158.205130
5.63 5.664110 3.215380 94.184620 157.179490
5.62 5.655980 3.161540 94.138460 156.153850
5.61 5.647860 3.107690 94.092310 155.128210
5.60 5.639730 3.053850 94.046150 154.102560
5.59 5.63160 3.0 94.0 153.076920
5.58 5.620320 3.10 93.566670 152.051280
5.57 5.609030 3.20 93.133330 151.025640
5.56 5.597740 3.30 92.70 150.0
5.55 5.586460 3.40 92.266670 148.461540
5.54 5.575850 3.50 91.833330 146.923080
5.53 5.565240 3.60 91.40 145.384620
5.52 5.554630 3.70 90.966670 143.846150
5.51 5.544020 3.80 90.533330 142.307690
5.50 5.535890 3.90 90.10 140.769230
5.49 5.527770 4.0 89.666670 139.230770
5.48 5.519640 4.10 89.233330 137.692310
5.47 5.511510 4.20 88.80 136.153850
5.46 5.503390 4.153850 89.353850 134.615380
5.45 5.492330 4.107690 89.907690 133.076920
5.44 5.481260 4.061540 90.461540 131.538460
5.43 5.47020 4.015380 91.015380 130.0
5.42 5.459140 3.969230 91.569230 131.666670
5.41 5.448760 3.923080 92.123080 133.333330
5.40 5.438370 3.876920 92.676920 135.0
5.39 5.427990 3.830770 93.230770 136.666670
5.38 5.417610 3.784620 93.784620 138.333330
5.37 5.407450 3.738460 94.338460 140.0
5.36 5.397290 3.692310 94.892310 141.666670
5.35 5.387130 3.646150 95.446150 143.333330
5.34 5.376980 3.60 96.0 145.0
5.33 5.365690 3.515380 95.369230 146.666670
5.32 5.35440 3.430770 94.738460 148.333330
5.31 5.343120 3.346150 94.107690 150.0
5.30 5.331830 3.261540 93.476920 150.512820
5.29 5.321440 3.176920 92.846150 151.025640
5.28 5.311060 3.092310 92.215380 151.538460
5.27 5.300680 3.007690 91.584620 152.051280
5.26 5.290290 2.923080 90.953850 152.56410
5.25 5.282350 2.838460 90.323080 153.076920
5.24 5.27440 2.753850 89.692310 153.589740
5.23 5.266460 2.669230 89.061540 154.102560
5.22 5.258510 2.584620 88.430770 154.615380
5.21 5.250560 2.50 87.80 155.128210
5.20 5.239280 2.523080 87.953850 155.641030
5.19 5.227990 2.546150 88.107690 156.153850
5.18 5.21670 2.569230 88.261540 156.666670
5.17 5.205420 2.592310 88.415380 158.205130
5.16 5.195030 2.615380 88.569230 159.743590
5.15 5.184650 2.638460 88.723080 161.282050
5.14 5.174270 2.661540 88.876920 162.820510
5.13 5.163880 2.684620 89.030770 164.358970
5.12 5.155760 2.707690 89.184620 165.897440
5.11 5.147630 2.730770 89.338460 167.43590
5.10 5.13950 2.753850 89.492310 168.974360
5.09 5.131380 2.776920 89.646150 170.512820
5.08 5.123250 2.80 89.80 172.051280
5.07 5.112190 2.833330 89.733330 173.589740
5.06 5.101130 2.866670 89.666670 175.128210
5.05 5.090070 2.90 89.60 176.666670
5.04 5.079010 2.933330 89.533330 176.998210
5.03 5.06840 2.966670 89.466670 177.329750
5.02 5.057790 3.0 89.40 177.661290
5.01 5.047180 3.033330 89.333330 177.992830
5.00 5.036570 3.066670 89.266670 178.324370
4.99 5.026410 3.10 89.20 178.655910
4.98 5.016250 3.133330 89.133330 178.987460
4.97 5.006090 3.166670 89.066670 179.3190
4.96 4.995940 3.20 89.0 179.650540
4.95 4.986910 3.205130 89.166670 179.982080
4.94 4.977880 3.210260 89.333330 180.313620
4.93 4.968850 3.215380 89.50 180.645160
4.92 4.959820 3.220510 89.666670 179.313480
4.91 4.950790 3.225640 89.833330 177.98180
4.90 4.939950 3.230770 90.0 176.650120
4.89 4.929120 3.23590 90.166670 175.318440
4.88 4.918280 3.241030 90.333330 173.986770
4.87 4.907450 3.246150 90.50 172.655090
4.86 4.897290 3.251280 90.666670 171.323410
4.85 4.887130 3.256410 90.833330 169.991730
4.84 4.876980 3.261540 91.0 168.660050
4.83 4.866820 3.266670 91.166670 167.328370
4.82 4.857790 3.271790 91.333330 165.996690
4.81 4.848760 3.276920 91.50 164.665010
4.80 4.839730 3.282050 91.666670 163.333330
4.79 4.83070 3.287180 91.833330 163.589740
4.78 4.821670 3.292310 92.0 163.846150
4.77 4.811060 3.297440 92.166670 164.102560
4.76 4.800450 3.302560 92.333330 164.358970
4.75 4.789840 3.307690 92.50 164.615380
4.74 4.779230 3.312820 92.666670 164.871790
4.73 4.76930 3.317950 92.833330 165.128210
4.72 4.759370 3.323080 93.0 165.384620
4.71 4.749440 3.328210 93.166670 165.641030
4.70 4.73950 3.333330 93.333330 165.897440
4.69 4.728440 3.338460 93.50 166.153850
4.68 4.717380 3.343590 93.666670 166.410260
4.67 4.706320 3.348720 93.833330 166.666670
4.66 4.695260 3.353850 94.0 166.410260
4.65 4.684880 3.358970 94.166670 166.153850
4.64 4.674490 3.36410 94.333330 165.897440
4.63 4.664110 3.369230 94.50 165.641030
4.62 4.653720 3.374360 94.666670 165.384620
4.61 4.64560 3.379490 94.833330 165.128210
4.60 4.637470 3.384620 95.0 164.871790
4.59 4.629350 3.389740 95.166670 164.615380
4.58 4.621220 3.394870 95.333330 164.358970
4.57 4.613090 3.40 95.50 164.102560
4.56 4.602030 3.361540 95.423080 163.846150
4.55 4.590970 3.323080 95.346150 163.589740
4.54 4.579910 3.284620 95.269230 163.333330
4.53 4.568850 3.246150 95.192310 161.944440
4.52 4.558470 3.207690 95.115380 160.555560
4.51 4.548080 3.169230 95.038460 159.166670
4.50 4.53770 3.130770 94.961540 157.777780
4.49 4.527310 3.092310 94.884620 156.388890
4.48 4.517160 3.053850 94.807690 155.0
4.47 4.5070 3.015380 94.730770 153.611110
4.46 4.496840 2.976920 94.653850 152.222220
4.45 4.486680 2.938460 94.576920 150.833330
4.44 4.475620 2.90 94.50 149.444440
4.43 4.464560 2.850 93.708330 148.055560
4.42 4.45350 2.80 92.916670 146.666670
4.41 4.442440 2.750 92.1250 144.358970
4.40 4.432050 2.70 91.333330 142.051280
4.39 4.421670 2.650 90.541670 139.743590
4.38 4.411290 2.60 89.750 137.43590
4.37 4.40090 2.550 88.958330 135.128210
4.36 4.392780 2.50 88.166670 132.820510
4.35 4.384650 2.450 87.3750 130.512820
4.34 4.376520 2.40 86.583330 128.205130
4.33 4.36840 2.350 85.791670 125.897440
4.32 4.360270 2.30 85.0 123.589740
4.31 4.349210 2.40 85.915380 121.282050
4.30 4.338150 2.50 86.830770 118.974360
4.29 4.327090 2.60 87.746150 116.666670
4.28 4.316030 2.70 88.661540 118.974360
4.27 4.305640 2.80 89.576920 121.282050
4.26 4.295260 2.90 90.492310 123.589740
4.25 4.284880 3.0 91.407690 125.897440
4.24 4.274490 3.10 92.323080 128.205130
4.23 4.266190 3.20 93.238460 130.512820
4.22 4.257880 3.30 94.153850 132.820510
4.21 4.249570 3.40 95.069230 135.128210
4.20 4.241260 3.50 95.984620 137.43590
4.19 4.232960 3.60 96.90 139.743590
4.18 4.221440 3.60 96.866670 142.051280
4.17 4.209930 3.60 96.833330 144.358970
4.16 4.198420 3.60 96.80 146.666670
4.15 4.186910 3.60 96.766670 151.538460
4.14 4.17630 3.60 96.733330 156.410260
4.13 4.165690 3.60 96.70 161.282050
4.12 4.155080 3.60 96.666670 166.153850
4.11 4.144470 3.60 96.633330 171.025640
4.10 4.136160 3.60 96.60 175.897440
4.09 4.127860 3.60 96.566670 180.769230
4.08 4.119550 3.60 96.533330 185.641030
4.07 4.111240 3.60 96.50 190.512820
4.06 4.102930 3.580770 96.330770 195.384620
4.05 4.091420 3.561540 96.161540 200.256410
4.04 4.079910 3.542310 95.992310 205.128210
4.03 4.06840 3.523080 95.823080 210.0
4.02 4.056880 3.503850 95.653850 200.769230
4.01 4.046050 3.484620 95.484620 191.538460
4.00 4.035210 3.465380 95.315380 182.307690
3.99 4.024380 3.446150 95.146150 173.076920
3.98 4.013540 3.426920 94.976920 163.846150
3.97 4.005240 3.407690 94.807690 154.615380
3.96 3.996930 3.388460 94.638460 145.384620
3.95 3.988620 3.369230 94.469230 136.153850
3.94 3.980320 3.350 94.30 126.923080
3.93 3.972010 3.330770 94.130770 117.692310
3.92 3.96050 3.311540 93.961540 108.461540
3.91 3.948980 3.292310 93.792310 99.230770
3.90 3.937470 3.273080 93.623080 90.0
3.89 3.925960 3.253850 93.453850 97.222220
3.88 3.915120 3.234620 93.284620 104.444440
3.87 3.904290 3.215380 93.115380 111.666670
3.86 3.893450 3.196150 92.946150 118.888890
3.85 3.882620 3.176920 92.776920 126.111110
3.84 3.874130 3.157690 92.607690 133.333330
3.83 3.865640 3.138460 92.438460 140.555560
3.82 3.857160 3.119230 92.269230 147.777780
3.81 3.848670 3.10 92.10 155.0
3.80 3.840180 3.146150 92.253850 162.222220
3.79 3.828890 3.192310 92.407690 169.444440
3.78 3.817610 3.238460 92.561540 176.666670
3.77 3.806320 3.284620 92.715380 174.615380
3.76 3.795030 3.330770 92.869230 172.56410
3.75 3.786190 3.376920 93.023080 170.512820
