~VERSION INFORMATION SECTION
VERS. 2.0 : CWLS LAS-VERSION 2.0
WRAP. NO : One line per depth step
~WELL INFORMATION SECTION
# MNEM.UNIT VALUE/NAME DESCRIPTION
#-------- -------------- ---------------------
STRT.Metres 15 : Start
STOP.Metres 0.43 : Stop
STEP.Metres -0.01 : Step
NULL.  -999.25 :NULL VALUE
DATE. 2025-07-11 : DATE
~CURVE INFORMATION SECTION
DEPTH.Metres : 0 Depth
Depth. : 1 Depth
Incline.Deg : 2 Incline
Azimuth.Deg : 3 Azimuth
GR.CPS : 4 GR
~PARAMETER INFORMATION SECTION
~OTHER
#-------------------------------------------------
#Produced By: GeoVista Logger - Version 7.1.107.0
Natural Gamma Sonde - 6447
Verticality Sonde - 6292
#-------------------------------------------------
~ASCII LOG DATA
# ...
7.21 7.230250 4.085710 96.442860 120.952380
7.20 7.218060 4.214290 98.157140 116.666670
7.19 7.209930 4.342860 99.871430 124.76190
7.18 7.201810 4.471430 101.585710 132.857140
7.17 7.193680 4.60 103.30 140.952380
7.16 7.181490 4.60 103.48750 149.047620
7.15 7.16930 4.60 103.6750 157.142860
7.14 7.157110 4.60 103.86250 165.23810
7.13 7.144920 4.60 104.050 173.333330
7.12 7.136790 4.60 104.23750 172.083330
7.11 7.128670 4.60 104.4250 170.833330
7.10 7.120540 4.60 104.61250 169.583330
7.09 7.108350 4.60 104.80 168.333330
7.08 7.096160 4.614290 104.185710 167.083330
7.07 7.088040 4.628570 103.571430 165.833330
7.06 7.079910 4.642860 102.957140 164.583330
7.05 7.071780 4.657140 102.342860 163.333330
7.04 7.059590 4.671430 101.728570 168.095240
7.03 7.04740 4.685710 101.114290 172.857140
7.02 7.039580 4.70 100.50 177.619050
7.01 7.031750 4.685710 101.10 182.380950
7.00 7.023930 4.671430 101.70 187.142860
6.99 7.011740 4.657140 102.30 191.904760
6.98 6.999550 4.642860 102.90 196.666670
6.97 6.987360 4.628570 103.50 192.857140
6.96 6.975170 4.614290 104.10 189.047620
6.95 6.967340 4.60 104.70 185.23810
6.94 6.959520 4.58750 104.1250 181.428570
6.93 6.951690 4.5750 103.550 177.619050
6.92 6.93950 4.56250 102.9750 173.809520
6.91 6.927310 4.550 102.40 170.0
6.90 6.919190 4.53750 101.8250 171.904760
6.89 6.911060 4.5250 101.250 173.809520
6.88 6.902930 4.51250 100.6750 175.714290
6.87 6.890740 4.50 100.10 177.619050
6.86 6.878560 4.485710 99.757140 179.523810
6.85 6.870430 4.471430 99.414290 181.428570
6.84 6.86230 4.457140 99.071430 183.333330
6.83 6.854180 4.442860 98.728570 174.529570
6.82 6.841530 4.428570 98.385710 165.725810
6.81 6.828890 4.414290 98.042860 156.922040
6.80 6.81670 4.40 97.70 148.118280
6.79 6.804510 4.40 98.614290 139.314520
6.78 6.796390 4.40 99.528570 130.510750
6.77 6.788260 4.40 100.442860 121.706990
6.76 6.780140 4.40 101.357140 112.903230
6.75 6.771710 4.40 102.271430 123.917050
6.74 6.763280 4.40 103.185710 134.930880
6.73 6.754850 4.40 104.10 145.94470
6.72 6.742210 4.40 104.086670 156.958530
6.71 6.729570 4.40 104.073330 167.972350
6.70 6.721440 4.40 104.060 178.986180
6.69 6.713320 4.40 104.046670 190.0
6.68 6.705190 4.40 104.033330 186.250
6.67 6.692550 4.40 104.020 182.50
6.66 6.679910 4.40 104.006670 178.750
6.65 6.667720 4.40 103.993330 175.0
6.64 6.655530 4.40 103.980 171.250
6.63 6.64710 4.40 103.966670 167.50
6.62 6.638680 4.40 103.953330 163.750
6.61 6.630250 4.40 103.940 160.0
6.60 6.618060 4.40 103.926670 160.476190
6.59 6.605870 4.40 103.913330 160.952380
6.58 6.597740 4.40 103.90 161.428570
6.57 6.589620 4.40 103.785710 161.904760
6.56 6.581490 4.40 103.671430 162.380950
6.55 6.568850 4.40 103.557140 162.857140
6.54 6.556210 4.40 103.442860 163.333330
6.53 6.547780 4.40 103.328570 165.714290
6.52 6.539350 4.40 103.214290 168.095240
6.51 6.530930 4.40 103.10 170.476190
6.50 6.518740 4.40 102.250 172.857140
6.49 6.506550 4.40 101.40 175.23810
6.48 6.498120 4.40 100.550 177.619050
6.47 6.489690 4.40 99.70 180.0
6.46 6.481260 4.40 98.850 176.250
6.45 6.469070 4.40 98.0 172.50
6.44 6.456880 4.40 97.150 168.750
6.43 6.448460 4.40 96.30 165.0
6.42 6.440030 4.40 96.314290 161.250
6.41 6.43160 4.40 96.328570 157.50
6.40 6.419410 4.40 96.342860 153.750
6.39 6.407220 4.40 96.357140 150.0
6.38 6.39880 4.40 96.371430 152.857140
6.37 6.390370 4.40 96.385710 155.714290
6.36 6.381940 4.40 96.40 158.571430
6.35 6.369750 4.40 96.414290 161.428570
6.34 6.357560 4.40 96.428570 164.285710
6.33 6.349130 4.40 96.442860 167.142860
6.32 6.340710 4.40 96.457140 170.0
6.31 6.332280 4.40 96.471430 166.666670
6.30 6.320090 4.40 96.485710 163.333330
6.29 6.30790 4.40 96.50 160.0
6.28 6.299770 4.40 96.773330 156.666670
6.27 6.291650 4.40 97.046670 153.333330
6.26 6.283520 4.40 97.320 150.0
6.25 6.271330 4.40 97.593330 146.666670
6.24 6.259140 4.40 97.866670 147.916670
6.23 6.250710 4.40 98.140 149.166670
6.22 6.242290 4.40 98.413330 150.416670
6.21 6.233860 4.40 98.686670 151.666670
6.20 6.221670 4.40 98.960 152.916670
6.19 6.209480 4.40 99.233330 154.166670
6.18 6.201350 4.40 99.506670 155.416670
6.17 6.193230 4.40 99.780 156.666670
6.16 6.18510 4.40 100.053330 160.952380
6.15 6.172460 4.40 100.326670 165.23810
6.14 6.159820 4.40 100.60 169.523810
6.13 6.147630 4.3750 100.26250 173.809520
6.12 6.135440 4.350 99.9250 178.095240
6.11 6.127310 4.3250 99.58750 182.380950
6.10 6.119190 4.30 99.250 186.666670
6.09 6.111060 4.2750 98.91250 184.285710
6.08 6.098420 4.250 98.5750 181.904760
6.07 6.085780 4.2250 98.23750 179.523810
6.06 6.077650 4.20 97.90 177.142860
6.05 6.069530 4.185710 97.971430 174.76190
6.04 6.06140 4.171430 98.042860 172.380950
6.03 6.049210 4.157140 98.114290 170.0
6.02 6.037020 4.142860 98.185710 163.750
6.01 6.028590 4.128570 98.257140 157.50
6.00 6.020170 4.114290 98.328570 151.250
5.99 6.011740 4.10 98.40 145.0
5.98 5.999550 4.10 98.20 138.750
5.97 5.987360 4.10 98.0 132.50
5.96 5.978930 4.10 97.80 126.250
5.95 5.97050 4.10 97.60 120.0
5.94 5.962080 4.10 97.40 133.015870
5.93 5.949890 4.10 97.20 146.031750
5.92 5.93770 4.10 97.0 159.047620
5.91 5.929270 4.10 96.80 172.063490
5.90 5.920840 4.10 96.60 185.079370
5.89 5.912420 4.10 96.40 198.095240
5.88 5.900230 4.10 96.20 211.111110
5.87 5.888040 4.10 96.0 198.095240
5.86 5.879910 4.10 95.80 185.079370
5.85 5.871780 4.10 95.60 172.063490
5.84 5.863660 4.10 95.40 159.047620
5.83 5.851470 4.014290 94.914290 146.031750
5.82 5.839280 3.928570 94.428570 133.015870
5.81 5.827090 3.842860 93.942860 120.0
5.80 5.81490 3.757140 93.457140 126.666670
5.79 5.806770 3.671430 92.971430 133.333330
5.78 5.798650 3.585710 92.485710 140.0
5.77 5.790520 3.50 92.0 146.666670
5.76 5.778330 3.58750 93.60 153.333330
5.75 5.766140 3.6750 95.20 160.0
5.74 5.757710 3.76250 96.80 166.666670
5.73 5.749290 3.850 98.40 173.333330
5.72 5.740860 3.93750 100.0 168.051950
5.71 5.728670 4.0250 101.60 162.770560
5.70 5.716480 4.11250 103.20 157.489180
5.69 5.708350 4.20 104.80 152.207790
5.68 5.700230 4.214290 103.971430 146.926410
5.67 5.69210 4.228570 103.142860 141.645020
5.66 5.679460 4.242860 102.314290 136.363640
5.65 5.666820 4.257140 101.485710 135.765550
5.64 5.658390 4.271430 100.657140 135.167460
5.63 5.649960 4.285710 99.828570 134.569380
5.62 5.641530 4.30 99.0 133.971290
5.61 5.629350 4.23750 98.88750 133.373210
5.60 5.617160 4.1750 98.7750 132.775120
5.59 5.608730 4.11250 98.66250 132.177030
5.58 5.60030 4.050 98.550 131.578950
5.57 5.591870 3.98750 98.43750 138.755980
5.56 5.579680 3.9250 98.3250 145.933010
5.55 5.567490 3.86250 98.21250 153.110050
5.54 5.559070 3.80 98.10 160.287080
5.53 5.550640 3.80 98.357140 167.464110
5.52 5.542210 3.80 98.614290 174.641150
5.51 5.530020 3.80 98.871430 181.818180
5.50 5.517830 3.80 99.128570 173.564590
5.49 5.509410 3.80 99.385710 165.3110
5.48 5.500980 3.80 99.642860 157.057420
5.47 5.492550 3.80 99.90 148.803830
5.46 5.480360 3.814290 99.028570 140.550240
5.45 5.468170 3.828570 98.157140 132.296650
5.44 5.460050 3.842860 97.285710 124.043060
5.43 5.451920 3.857140 96.414290 115.789470
5.42 5.443790 3.871430 95.542860 124.248120
5.41 5.43160 3.885710 94.671430 132.706770
5.40 5.419410 3.90 93.80 141.165410
5.39 5.411290 3.86250 93.41250 149.624060
5.38 5.403160 3.8250 93.0250 158.082710
5.37 5.395030 3.78750 92.63750 166.541350
5.36 5.382390 3.750 92.250 175.0
5.35 5.369750 3.71250 91.86250 165.714290
5.34 5.357560 3.6750 91.4750 156.428570
5.33 5.345370 3.63750 91.08750 147.142860
5.32 5.337250 3.60 90.70 137.857140
5.31 5.329120 3.60 92.128570 128.571430
5.30 5.320990 3.60 93.557140 119.285710
5.29 5.30880 3.60 94.985710 110.0
5.28 5.296610 3.60 96.414290 113.750
5.27 5.288490 3.60 97.842860 117.50
5.26 5.280360 3.60 99.271430 121.250
5.25 5.272230 3.60 100.70 125.0
5.24 5.260050 3.61250 100.13750 128.750
5.23 5.247860 3.6250 99.5750 132.50
5.22 5.239430 3.63750 99.01250 136.250
5.21 5.2310 3.650 98.450 140.0
5.20 5.222570 3.66250 97.88750 141.428570
5.19 5.210380 3.6750 97.3250 142.857140
5.18 5.198190 3.68750 96.76250 144.285710
5.17 5.190070 3.70 96.20 145.714290
