~VERSION INFORMATION SECTION
VERS. 2.0 : CWLS LAS-VERSION 2.0
WRAP. NO : One line per depth step
~WELL INFORMATION SECTION
# MNEM.UNIT VALUE/NAME DESCRIPTION
#-------- -------------- ---------------------
STRT.Metres 17 : Start
STOP.Metres 0.38 : Stop
STEP.Metres -0.01 : Step
NULL.  -999.25 :NULL VALUE
DATE. 2025-57-11 : DATE
~CURVE INFORMATION SECTION
DEPTH.Metres : 0 Depth
Depth. : 1 Depth
Incline.Deg : 2 Incline
Azimuth.Deg : 3 Azimuth
GR.CPS : 4 GR
~PARAMETER INFORMATION SECTION
~OTHER
#-------------------------------------------------
#Produced By: GeoVista Logger - Version 7.1.107.0
Natural Gamma Sonde - 6447
Verticality Sonde - 6292
#-------------------------------------------------
~ASCII LOG DATA
# ...
14.94 14.948080 7.20 98.40 145.0
14.93 14.934990 7.20 98.333330 140.0
14.92 14.92190 7.20 98.266670 144.444440
14.91 14.912870 7.20 98.20 148.888890
14.90 14.903840 7.20 98.30 153.333330
14.89 14.895710 7.20 98.40 160.0
14.88 14.886680 7.20 98.50 166.666670
14.87 14.877650 7.20 98.0 146.666670
14.86 14.865010 7.20 97.50 126.666670
14.85 14.851470 7.20 97.60 134.444440
14.84 14.843340 7.20 97.70 142.222220
14.83 14.834310 7.20 97.80 150.0
14.82 14.825280 7.20 97.833330 155.0
14.81 14.816250 7.20 97.866670 160.0
14.80 14.807220 7.20 97.90 171.666670
14.79 14.794580 7.10 98.40 183.333330
14.78 14.781040 7.0 98.90 170.609320
14.77 14.772010 7.033330 98.40 157.88530
14.76 14.762980 7.066670 97.90 145.161290
14.75 14.753950 7.10 97.40 159.247310
14.74 14.745820 7.10 98.0 173.333330
14.73 14.736790 7.10 98.60 173.333330
14.72 14.727770 7.10 99.20 173.333330
14.71 14.718740 7.10 100.20 173.333330
14.70 14.705190 7.10 101.20 188.333330
14.69 14.691650 7.10 99.766670 203.333330
14.68 14.682620 7.10 98.333330 187.777780
14.67 14.673590 7.10 96.90 172.222220
14.66 14.664560 7.10 96.633330 156.666670
14.65 14.655530 7.10 96.366670 181.666670
14.64 14.64650 7.10 96.10 206.666670
14.63 14.637470 7.050 99.150 178.333330
14.62 14.628440 7.0 102.20 150.0
14.61 14.61490 7.0 101.066670 167.777780
14.60 14.601350 7.0 99.933330 185.555560
14.59 14.592330 7.0 98.80 203.333330
14.58 14.58330 7.0 98.0 198.333330
14.57 14.574270 7.0 97.20 193.333330
14.56 14.565240 7.0 97.666670 190.0
14.55 14.556210 7.0 98.133330 186.666670
14.54 14.547180 7.0 98.60 183.333330
14.53 14.538150 7.0 98.733330 175.0
14.52 14.52460 7.0 98.866670 166.666670
14.51 14.511060 7.0 99.0 166.666670
14.50 14.502030 7.0 98.60 166.666670
14.49 14.49210 7.0 98.20 166.666670
14.48 14.483070 7.0 98.766670 175.0
14.47 14.474040 7.0 99.333330 183.333330
14.46 14.465010 7.0 99.90 176.666670
14.45 14.455980 7.0 99.266670 170.0
14.44 14.446050 7.0 98.633330 163.333330
14.43 14.437020 7.0 98.0 138.333330
14.42 14.428890 7.0 98.60 113.333330
14.41 14.415350 7.0 99.20 114.444440
14.40 14.401810 6.966670 100.20 115.555560
14.39 14.392780 6.933330 101.20 116.666670
14.38 14.383750 6.90 102.20 127.777780
14.37 14.375620 6.90 100.133330 138.888890
14.36 14.366590 6.90 98.066670 150.0
14.35 14.357560 6.90 96.0 165.0
14.34 14.348530 6.90 96.50 180.0
14.33 14.334990 6.90 97.0 161.935480
14.32 14.321440 6.90 97.50 143.870970
14.31 14.312420 6.90 99.750 125.806450
14.30 14.303390 6.90 102.0 121.648750
14.29 14.295260 6.866670 101.633330 117.491040
14.28 14.286230 6.833330 101.266670 113.333330
14.27 14.27720 6.80 100.90 121.666670
14.26 14.268170 6.80 100.10 130.0
14.25 14.254630 6.80 99.30 134.444440
14.24 14.241080 6.80 98.50 138.888890
14.23 14.232050 6.80 98.850 143.333330
14.22 14.223930 6.80 99.20 145.0
14.21 14.21490 6.80 99.40 146.666670
14.20 14.205870 6.80 99.60 138.888890
14.19 14.196840 6.80 99.80 131.111110
14.18 14.187810 6.80 99.766670 123.333330
14.17 14.178780 6.80 99.733330 134.444440
14.16 14.165240 6.80 99.70 145.555560
14.15 14.151690 6.766670 99.50 156.666670
14.14 14.143570 6.733330 99.30 158.333330
14.13 14.134540 6.70 99.10 160.0
14.12 14.125510 6.750 98.70 158.888890
14.11 14.116480 6.80 98.30 157.777780
14.10 14.107450 6.80 98.733330 156.666670
14.09 14.098420 6.80 99.166670 162.222220
14.08 14.084880 6.80 99.60 167.777780
14.07 14.071330 6.80 99.70 173.333330
14.06 14.06140 6.80 99.80 146.666670
14.05 14.051470 6.80 99.90 120.0
14.04 14.043340 6.80 100.0 120.0
14.03 14.034310 6.80 100.10 120.0
14.02 14.025280 6.766670 99.60 120.0
14.01 14.016250 6.733330 99.10 143.333330
14.00 14.008130 6.70 98.60 166.666670
13.99 13.994580 6.70 98.70 156.666670
13.98 13.981040 6.70 98.80 146.666670
13.97 13.972010 6.70 98.90 136.666670
13.96 13.963880 6.650 98.750 140.0
13.95 13.954850 6.60 98.60 143.333330
13.94 13.945820 6.566670 98.733330 146.666670
13.93 13.93770 6.533330 98.866670 155.0
13.92 13.928670 6.50 99.0 163.333330
13.91 13.915120 6.566670 98.966670 160.0
13.90 13.902480 6.633330 98.933330 156.666670
13.89 13.893450 6.70 98.90 153.333330
13.88 13.884420 6.60 99.650 160.0
13.87 13.87540 6.50 100.40 166.666670
13.86 13.866370 6.50 100.066670 173.333330
13.85 13.857340 6.50 99.733330 148.333330
13.84 13.848310 6.50 99.40 123.333330
13.83 13.834760 6.50 99.433330 140.286740
13.82 13.821220 6.50 99.466670 157.240140
13.81 13.813090 6.50 99.50 174.193550
13.80 13.804060 6.50 99.050 178.351250
13.79 13.795030 6.50 98.60 182.508960
13.78 13.7860 6.50 98.90 186.666670
13.77 13.777880 6.50 99.20 163.333330
13.76 13.768850 6.50 99.10 140.0
13.75 13.75530 6.50 99.0 116.666670
13.74 13.741760 6.50 98.90 153.333330
13.73 13.733630 6.50 99.033330 190.0
13.72 13.72460 6.50 99.166670 176.666670
13.71 13.715580 6.50 99.30 163.333330
13.70 13.706550 6.50 99.50 150.0
13.69 13.698420 6.50 99.70 157.777780
13.68 13.684880 6.50 99.866670 165.555560
13.67 13.671330 6.50 100.033330 173.333330
13.66 13.66230 6.50 100.20 143.333330
13.65 13.653270 6.50 99.966670 113.333330
13.64 13.645150 6.50 99.733330 125.555560
13.63 13.636120 6.50 99.50 137.777780
13.62 13.627090 6.50 99.250 150.0
13.61 13.618060 6.50 99.0 147.777780
13.60 13.605420 6.466670 99.466670 145.555560
13.59 13.591870 6.433330 99.933330 143.333330
13.58 13.582840 6.40 100.40 160.0
13.57 13.574720 6.40 99.933330 176.666670
13.56 13.565690 6.40 99.466670 193.333330
13.55 13.556660 6.40 99.0 176.666670
13.54 13.547630 6.40 98.90 160.0
13.53 13.534990 6.40 98.80 154.444440
13.52 13.521440 6.366670 99.20 148.888890
13.51 13.513320 6.333330 99.60 143.333330
13.50 13.504290 6.30 100.0 133.333330
13.49 13.495260 6.333330 99.133330 123.333330
13.48 13.487130 6.366670 98.266670 113.333330
13.47 13.47810 6.40 97.40 116.666670
13.46 13.465010 6.40 98.150 120.0
13.45 13.451920 6.40 98.90 119.393940
13.44 13.442890 6.40 99.50 118.787880
13.43 13.434760 6.40 100.10 118.181820
13.42 13.425730 6.40 100.70 122.647530
13.41 13.41670 6.40 100.066670 127.113240
13.40 13.407670 6.40 99.433330 131.578950
13.39 13.398650 6.40 98.80 117.456140
13.38 13.38510 6.40 98.150 103.333330
13.37 13.371560 6.40 97.50 116.666670
13.36 13.361630 6.366670 98.40 130.0
13.35 13.35260 6.333330 99.30 143.333330
13.34 13.343570 6.30 100.20 146.666670
13.33 13.334540 6.30 99.80 150.0
13.32 13.325510 6.30 99.40 153.333330
13.31 13.316480 6.333330 98.866670 147.634410
13.30 13.307450 6.366670 98.333330 141.935480
13.29 13.294360 6.40 97.80 149.06810
13.28 13.281260 6.40 97.733330 156.200720
13.27 13.272230 6.40 97.666670 163.333330
13.26 13.263210 6.40 97.60 156.666670
13.25 13.254180 6.40 97.750 150.0
13.24 13.246050 6.40 97.90 143.333330
13.23 13.237020 6.40 97.833330 147.777780
13.22 13.227990 6.40 97.766670 152.222220
13.21 13.218960 6.40 97.70 156.666670
13.20 13.205420 6.366670 98.533330 136.666670
13.19 13.191870 6.333330 99.366670 116.666670
13.18 13.182840 6.30 100.20 123.333330
13.17 13.174720 6.350 100.750 130.0
13.16 13.165690 6.40 101.30 138.888890
13.15 13.156660 6.366670 100.233330 147.777780
13.14 13.147630 6.333330 99.166670 156.666670
13.13 13.13860 6.30 98.10 168.333330
13.12 13.125060 6.30 98.90 180.0
13.11 13.111510 6.30 99.70 168.888890
13.10 13.102480 6.30 100.50 157.777780
13.09 13.093450 6.30 99.750 146.666670
13.08 13.084420 6.30 99.0 142.222220
13.07 13.07540 6.30 99.40 137.777780
13.06 13.066370 6.30 99.80 133.333330
13.05 13.057340 6.30 100.20 121.666670
13.04 13.04470 6.30 100.033330 110.0
13.03 13.031150 6.30 99.866670 118.888890
13.02 13.022120 6.30 99.70 127.777780
13.01 13.013090 6.30 98.80 136.666670
13.00 13.004060 6.30 97.90 138.888890
12.99 12.995030 6.30 97.90 141.111110
12.98 12.9860 6.30 97.90 143.333330
12.97 12.976070 6.30 97.90 150.0
12.96 12.967040 6.30 98.466670 156.666670
12.95 12.958010 6.30 99.033330 152.222220
12.94 12.948980 6.30 99.60 147.777780
12.93 12.935440 6.30 100.450 143.333330
12.92 12.92190 6.30 101.30 147.777780
12.91 12.912870 6.266670 101.266670 152.222220
12.90 12.903840 6.233330 101.233330 156.666670
12.89 12.894810 6.20 101.20 156.666670
12.88 12.885780 6.20 100.766670 156.666670
