~VERSION INFORMATION SECTION
VERS. 2.0 : CWLS LAS-VERSION 2.0
WRAP. NO : One line per depth step
~WELL INFORMATION SECTION
# MNEM.UNIT VALUE/NAME DESCRIPTION
#-------- -------------- ---------------------
STRT.Metres 16 : Start
STOP.Metres 0.47 : Stop
STEP.Metres -0.01 : Step
NULL.  -999.25 :NULL VALUE
DATE. 2025-03-11 : DATE
~CURVE INFORMATION SECTION
DEPTH.Metres : 0 Depth
Depth. : 1 Depth
Incline.Deg : 2 Incline
Azimuth.Deg : 3 Azimuth
GR.CPS : 4 GR
~PARAMETER INFORMATION SECTION
~OTHER
#-------------------------------------------------
#Produced By: GeoVista Logger - Version 7.1.107.0
Natural Gamma Sonde - 6447
Verticality Sonde - 6292
#-------------------------------------------------
~ASCII LOG DATA
# ...
1.80 1.81580 2.40 109.716670 137.777780
1.79 1.805870 2.40 110.80 142.222220
1.78 1.795940 2.350 111.133330 146.666670
1.77 1.786460 2.30 111.466670 151.111110
1.76 1.776980 2.250 111.80 155.555560
1.75 1.767490 2.20 112.133330 160.0
1.74 1.758010 2.150 112.466670 161.666670
1.73 1.748080 2.10 112.80 163.333330
1.72 1.738150 2.060 109.960 165.0
1.71 1.719190 2.020 107.120 166.666670
1.70 1.709710 1.980 104.280 168.333330
1.69 1.700230 1.940 101.440 170.0
1.68 1.690290 1.90 98.60 165.555560
1.67 1.680360 1.866670 97.433330 161.111110
1.66 1.670880 1.833330 96.266670 156.666670
1.65 1.66140 1.80 95.10 152.222220
1.64 1.651470 1.766670 93.933330 147.777780
1.63 1.641530 1.733330 92.766670 143.333330
1.62 1.632050 1.70 91.60 144.666670
1.61 1.622570 1.750 92.666670 146.0
1.60 1.613090 1.80 93.733330 147.333330
1.59 1.603610 1.850 94.80 148.666670
1.58 1.594130 1.90 95.866670 150.0
1.57 1.584650 1.950 96.933330 150.757580
1.56 1.575170 2.0 98.0 151.515150
1.55 1.565690 2.050 98.80 152.272730
1.54 1.548530 2.10 99.60 153.03030
1.53 1.539950 2.150 100.40 153.787880
1.52 1.531380 2.20 101.20 154.545450
1.51 1.52280 2.250 102.0 161.244020
1.50 1.514220 2.30 102.80 167.942580
1.49 1.497970 2.250 104.30 174.641150
1.48 1.489840 2.20 105.80 181.339710
1.47 1.481720 2.150 107.30 188.038280
1.46 1.466370 2.10 108.80 194.736840
1.45 1.458240 2.050 110.30 195.122810
1.44 1.450110 2.0 111.80 195.508770
1.43 1.442440 1.960 111.240 195.894740
1.42 1.434760 1.920 110.680 196.28070
1.41 1.418510 1.880 110.120 196.666670
1.40 1.410840 1.840 109.560 196.666670
1.39 1.403160 1.80 109.0 196.666670
1.38 1.389620 1.816670 108.250 196.666670
1.37 1.375620 1.833330 107.50 196.666670
1.36 1.365240 1.850 106.750 196.666670
1.35 1.355080 1.866670 106.0 196.666670
1.34 -999.25 1.883330 105.250 192.383510
1.33 -999.25 1.90 104.50 188.100360
1.32 -999.25 1.916670 103.566670 183.81720
1.31 -999.25 1.933330 102.633330 179.534050
1.30 -999.25 1.950 101.70 175.25090
1.29 -999.25 1.966670 100.766670 170.967740
1.28 -999.25 1.983330 99.833330 168.584230
1.27 -999.25 2.0 98.90 166.200720
1.26 -999.25 1.960 101.340 163.81720
1.25 -999.25 1.920 103.780 161.433690
1.24 -999.25 1.880 106.220 159.050180
1.23 -999.25 1.840 108.660 156.666670
1.22 -999.25 1.80 111.10 158.333330
1.21 -999.25 1.740 111.780 160.0
1.20 -999.25 1.680 112.460 161.666670
1.19 -999.25 1.620 113.140 163.333330
1.18 -999.25 1.560 113.820 165.0
1.17 -999.25 1.50 114.50 166.666670
1.16 -999.25 1.480 116.620 165.0
1.15 -999.25 1.460 118.740 163.333330
1.14 -999.25 1.440 120.860 161.666670
1.13 -999.25 1.420 122.980 160.0
1.12 -999.25 1.40 125.10 158.333330
1.11 -999.25 1.50 122.20 156.666670
1.10 -999.25 1.60 119.30 155.333330
1.09 -999.25 1.70 116.40 154.0
1.08 -999.25 1.80 113.50 152.666670
1.07 -999.25 1.90 117.20 151.333330
1.06 -999.25 1.50 99.0 150.0
1.05 -999.25 1.30 117.80 153.333330
1.04 -999.25 -999.25 -999.25 156.666670
1.03 -999.25 -999.25 -999.25 160.0
1.02 -999.25 -999.25 -999.25 163.333330
1.01 -999.25 -999.25 -999.25 166.666670
1.00 -999.25 -999.25 -999.25 170.0
0.99 -999.25 -999.25 -999.25 165.555560
0.98 -999.25 -999.25 -999.25 161.111110
0.97 -999.25 -999.25 -999.25 156.666670
0.96 -999.25 -999.25 -999.25 152.222220
0.95 -999.25 -999.25 -999.25 147.777780
0.94 -999.25 -999.25 -999.25 143.333330
0.93 -999.25 -999.25 -999.25 137.777780
0.92 -999.25 -999.25 -999.25 132.222220
0.91 -999.25 -999.25 -999.25 126.666670
0.90 -999.25 -999.25 -999.25 121.111110
0.89 -999.25 -999.25 -999.25 115.555560
0.88 -999.25 -999.25 -999.25 110.0
0.87 -999.25 -999.25 -999.25 118.0
0.86 -999.25 -999.25 -999.25 126.0
0.85 -999.25 -999.25 -999.25 134.0
0.84 -999.25 -999.25 -999.25 142.0
0.83 -999.25 -999.25 -999.25 150.0
0.82 -999.25 -999.25 -999.25 150.555560
0.81 -999.25 -999.25 -999.25 151.111110
0.80 -999.25 -999.25 -999.25 151.666670
0.79 -999.25 -999.25 -999.25 152.222220
0.78 -999.25 -999.25 -999.25 152.777780
0.77 -999.25 -999.25 -999.25 153.333330
0.76 -999.25 -999.25 -999.25 155.555560
0.75 -999.25 -999.25 -999.25 157.777780
0.74 -999.25 -999.25 -999.25 160.0
0.73 -999.25 -999.25 -999.25 162.222220
0.72 -999.25 -999.25 -999.25 164.444440
0.71 -999.25 -999.25 -999.25 166.666670
0.70 -999.25 -999.25 -999.25 157.333330
0.69 -999.25 -999.25 -999.25 148.0
0.68 -999.25 -999.25 -999.25 138.666670
0.67 -999.25 -999.25 -999.25 129.333330
0.66 -999.25 -999.25 -999.25 120.0
0.65 -999.25 -999.25 -999.25 122.0
0.64 -999.25 -999.25 -999.25 124.0
0.63 -999.25 -999.25 -999.25 126.0
0.62 -999.25 -999.25 -999.25 128.0
0.61 -999.25 -999.25 -999.25 130.0
0.60 -999.25 -999.25 -999.25 129.333330
0.59 -999.25 -999.25 -999.25 128.666670
0.58 -999.25 -999.25 -999.25 128.0
0.57 -999.25 -999.25 -999.25 127.333330
0.56 -999.25 -999.25 -999.25 126.666670
0.55 -999.25 -999.25 -999.25 130.714290
0.54 -999.25 -999.25 -999.25 134.76190
0.53 -999.25 -999.25 -999.25 138.809520
0.52 -999.25 -999.25 -999.25 142.857140
0.51 -999.25 -999.25 -999.25 135.978840
0.50 -999.25 -999.25 -999.25 129.100530
0.49 -999.25 -999.25 -999.25 122.222220
0.48 -999.25 -999.25 -999.25 123.333330
0.47 -999.25 -999.25 -999.25 113.333330
