~VERSION INFORMATION SECTION
VERS. 2.0 : CWLS LAS-VERSION 2.0
WRAP. NO : One line per depth step
~WELL INFORMATION SECTION
# MNEM.UNIT VALUE/NAME DESCRIPTION
#-------- -------------- ---------------------
STRT.Metres 17 : Start
STOP.Metres 0.38 : Stop
STEP.Metres -0.01 : Step
NULL.  -999.25 :NULL VALUE
DATE. 2025-57-11 : DATE
~CURVE INFORMATION SECTION
DEPTH.Metres : 0 Depth
Depth. : 1 Depth
Incline.Deg : 2 Incline
Azimuth.Deg : 3 Azimuth
GR.CPS : 4 GR
~PARAMETER INFORMATION SECTION
~OTHER
#-------------------------------------------------
#Produced By: GeoVista Logger - Version 7.1.107.0
Natural Gamma Sonde - 6447
Verticality Sonde - 6292
#-------------------------------------------------
~ASCII LOG DATA
# ...
4.43 4.437020 3.70 93.0 145.555560
4.42 4.428890 3.70 93.433330 141.111110
4.41 4.41580 3.70 93.866670 136.666670
4.40 4.402710 3.70 94.30 141.666670
4.39 4.393680 3.70 95.250 146.666670
4.38 4.385550 3.70 96.20 146.666670
4.37 4.376520 3.70 95.666670 146.666670
4.36 4.367490 3.70 95.133330 146.666670
4.35 4.354850 3.70 94.60 153.333330
4.34 4.341310 3.70 95.30 160.0
4.33 4.333180 3.70 96.0 163.655910
4.32 4.324150 3.70 95.60 167.311830
4.31 4.316030 3.70 95.20 170.967740
4.30 4.3070 3.70 94.80 166.200720
4.29 4.297970 3.70 95.066670 161.433690
4.28 4.285330 3.70 95.333330 156.666670
4.27 4.271780 3.70 95.60 181.666670
4.26 4.263660 3.70 95.250 206.666670
4.25 4.254630 3.70 94.90 183.333330
4.24 4.24650 3.70 94.633330 160.0
4.23 4.237470 3.70 94.366670 136.666670
4.22 4.224830 3.70 94.10 144.444440
4.21 4.211290 3.70 93.966670 152.222220
4.20 4.203160 3.70 93.833330 160.0
4.19 4.194130 3.70 93.70 163.333330
4.18 4.18510 3.70 94.450 166.666670
4.17 4.176980 3.70 95.20 153.333330
4.16 4.167950 3.70 94.40 140.0
4.15 4.154850 3.70 93.60 126.666670
4.14 4.141760 3.70 92.80 130.0
4.13 4.133630 3.70 93.20 133.333330
4.12 4.12460 3.70 93.60 141.111110
4.11 4.115580 3.70 93.833330 148.888890
4.10 4.107450 3.70 94.066670 156.666670
4.09 4.098420 3.70 94.30 163.333330
4.08 4.085330 3.70 93.966670 170.0
4.07 4.072230 3.70 93.633330 176.666670
4.06 4.063210 3.70 93.30 158.333330
4.05 4.055080 3.70 92.90 140.0
4.04 4.046050 3.70 92.50 133.333330
4.03 4.037920 3.70 93.233330 126.666670
4.02 4.028890 3.70 93.966670 120.0
4.01 4.01580 3.70 94.70 147.777780
4.00 4.002710 3.70 94.10 175.555560
3.99 3.993680 3.70 93.50 203.333330
3.98 3.985550 3.70 92.90 165.0
3.97 3.976520 3.70 92.30 126.666670
3.96 3.967490 3.70 91.70 134.444440
3.95 3.958470 3.70 91.733330 142.222220
3.94 3.944920 3.70 91.766670 150.0
3.93 3.931380 3.70 91.80 158.888890
3.92 3.923250 3.650 91.650 167.777780
3.91 3.914220 3.60 91.50 176.666670
3.90 3.905190 3.60 91.50 178.333330
3.89 3.896160 3.60 91.50 180.0
3.88 3.887130 3.60 91.50 162.222220
3.87 3.87810 3.650 91.20 144.444440
3.86 3.864560 3.70 90.90 126.666670
3.85 3.851020 3.70 90.90 127.45520
3.84 3.841990 3.70 90.90 128.243730
3.83 3.832960 3.70 90.90 129.032260
3.82 3.823930 3.70 91.133330 147.849460
3.81 3.81490 3.70 91.366670 166.666670
3.80 3.805870 3.70 91.60 163.333330
3.79 3.796840 3.70 91.150 160.0
3.78 3.786910 3.70 90.70 156.666670
3.77 3.777880 3.733330 90.833330 143.333330
3.76 3.768850 3.766670 90.966670 130.0
3.75 3.75530 3.80 91.10 116.666670
3.74 3.741760 3.80 90.70 100.0
3.73 3.732730 3.80 90.30 83.333330
3.72 3.72370 3.766670 90.70 106.666670
3.71 3.714670 3.733330 91.10 130.0
3.70 3.705640 3.70 91.50 153.333330
3.69 3.696610 3.70 91.40 158.333330
3.68 3.687580 3.70 91.30 163.333330
3.67 3.678560 3.70 91.20 147.777780
3.66 3.665010 3.650 90.550 132.222220
3.65 3.651470 3.60 89.90 116.666670
3.64 3.642440 3.633330 90.833330 125.555560
3.63 3.632510 3.666670 91.766670 134.444440
3.62 3.623480 3.70 92.70 143.333330
3.61 3.614450 3.70 92.033330 143.333330
3.60 3.605420 3.70 91.366670 143.333330
3.59 3.597290 3.70 90.70 144.444440
3.58 3.588260 3.70 91.250 145.555560
3.57 3.574720 3.70 91.80 146.666670
3.56 3.561170 3.70 91.666670 135.0
3.55 3.552140 3.70 91.533330 123.333330
3.54 3.544020 3.70 91.40 131.111110
3.53 3.534990 3.70 91.533330 138.888890
3.52 3.525960 3.70 91.666670 146.666670
3.51 3.516930 3.70 91.80 141.111110
3.50 3.50880 3.633330 91.10 135.555560
3.49 3.495260 3.566670 90.40 130.0
3.48 3.482620 3.50 89.70 145.0
3.47 3.473590 3.550 91.250 160.0
3.46 3.464560 3.60 92.80 156.666670
3.45 3.456430 3.60 93.066670 153.333330
3.44 3.44740 3.60 93.333330 150.0
3.43 3.434310 3.60 93.60 151.666670
3.42 3.421220 3.60 93.466670 153.333330
3.41 3.412190 3.60 93.333330 148.888890
3.40 3.403160 3.60 93.20 144.444440
3.39 3.394130 3.60 91.466670 140.0
3.38 3.3860 3.60 89.733330 123.636360
3.37 3.376980 3.60 88.0 107.272730
3.36 3.367950 3.550 91.50 90.909090
3.35 3.358920 3.50 95.0 122.954550
3.34 3.345370 3.50 93.733330 155.0
3.33 3.332730 3.50 92.466670 161.111110
3.32 3.32370 3.50 91.20 167.222220
3.31 3.314670 3.50 91.60 173.333330
3.30 3.305640 3.50 92.0 167.777780
3.29 3.296610 3.50 92.40 162.222220
3.28 3.287580 3.450 92.250 156.666670
3.27 3.278560 3.40 92.10 160.0
3.26 3.265460 3.466670 92.633330 163.333330
3.25 3.252370 3.533330 93.166670 156.666670
3.24 3.243340 3.60 93.70 150.0
3.23 3.234310 3.566670 94.133330 143.333330
3.22 3.225280 3.533330 94.566670 140.0
3.21 3.216250 3.50 95.0 136.666670
3.20 3.207220 3.40 93.950 158.888890
3.19 3.198190 3.30 92.90 181.111110
3.18 3.184650 3.333330 92.70 203.333330
3.17 3.171110 3.366670 92.50 191.111110
3.16 3.162980 3.40 92.30 178.888890
3.15 3.153950 3.350 92.250 166.666670
3.14 3.144920 3.30 92.20 163.333330
3.13 3.135890 3.333330 93.266670 160.0
3.12 3.126860 3.366670 94.333330 154.444440
3.11 3.117830 3.40 95.40 148.888890
3.10 3.104740 3.366670 94.0 143.333330
3.09 3.090740 3.333330 92.60 151.111110
3.08 3.082620 3.30 91.20 158.888890
3.07 3.073590 3.30 91.250 166.666670
3.06 3.064560 3.30 91.30 146.666670
3.05 3.055530 3.266670 91.50 126.666670
3.04 3.04650 3.233330 91.70 123.333330
3.03 3.037470 3.20 91.90 120.0
3.02 3.027540 3.20 91.90 116.666670
3.01 3.014450 3.20 91.90 126.666670
3.00 3.001350 3.20 91.90 136.666670
2.99 2.992330 3.20 91.20 146.666670
2.98 2.98330 3.20 90.50 116.666670
2.97 2.974270 3.20 89.80 86.666670
2.96 2.965240 3.20 90.50 103.333330
2.95 2.956210 3.20 91.20 120.0
2.94 2.947180 3.20 93.066670 136.666670
2.93 2.938150 3.20 94.933330 125.555560
2.92 2.92460 3.20 96.80 114.444440
2.91 2.911060 3.20 94.60 103.333330
2.90 2.902030 3.20 92.40 138.333330
2.89 2.8930 3.20 90.20 173.333330
2.88 2.883970 3.20 92.450 165.555560
2.87 2.874940 3.20 94.70 157.777780
2.86 2.865910 3.20 94.0 150.0
2.85 2.856880 3.20 93.30 154.838710
2.84 2.847860 3.20 92.60 159.677420
2.83 2.838830 3.20 92.266670 164.516130
2.82 2.825280 3.20 91.933330 156.344090
2.81 2.811740 3.20 91.60 148.172040
2.80 2.802710 3.150 92.70 140.0
2.79 2.793680 3.10 93.80 133.333330
2.78 2.784650 3.10 93.466670 126.666670
2.77 2.775620 3.10 93.133330 136.666670
2.76 2.766590 3.10 92.80 146.666670
2.75 2.757560 3.10 92.80 156.666670
2.74 2.748530 3.10 92.80 154.444440
2.73 2.73860 3.10 92.80 152.222220
2.72 2.725060 3.10 93.350 150.0
2.71 2.711510 3.10 93.90 136.666670
2.70 2.701580 3.133330 93.60 123.333330
2.69 2.692550 3.166670 93.30 125.555560
2.68 2.683520 3.20 93.0 127.777780
2.67 2.674490 3.166670 94.433330 130.0
2.66 2.665460 3.133330 95.866670 135.555560
2.65 2.656430 3.10 97.30 141.111110
2.64 2.64740 3.10 94.40 146.666670
2.63 2.637470 3.10 91.50 161.666670
2.62 2.624830 3.066670 94.30 176.666670
2.61 2.612190 3.033330 97.10 173.333330
2.60 2.603160 3.0 99.90 170.0
2.59 2.595030 3.0 97.166670 166.666670
2.58 2.5860 3.0 94.433330 164.444440
2.57 2.576980 3.0 91.70 162.222220
2.56 2.567950 2.966670 92.80 160.0
2.55 2.558920 2.933330 93.90 155.0
2.54 2.545370 2.90 95.0 150.0
2.53 2.531830 2.90 95.250 156.666670
2.52 2.52280 2.90 95.50 163.333330
2.51 2.513770 2.90 95.60 170.0
2.50 2.504740 2.90 95.70 171.111110
2.49 2.495710 2.90 95.80 172.222220
2.48 2.486680 2.933330 94.20 173.333330
2.47 2.477650 2.966670 92.60 173.333330
2.46 2.464560 3.0 91.0 173.333330
2.45 2.451470 3.0 91.166670 166.666670
2.44 2.442440 3.0 91.333330 160.0
2.43 2.433410 3.0 91.50 153.333330
2.42 2.424380 2.950 91.60 156.666670
2.41 2.415350 2.90 91.70 160.0
2.40 2.406320 2.933330 91.233330 163.333330
2.39 2.398190 2.966670 90.766670 165.0
2.38 2.384650 3.0 90.30 166.666670
2.37 2.371110 2.966670 92.666670 163.333330
2.36 2.362080 2.933330 95.033330 160.0
2.35 2.353950 2.90 97.40 156.666670
2.34 2.344920 2.90 94.550 159.283150
2.33 2.335890 2.90 91.70 161.899640
2.32 2.327770 2.766670 92.933330 164.516130
2.31 2.314670 2.633330 94.166670 142.258060
2.30 2.301580 2.50 95.40 120.0
2.29 2.292550 2.533330 92.533330 125.0
2.28 2.283520 2.566670 89.666670 130.0
2.27 2.27540 2.60 86.80 135.0
2.26 2.266370 2.650 92.90 136.666670
