~VERSION INFORMATION SECTION
VERS. 2.0 : CWLS LAS-VERSION 2.0
WRAP. NO : One line per depth step
~WELL INFORMATION SECTION
# MNEM.UNIT VALUE/NAME DESCRIPTION
#-------- -------------- ---------------------
STRT.Metres 15 : Start
STOP.Metres 0.51 : Stop
STEP.Metres -0.01 : Step
NULL.  -999.25 :NULL VALUE
DATE. 2025-09-11 : DATE
~CURVE INFORMATION SECTION
DEPTH.Metres : 0 Depth
Depth. : 1 Depth
Incline.Deg : 2 Incline
Azimuth.Deg : 3 Azimuth
GR.CPS : 4 GR
~PARAMETER INFORMATION SECTION
~OTHER
#-------------------------------------------------
#Produced By: GeoVista Logger - Version 7.1.107.0
Natural Gamma Sonde - 6447
Verticality Sonde - 6292
#-------------------------------------------------
~ASCII LOG DATA
15.00 -999.25 -999.25 -999.25 -999.25
14.99 -999.25 -999.25 -999.25 -999.25
14.98 3.747180 -999.25 -999.25 -999.25
14.97 7.494360 -999.25 -999.25 -999.25
14.96 11.241530 -999.25 -999.25 -999.25
14.95 14.988710 -999.25 -999.25 -999.25
14.94 14.978330 -999.25 -999.25 -999.25
14.93 14.967950 -999.25 -999.25 -999.25
14.92 14.957560 -999.25 -999.25 -999.25
14.91 14.947180 -999.25 -999.25 -999.25
14.90 14.936340 -999.25 -999.25 -999.25
14.89 14.925510 0.508330 7.558330 -999.25
14.88 14.914670 1.016670 15.116670 -999.25
14.87 14.903840 1.5250 22.6750 -999.25
14.86 14.895350 2.033330 30.233330 -999.25
14.85 14.886860 2.541670 37.791670 -999.25
14.84 14.878370 3.050 45.350 -999.25
14.83 14.869890 3.558330 52.908330 -999.25
14.82 14.86140 4.066670 60.466670 -999.25
14.81 14.851020 4.5750 68.0250 -999.25
14.80 14.840630 5.083330 75.583330 -999.25
14.79 14.830250 5.591670 83.141670 -999.25
14.78 14.819860 6.10 90.70 -999.25
14.77 14.809030 6.107690 90.730770 -999.25
14.76 14.798190 6.115380 90.761540 -999.25
14.75 14.787360 6.123080 90.792310 -999.25
14.74 14.776520 6.130770 90.823080 -999.25
14.73 14.765910 6.138460 90.853850 -999.25
14.72 14.75530 6.146150 90.884620 -999.25
14.71 14.74470 6.153850 90.915380 -999.25
14.70 14.734090 6.161540 90.946150 -999.25
14.69 14.725780 6.169230 90.976920 169.883310
14.68 14.717470 6.176920 91.007690 176.608320
14.67 14.709160 6.184620 91.038460 183.333330
14.66 14.700860 6.192310 91.069230 176.0
14.65 14.692550 6.20 91.10 168.666670
14.64 14.681490 6.191670 91.433330 161.333330
14.63 14.670430 6.183330 91.766670 154.0
14.62 14.659370 6.1750 92.10 146.666670
14.61 14.648310 6.166670 92.433330 146.464650
14.60 14.637250 6.158330 92.766670 146.262630
14.59 14.626190 6.150 93.10 146.060610
14.58 14.615120 6.141670 93.433330 145.858590
14.57 14.604060 6.133330 93.766670 145.656570
14.56 14.59540 6.1250 94.10 145.454550
14.55 14.586730 6.116670 94.433330 140.95960
14.54 14.578060 6.108330 94.766670 136.464650
14.53 14.569390 6.10 95.10 131.96970
14.52 14.560720 6.10 94.992310 127.474750
14.51 14.549440 6.10 94.884620 122.97980
14.50 14.538150 6.10 94.776920 118.484850
14.49 14.526860 6.10 94.669230 113.98990
14.48 14.515580 6.10 94.561540 109.494950
14.47 14.504970 6.10 94.453850 105.0
14.46 14.494360 6.10 94.346150 105.757580
14.45 14.483750 6.10 94.238460 106.515150
14.44 14.473140 6.10 94.130770 107.272730
14.43 14.464830 6.10 94.023080 108.03030
14.42 14.456520 6.10 93.915380 108.787880
14.41 14.448220 6.10 93.807690 109.545450
14.40 14.439910 6.10 93.70 110.303030
14.39 14.43160 6.10 93.592310 111.060610
14.38 14.420540 6.10 93.484620 111.818180
14.37 14.409480 6.10 93.376920 112.575760
14.36 14.398420 6.10 93.269230 113.333330
14.35 14.387360 6.10 93.161540 115.555560
14.34 14.376520 6.10 93.053850 117.777780
14.33 14.365690 6.10 92.946150 120.0
14.32 14.354850 6.10 92.838460 122.222220
14.31 14.344020 6.10 92.730770 124.444440
14.30 14.334310 6.10 92.623080 126.666670
14.29 14.32460 6.10 92.515380 128.888890
14.28 14.31490 6.10 92.407690 131.111110
14.27 14.305190 6.10 92.30 133.333330
14.26 14.294810 6.046150 92.20 135.555560
14.25 14.284420 5.992310 92.10 137.777780
14.24 14.274040 5.938460 92.0 140.0
14.23 14.263660 5.884620 91.90 141.025640
14.22 14.255170 5.830770 91.80 142.051280
14.21 14.246680 5.776920 91.70 143.076920
14.20 14.238190 5.723080 91.60 144.102560
14.19 14.229710 5.669230 91.50 145.128210
14.18 14.221220 5.615380 91.40 146.153850
14.17 14.210610 5.561540 91.30 147.179490
14.16 14.20 5.507690 91.20 148.205130
14.15 14.189390 5.453850 91.10 149.230770
14.14 14.178780 5.40 91.0 150.256410
14.13 14.167490 5.476920 91.669230 151.282050
14.12 14.156210 5.553850 92.338460 152.307690
14.11 14.144920 5.630770 93.007690 153.333330
14.10 14.133630 5.707690 93.676920 152.50
14.09 14.124970 5.784620 94.346150 151.666670
14.08 14.11630 5.861540 95.015380 150.833330
14.07 14.107630 5.938460 95.684620 150.0
14.06 14.098960 6.015380 96.353850 149.166670
14.05 14.090290 6.092310 97.023080 148.333330
14.04 14.079680 6.169230 97.692310 147.50
14.03 14.069070 6.246150 98.361540 146.666670
14.02 14.058470 6.323080 99.030770 145.833330
14.01 14.047860 6.40 99.70 145.0
14.00 14.038830 6.392310 99.484620 144.166670
13.99 14.02980 6.384620 99.269230 143.333330
13.98 14.020770 6.376920 99.053850 144.102560
13.97 14.011740 6.369230 98.838460 144.871790
13.96 14.002710 6.361540 98.623080 145.641030
13.95 13.991870 6.353850 98.407690 146.410260
13.94 13.981040 6.346150 98.192310 147.179490
13.93 13.97020 6.338460 97.976920 147.948720
13.92 13.959370 6.330770 97.761540 148.717950
13.91 13.948530 6.323080 97.546150 149.487180
13.90 13.93770 6.315380 97.330770 150.256410
13.89 13.926860 6.307690 97.115380 151.025640
13.88 13.916030 6.30 96.90 151.794870
13.87 13.9070 6.184620 96.630770 152.56410
13.86 13.897970 6.069230 96.361540 153.333330
13.85 13.888940 5.953850 96.092310 152.820510
13.84 13.879910 5.838460 95.823080 152.307690
13.83 13.870880 5.723080 95.553850 151.794870
13.82 13.860270 5.607690 95.284620 151.282050
13.81 13.849660 5.492310 95.015380 150.769230
13.80 13.839050 5.376920 94.746150 150.256410
13.79 13.828440 5.261540 94.476920 149.743590
13.78 13.819770 5.146150 94.207690 149.230770
13.77 13.811110 5.030770 93.938460 148.717950
13.76 13.802440 4.915380 93.669230 148.205130
13.75 13.793770 4.80 93.40 147.692310
13.74 13.78510 4.823080 93.415380 147.179490
13.73 13.773810 4.846150 93.430770 146.666670
13.72 13.762530 4.869230 93.446150 152.307690
13.71 13.751240 4.892310 93.461540 157.948720
13.70 13.739950 4.915380 93.476920 163.589740
13.69 13.729350 4.938460 93.492310 169.230770
13.68 13.718740 4.961540 93.507690 174.871790
13.67 13.708130 4.984620 93.523080 180.512820
13.66 13.697520 5.007690 93.538460 186.153850
13.65 13.689030 5.030770 93.553850 191.794870
13.64 13.680540 5.053850 93.569230 197.43590
13.63 13.672050 5.076920 93.584620 203.076920
13.62 13.663570 5.10 93.60 208.717950
13.61 13.655080 5.142310 93.542310 214.358970
13.60 13.643790 5.184620 93.484620 220.0
13.59 13.632510 5.226920 93.426920 213.846150
13.58 13.621220 5.269230 93.369230 207.692310
13.57 13.609930 5.311540 93.311540 201.538460
13.56 13.599320 5.353850 93.253850 195.384620
13.55 13.588710 5.396150 93.196150 189.230770
13.54 13.57810 5.438460 93.138460 183.076920
13.53 13.567490 5.480770 93.080770 176.923080
13.52 13.559010 5.523080 93.023080 170.769230
13.51 13.550520 5.565380 92.965380 164.615380
13.50 13.542030 5.607690 92.907690 158.461540
13.49 13.533540 5.650 92.850 152.307690
13.48 13.525060 5.692310 92.792310 146.153850
13.47 13.513770 5.734620 92.734620 140.0
13.46 13.502480 5.776920 92.676920 143.41270
13.45 13.49120 5.819230 92.619230 146.82540
13.44 13.479910 5.861540 92.561540 150.23810
13.43 13.469070 5.903850 92.503850 153.650790
13.42 13.458240 5.946150 92.446150 157.063490
13.41 13.44740 5.988460 92.388460 160.476190
13.40 13.436570 6.030770 92.330770 163.888890
13.39 13.428080 6.073080 92.273080 167.301590
13.38 13.419590 6.115380 92.215380 170.714290
13.37 13.411110 6.157690 92.157690 174.126980
13.36 13.402620 6.20 92.10 177.539680
13.35 13.394130 6.169230 92.769230 180.952380
13.34 13.383070 6.138460 93.438460 177.289380
13.33 13.372010 6.107690 94.107690 173.626370
13.32 13.360950 6.076920 94.776920 169.963370
13.31 13.349890 6.046150 95.446150 166.300370
13.30 13.339280 6.015380 96.115380 162.637360
13.29 13.328670 5.984620 96.784620 158.974360
13.28 13.318060 5.953850 97.453850 155.311360
13.27 13.307450 5.923080 98.123080 151.648350
13.26 13.297070 5.892310 98.792310 147.985350
13.25 13.286680 5.861540 99.461540 144.322340
13.24 13.27630 5.830770 100.130770 140.659340
13.23 13.265910 5.80 100.80 136.996340
13.22 13.256880 5.792310 100.469230 133.333330
13.21 13.247860 5.784620 100.138460 132.857140
13.20 13.238830 5.776920 99.807690 132.380950
13.19 13.22980 5.769230 99.476920 131.904760
13.18 13.220770 5.761540 99.146150 131.428570
13.17 13.210160 5.753850 98.815380 130.952380
13.16 13.199550 5.746150 98.484620 130.476190
