~VERSION INFORMATION SECTION
VERS. 2.0 : CWLS LAS-VERSION 2.0
WRAP. NO : One line per depth step
~WELL INFORMATION SECTION
# MNEM.UNIT VALUE/NAME DESCRIPTION
#-------- -------------- ---------------------
STRT.Metres 15 : Start
STOP.Metres 0.51 : Stop
STEP.Metres -0.01 : Step
NULL.  -999.25 :NULL VALUE
DATE. 2025-09-11 : DATE
~CURVE INFORMATION SECTION
DEPTH.Metres : 0 Depth
Depth. : 1 Depth
Incline.Deg : 2 Incline
Azimuth.Deg : 3 Azimuth
GR.CPS : 4 GR
~PARAMETER INFORMATION SECTION
~OTHER
#-------------------------------------------------
#Produced By: GeoVista Logger - Version 7.1.107.0
Natural Gamma Sonde - 6447
Verticality Sonde - 6292
#-------------------------------------------------
~ASCII LOG DATA
# ...
11.32 11.35440 5.315380 99.661540 172.307690
11.31 11.345730 5.30 99.30 175.897440
11.30 11.337070 5.291670 99.658330 179.487180
11.29 11.32840 5.283330 100.016670 183.076920
11.28 11.319730 5.2750 100.3750 186.666670
11.27 11.311060 5.266670 100.733330 183.611110
11.26 11.300450 5.258330 101.091670 180.555560
11.25 11.289840 5.250 101.450 177.50
11.24 11.279230 5.241670 101.808330 174.444440
11.23 11.268620 5.233330 102.166670 171.388890
11.22 11.258470 5.2250 102.5250 168.333330
11.21 11.248310 5.216670 102.883330 165.277780
11.20 11.238150 5.208330 103.241670 162.222220
11.19 11.227990 5.20 103.60 159.166670
11.18 11.216930 5.230770 103.592310 156.111110
11.17 11.205870 5.261540 103.584620 153.055560
11.16 11.194810 5.292310 103.576920 150.0
11.15 11.183750 5.323080 103.569230 149.743590
11.14 11.175260 5.353850 103.561540 149.487180
11.13 11.166770 5.384620 103.553850 149.230770
11.12 11.158280 5.415380 103.546150 148.974360
11.11 11.14980 5.446150 103.538460 148.717950
11.10 11.141310 5.476920 103.530770 148.461540
11.09 11.130930 5.507690 103.523080 148.205130
11.08 11.120540 5.538460 103.515380 147.948720
11.07 11.110160 5.569230 103.507690 147.692310
11.06 11.099770 5.60 103.50 147.43590
11.05 11.088490 5.607690 103.269230 147.179490
11.04 11.07720 5.615380 103.038460 146.923080
11.03 11.065910 5.623080 102.807690 146.666670
11.02 11.054630 5.630770 102.576920 147.179490
11.01 11.044020 5.638460 102.346150 147.692310
11.00 11.033410 5.646150 102.115380 148.205130
10.99 11.02280 5.653850 101.884620 148.717950
10.98 11.012190 5.661540 101.653850 149.230770
10.97 11.004060 5.669230 101.423080 149.743590
10.96 10.995940 5.676920 101.192310 150.256410
10.95 10.987810 5.684620 100.961540 150.769230
10.94 10.979680 5.692310 100.730770 151.282050
10.93 10.971560 5.70 100.50 151.794870
10.92 10.960270 5.692310 100.607690 152.307690
10.91 10.948980 5.684620 100.715380 152.820510
10.90 10.93770 5.676920 100.823080 153.333330
10.89 10.926410 5.669230 100.930770 152.56410
10.88 10.916030 5.661540 101.038460 151.794870
10.87 10.905640 5.653850 101.146150 151.025640
10.86 10.895260 5.646150 101.253850 150.256410
10.85 10.884880 5.638460 101.361540 149.487180
10.84 10.876750 5.630770 101.469230 148.717950
10.83 10.868620 5.623080 101.576920 147.948720
10.82 10.86050 5.615380 101.684620 147.179490
10.81 10.852370 5.607690 101.792310 146.410260
10.80 10.844240 5.60 101.90 145.641030
10.79 10.833180 5.5250 102.041670 144.871790
10.78 10.822120 5.450 102.183330 144.102560
10.77 10.811060 5.3750 102.3250 143.333330
10.76 10.80 5.30 102.466670 142.50
10.75 10.789620 5.2250 102.608330 141.666670
10.74 10.779230 5.150 102.750 140.833330
10.73 10.768850 5.0750 102.891670 140.0
10.72 10.758470 5.0 103.033330 139.166670
10.71 10.748080 4.9250 103.1750 138.333330
10.70 10.73770 4.850 103.316670 137.50
10.69 10.727310 4.7750 103.458330 136.666670
10.68 10.716930 4.70 103.60 135.833330
10.67 10.706090 4.638460 101.592310 135.0
10.66 10.695260 4.576920 99.584620 134.166670
10.65 10.684420 4.515380 97.576920 133.333330
10.64 10.673590 4.453850 95.569230 135.128210
10.63 10.662980 4.392310 93.561540 136.923080
10.62 10.652370 4.330770 91.553850 138.717950
10.61 10.641760 4.269230 89.546150 140.512820
10.60 10.631150 4.207690 87.538460 142.307690
10.59 10.623020 4.146150 85.530770 144.102560
10.58 10.61490 4.084620 83.523080 145.897440
10.57 10.606770 4.023080 81.515380 147.692310
10.56 10.598650 3.961540 79.507690 149.487180
10.55 10.590520 3.90 77.50 151.282050
10.54 10.579460 3.984620 79.90 153.076920
10.53 10.56840 4.069230 82.30 154.871790
10.52 10.557340 4.153850 84.70 156.666670
10.51 10.546280 4.238460 87.10 158.717950
10.50 10.535890 4.323080 89.50 160.769230
10.49 10.525510 4.407690 91.90 162.820510
10.48 10.515120 4.492310 94.30 164.871790
10.47 10.504740 4.576920 96.70 166.923080
10.46 10.496610 4.661540 99.10 168.974360
10.45 10.488490 4.746150 101.50 171.025640
10.44 10.480360 4.830770 103.90 173.076920
10.43 10.472230 4.915380 106.30 175.128210
10.42 10.464110 5.0 108.70 177.179490
10.41 10.453050 5.008330 107.641670 179.230770
10.40 10.441990 5.016670 106.583330 181.282050
10.39 10.430930 5.0250 105.5250 183.333330
10.38 10.419860 5.033330 104.466670 179.722220
10.37 10.409260 5.041670 103.408330 176.111110
10.36 10.398650 5.050 102.350 172.50
10.35 10.388040 5.058330 101.291670 168.888890
10.34 10.377430 5.066670 100.233330 165.277780
10.33 10.367040 5.0750 99.1750 161.666670
10.32 10.356660 5.083330 98.116670 158.055560
10.31 10.346280 5.091670 97.058330 154.444440
10.30 10.335890 5.10 96.0 150.833330
10.29 10.327040 5.092310 96.530770 147.222220
10.28 10.318190 5.084620 97.061540 143.611110
10.27 10.309350 5.076920 97.592310 140.0
10.26 10.30050 5.069230 98.123080 139.230770
10.25 10.291650 5.061540 98.653850 138.461540
10.24 10.281040 5.053850 99.184620 137.692310
10.23 10.270430 5.046150 99.715380 136.923080
10.22 10.259820 5.038460 100.246150 136.153850
10.21 10.249210 5.030770 100.776920 135.384620
10.20 10.238830 5.023080 101.307690 134.615380
10.19 10.228440 5.015380 101.838460 133.846150
10.18 10.218060 5.007690 102.369230 133.076920
10.17 10.207670 5.0 102.90 132.307690
10.16 10.196390 4.946150 103.030770 131.538460
10.15 10.18510 4.892310 103.161540 130.769230
10.14 10.173810 4.838460 103.292310 130.0
10.13 10.162530 4.784620 103.423080 129.743590
10.12 10.154220 4.730770 103.553850 129.487180
10.11 10.145910 4.676920 103.684620 129.230770
10.10 10.137610 4.623080 103.815380 128.974360
10.09 10.12930 4.569230 103.946150 128.717950
10.08 10.120990 4.515380 104.076920 128.461540
10.07 10.110610 4.461540 104.207690 128.205130
10.06 10.100230 4.407690 104.338460 127.948720
10.05 10.089840 4.353850 104.469230 127.692310
10.04 10.079460 4.30 104.60 127.43590
10.03 10.06840 4.346150 104.246150 127.179490
10.02 10.057340 4.392310 103.892310 126.923080
10.01 10.046280 4.438460 103.538460 126.666670
10.00 10.035210 4.484620 103.184620 130.256410
9.99 10.02460 4.530770 102.830770 133.846150
9.98 10.0140 4.576920 102.476920 137.43590
9.97 10.003390 4.623080 102.123080 141.025640
9.96 9.992780 4.669230 101.769230 144.615380
9.95 9.984650 4.715380 101.415380 148.205130
9.94 9.976520 4.761540 101.061540 151.794870
9.93 9.96840 4.807690 100.707690 155.384620
9.92 9.960270 4.853850 100.353850 158.974360
9.91 9.952140 4.90 100.0 162.56410
9.90 9.941080 4.884620 99.884620 166.153850
9.89 9.930020 4.869230 99.769230 169.743590
9.88 9.918960 4.853850 99.653850 173.333330
9.87 9.90790 4.838460 99.538460 169.910390
9.86 9.897520 4.823080 99.423080 166.487460
9.85 9.887130 4.807690 99.307690 163.064520
9.84 9.876750 4.792310 99.192310 159.641580
9.83 9.866370 4.776920 99.076920 156.218640
9.82 9.856210 4.761540 98.961540 152.79570
9.81 9.846050 4.746150 98.846150 149.372760
9.80 9.835890 4.730770 98.730770 145.949820
9.79 9.825730 4.715380 98.615380 142.526880
9.78 9.816880 4.70 98.50 139.103940
9.77 9.808040 4.733330 99.183330 135.6810
9.76 9.799190 4.766670 99.866670 132.258060
9.75 9.790340 4.80 100.550 133.366420
9.74 9.781490 4.833330 101.233330 134.474770
9.73 9.770880 4.866670 101.916670 135.583130
9.72 9.760270 4.90 102.60 136.691480
9.71 9.749660 4.933330 103.283330 137.799830
9.70 9.739050 4.966670 103.966670 138.908190
9.69 9.728890 5.0 104.650 140.016540
9.68 9.718740 5.033330 105.333330 141.12490
9.67 9.708580 5.066670 106.016670 142.233250
9.66 9.698420 5.10 106.70 143.34160
9.65 9.687360 5.107690 106.730770 144.449960
9.64 9.67630 5.115380 106.761540 145.558310
9.63 9.665240 5.123080 106.792310 146.666670
9.62 9.654180 5.130770 106.823080 146.153850
9.61 9.643790 5.138460 106.853850 145.641030
9.60 9.633410 5.146150 106.884620 145.128210
9.59 9.623020 5.153850 106.915380 144.615380
9.58 9.612640 5.161540 106.946150 144.102560
9.57 9.604330 5.169230 106.976920 143.589740
9.56 9.596030 5.176920 107.007690 143.076920
9.55 9.587720 5.184620 107.038460 142.56410
9.54 9.579410 5.192310 107.069230 142.051280
9.53 9.571110 5.20 107.10 141.538460
9.52 9.560050 5.153850 106.161540 141.025640
