~VERSION INFORMATION SECTION
VERS. 2.0 : CWLS LAS-VERSION 2.0
WRAP. NO : One line per depth step
~WELL INFORMATION SECTION
# MNEM.UNIT VALUE/NAME DESCRIPTION
#-------- -------------- ---------------------
STRT.Metres 15 : Start
STOP.Metres 0.51 : Stop
STEP.Metres -0.01 : Step
NULL.  -999.25 :NULL VALUE
DATE. 2025-09-11 : DATE
~CURVE INFORMATION SECTION
DEPTH.Metres : 0 Depth
Depth. : 1 Depth
Incline.Deg : 2 Incline
Azimuth.Deg : 3 Azimuth
GR.CPS : 4 GR
~PARAMETER INFORMATION SECTION
~OTHER
#-------------------------------------------------
#Produced By: GeoVista Logger - Version 7.1.107.0
Natural Gamma Sonde - 6447
Verticality Sonde - 6292
#-------------------------------------------------
~ASCII LOG DATA
# ...
7.57 7.605870 4.646150 101.538460 155.384620
7.56 7.595490 4.615380 100.946150 153.076920
7.55 7.58510 4.584620 100.353850 150.769230
7.54 7.574720 4.553850 99.761540 148.461540
7.53 7.566590 4.523080 99.169230 146.153850
7.52 7.558470 4.492310 98.576920 143.846150
7.51 7.550340 4.461540 97.984620 141.538460
7.50 7.542210 4.430770 97.392310 139.230770
7.49 7.534090 4.40 96.80 136.923080
7.48 7.52280 4.391670 97.058330 134.615380
7.47 7.511510 4.383330 97.316670 132.307690
7.46 7.500230 4.3750 97.5750 130.0
7.45 7.488940 4.366670 97.833330 130.669980
7.44 7.478330 4.358330 98.091670 131.339950
7.43 7.467720 4.350 98.350 132.009930
7.42 7.457110 4.341670 98.608330 132.67990
7.41 7.44650 4.333330 98.866670 133.349880
7.40 7.436340 4.3250 99.1250 134.019850
7.39 7.426190 4.316670 99.383330 134.689830
7.38 7.416030 4.308330 99.641670 135.35980
7.37 7.405870 4.30 99.90 136.029780
7.36 7.396840 4.284620 99.461540 136.699750
7.35 7.387810 4.269230 99.023080 137.369730
7.34 7.378780 4.253850 98.584620 138.03970
7.33 7.369750 4.238460 98.146150 138.709680
7.32 7.360720 4.223080 97.707690 139.372760
7.31 7.350110 4.207690 97.269230 140.035840
7.30 7.33950 4.192310 96.830770 140.698920
7.29 7.328890 4.176920 96.392310 141.362010
7.28 7.318280 4.161540 95.953850 142.025090
7.27 7.308130 4.146150 95.515380 142.688170
7.26 7.297970 4.130770 95.076920 143.351250
7.25 7.287810 4.115380 94.638460 144.014340
7.24 7.277650 4.10 94.20 144.677420
7.23 7.266590 4.046150 94.261540 145.34050
7.22 7.255530 3.992310 94.323080 146.003580
7.21 7.244470 3.938460 94.384620 146.666670
7.20 7.233410 3.884620 94.446150 151.538460
7.19 7.223020 3.830770 94.507690 156.410260
7.18 7.212640 3.776920 94.569230 161.282050
7.17 7.202260 3.723080 94.630770 166.153850
7.16 7.191870 3.669230 94.692310 171.025640
7.15 7.183750 3.615380 94.753850 175.897440
7.14 7.175620 3.561540 94.815380 180.769230
7.13 7.167490 3.507690 94.876920 185.641030
7.12 7.159370 3.453850 94.938460 190.512820
7.11 7.151240 3.40 95.0 195.384620
7.10 7.140180 3.484620 95.084620 200.256410
7.09 7.129120 3.569230 95.169230 205.128210
7.08 7.118060 3.653850 95.253850 210.0
7.07 7.1070 3.738460 95.338460 205.128210
7.06 7.096610 3.823080 95.423080 200.256410
7.05 7.086230 3.907690 95.507690 195.384620
7.04 7.075850 3.992310 95.592310 190.512820
7.03 7.065460 4.076920 95.676920 185.641030
7.02 7.055530 4.161540 95.761540 180.769230
7.01 7.04560 4.246150 95.846150 175.897440
7.00 7.035670 4.330770 95.930770 171.025640
6.99 7.025730 4.415380 96.015380 166.153850
6.98 7.01490 4.50 96.10 161.282050
6.97 7.004060 4.4880 96.4280 156.410260
6.96 6.993230 4.4760 96.7560 151.538460
6.95 6.982390 4.4640 97.0840 146.666670
6.94 6.972010 4.4520 97.4120 146.388890
6.93 6.961630 4.440 97.740 146.111110
6.92 6.951240 4.4280 98.0680 145.833330
6.91 6.940860 4.4160 98.3960 145.555560
6.90 6.932910 4.4040 98.7240 145.277780
6.89 6.924970 4.3920 99.0520 145.0
6.88 6.917020 4.380 99.380 144.722220
6.87 6.909070 4.3680 99.7080 144.444440
6.86 6.901130 4.3560 100.0360 144.166670
6.85 6.890070 4.3440 100.3640 143.888890
6.84 6.879010 4.3320 100.6920 143.611110
6.83 6.867950 4.320 101.020 143.333330
6.82 6.856880 4.3080 101.3480 146.538460
6.81 6.84650 4.2960 101.6760 149.743590
6.80 6.836120 4.2840 102.0040 152.948720
6.79 6.825730 4.2720 102.3320 156.153850
6.78 6.815350 4.260 102.660 159.358970
6.77 6.807220 4.2480 102.9880 162.56410
6.76 6.79910 4.2360 103.3160 165.769230
6.75 6.790970 4.2240 103.6440 168.974360
6.74 6.782840 4.2120 103.9720 172.179490
6.73 6.774720 4.20 104.30 175.384620
6.72 6.763430 4.2250 103.841670 178.589740
6.71 6.752140 4.250 103.383330 181.794870
6.70 6.740860 4.2750 102.9250 185.0
6.69 6.729570 4.30 102.466670 183.076920
6.68 6.719190 4.3250 102.008330 181.153850
6.67 6.70880 4.350 101.550 179.230770
6.66 6.698420 4.3750 101.091670 177.307690
6.65 6.688040 4.40 100.633330 175.384620
6.64 6.677880 4.4250 100.1750 173.461540
6.63 6.667720 4.450 99.716670 171.538460
6.62 6.657560 4.4750 99.258330 169.615380
6.61 6.64740 4.50 98.80 167.692310
6.60 6.638560 4.492310 99.284620 165.769230
6.59 6.629710 4.484620 99.769230 163.846150
6.58 6.620860 4.476920 100.253850 161.923080
6.57 6.612010 4.469230 100.738460 160.0
6.56 6.603160 4.461540 101.223080 162.307690
6.55 6.592330 4.453850 101.707690 164.615380
6.54 6.581490 4.446150 102.192310 166.923080
6.53 6.570650 4.438460 102.676920 169.230770
6.52 6.559820 4.430770 103.161540 171.538460
6.51 6.549660 4.423080 103.646150 173.846150
6.50 6.53950 4.415380 104.130770 176.153850
6.49 6.529350 4.407690 104.615380 178.461540
6.48 6.519190 4.40 105.10 180.769230
6.47 6.508130 4.384620 104.592310 183.076920
6.46 6.497070 4.369230 104.084620 185.384620
6.45 6.4860 4.353850 103.576920 187.692310
6.44 6.474940 4.338460 103.069230 190.0
6.43 6.464330 4.323080 102.561540 186.666670
6.42 6.453720 4.307690 102.053850 183.333330
6.41 6.443120 4.292310 101.546150 180.0
6.40 6.432510 4.276920 101.038460 176.666670
6.39 6.424380 4.261540 100.530770 173.333330
6.38 6.416250 4.246150 100.023080 170.0
6.37 6.408130 4.230770 99.515380 166.666670
6.36 6.40 4.215380 99.007690 163.333330
6.35 6.391870 4.20 98.50 160.0
6.34 6.380810 4.215380 98.615380 156.666670
6.33 6.369750 4.230770 98.730770 153.333330
6.32 6.358690 4.246150 98.846150 150.0
6.31 6.347630 4.261540 98.961540 153.589740
6.30 6.337250 4.276920 99.076920 157.179490
6.29 6.326860 4.292310 99.192310 160.769230
6.28 6.316480 4.307690 99.307690 164.358970
6.27 6.306090 4.323080 99.423080 167.948720
6.26 6.295940 4.338460 99.538460 171.538460
6.25 6.285780 4.353850 99.653850 175.128210
6.24 6.275620 4.369230 99.769230 178.717950
6.23 6.265460 4.384620 99.884620 182.307690
6.22 6.256610 4.40 100.0 185.897440
6.21 6.247770 4.391670 100.0750 189.487180
6.20 6.238920 4.383330 100.150 193.076920
6.19 6.230070 4.3750 100.2250 196.666670
6.18 6.221220 4.366670 100.30 192.398990
6.17 6.210840 4.358330 100.3750 188.131310
6.16 6.200450 4.350 100.450 183.863640
6.15 6.190070 4.341670 100.5250 179.595960
6.14 6.179680 4.333330 100.60 175.328280
6.13 6.169530 4.3250 100.6750 171.060610
6.12 6.159370 4.316670 100.750 166.792930
6.11 6.149210 4.308330 100.8250 162.525250
6.10 6.139050 4.30 100.90 158.257580
6.09 6.127990 4.292310 100.823080 153.98990
6.08 6.116930 4.284620 100.746150 149.722220
6.07 6.105870 4.276920 100.669230 145.454550
6.06 6.094810 4.269230 100.592310 146.411480
6.05 6.084420 4.261540 100.515380 147.368420
6.04 6.074040 4.253850 100.438460 148.325360
6.03 6.063660 4.246150 100.361540 149.28230
6.02 6.053270 4.238460 100.284620 150.239230
6.01 6.045150 4.230770 100.207690 151.196170
6.00 6.037020 4.223080 100.130770 152.153110
5.99 6.028890 4.215380 100.053850 153.110050
5.98 6.020770 4.207690 99.976920 154.066990
5.97 6.012640 4.20 99.90 155.023920
5.96 6.001350 4.169230 99.476920 155.980860
5.95 5.990070 4.138460 99.053850 156.93780
5.94 5.978780 4.107690 98.630770 157.894740
5.93 5.967490 4.076920 98.207690 157.800270
5.92 5.957110 4.046150 97.784620 157.70580
5.91 5.946730 4.015380 97.361540 157.611340
5.90 5.936340 3.984620 96.938460 157.516870
5.89 5.925960 3.953850 96.515380 157.42240
5.88 5.916030 3.923080 96.092310 157.327940
5.87 5.906090 3.892310 95.669230 157.233470
5.86 5.896160 3.861540 95.246150 157.1390
5.85 5.886230 3.830770 94.823080 157.044530
5.84 5.875170 3.80 94.40 156.950070
5.83 5.864110 3.791670 94.416670 156.85560
5.82 5.853050 3.783330 94.433330 156.761130
5.81 5.841990 3.7750 94.450 156.666670
5.80 5.833680 3.766670 94.466670 157.222220
5.79 5.825370 3.758330 94.483330 157.777780
5.78 5.817070 3.750 94.50 158.333330
5.77 5.808760 3.741670 94.516670 158.888890
5.76 5.800450 3.733330 94.533330 159.444440
5.75 5.790290 3.7250 94.550 160.0
5.74 5.780140 3.716670 94.566670 160.555560
5.73 5.769980 3.708330 94.583330 161.111110
5.72 5.759820 3.70 94.60 161.666670
5.71 5.748530 3.646150 94.553850 162.222220
5.70 5.737250 3.592310 94.507690 162.777780
5.69 5.725960 3.538460 94.461540 163.333330
5.68 5.714670 3.484620 94.415380 162.307690
