~VERSION INFORMATION SECTION
VERS. 2.0 : CWLS LAS-VERSION 2.0
WRAP. NO : One line per depth step
~WELL INFORMATION SECTION
# MNEM.UNIT VALUE/NAME DESCRIPTION
#-------- -------------- ---------------------
STRT.Metres 15 : Start
STOP.Metres 0.43 : Stop
STEP.Metres -0.01 : Step
NULL.  -999.25 :NULL VALUE
DATE. 2025-07-11 : DATE
~CURVE INFORMATION SECTION
DEPTH.Metres : 0 Depth
Depth. : 1 Depth
Incline.Deg : 2 Incline
Azimuth.Deg : 3 Azimuth
GR.CPS : 4 GR
~PARAMETER INFORMATION SECTION
~OTHER
#-------------------------------------------------
#Produced By: GeoVista Logger - Version 7.1.107.0
Natural Gamma Sonde - 6447
Verticality Sonde - 6292
#-------------------------------------------------
~ASCII LOG DATA
# ...
3.07 3.090140 2.6750 88.70 137.50
3.06 3.081720 2.76250 89.250 130.0
3.05 3.069070 2.850 89.80 127.142860
3.04 3.056430 2.93750 90.350 124.285710
3.03 3.048010 3.0250 90.90 121.428570
3.02 3.039580 3.11250 91.450 118.571430
3.01 3.031150 3.20 92.0 115.714290
3.00 3.018510 3.20 92.514290 112.857140
2.99 3.005870 3.20 93.028570 110.0
2.98 2.997440 3.20 93.542860 116.666670
2.97 2.989010 3.20 94.057140 123.333330
2.96 2.980590 3.20 94.571430 130.0
2.95 2.967950 3.20 95.085710 136.666670
2.94 2.95530 3.20 95.60 143.333330
2.93 2.946880 3.1750 96.2750 150.0
2.92 2.938450 3.150 96.950 156.666670
2.91 2.930020 3.1250 97.6250 163.333330
2.90 2.920990 3.10 98.30 159.166670
2.89 2.911960 3.0750 98.9750 155.0
2.88 2.902930 3.050 99.650 150.833330
2.87 2.890290 3.0250 100.3250 146.666670
2.86 2.877650 3.0 101.0 142.50
2.85 2.868920 3.028570 100.428570 138.333330
2.84 2.86020 3.057140 99.857140 134.166670
2.83 2.851470 3.085710 99.285710 130.0
2.82 2.842740 3.114290 98.714290 131.904760
2.81 2.834010 3.142860 98.142860 133.809520
2.80 2.825280 3.171430 97.571430 135.714290
2.79 2.812640 3.20 97.0 137.619050
2.78 2.80 3.20 96.21250 139.523810
2.77 2.791270 3.20 95.4250 141.428570
2.76 2.782540 3.20 94.63750 143.333330
2.75 2.773810 3.20 93.850 142.916670
2.74 2.760720 3.20 93.06250 142.50
2.73 2.747630 3.20 92.2750 142.083330
2.72 2.740110 3.20 91.48750 141.666670
2.71 2.732580 3.20 90.70 141.250
2.70 2.725060 3.185710 90.642860 140.833330
2.69 2.712420 3.171430 90.585710 140.416670
2.68 2.699770 3.157140 90.528570 140.0
2.67 2.687130 3.142860 90.471430 143.333330
2.66 2.674490 3.128570 90.414290 146.666670
2.65 2.666370 3.114290 90.357140 150.0
2.64 2.658240 3.10 90.30 153.333330
2.63 2.650110 3.0750 90.8250 156.666670
2.62 2.641690 3.050 91.350 160.0
2.61 2.633260 3.0250 91.8750 163.333330
2.60 2.624830 3.0 92.40 177.327190
2.59 2.611740 2.9750 92.9250 191.321040
2.58 2.598650 2.950 93.450 205.31490
2.57 2.590520 2.9250 93.9750 219.308760
2.56 2.582390 2.90 94.50 233.302610
2.55 2.574270 2.9250 95.3750 247.296470
2.54 2.561630 2.950 96.250 261.290320
2.53 2.548980 2.9750 97.1250 245.29570
2.52 2.540560 3.0 98.0 229.301080
2.51 2.532130 3.0250 98.8750 213.306450
2.50 2.52370 3.050 99.750 197.311830
2.49 2.511060 3.0750 100.6250 181.31720
2.48 2.498420 3.10 101.50 165.322580
2.47 2.490290 3.08750 99.7250 149.327960
2.46 2.482170 3.0750 97.950 133.333330
2.45 2.474040 3.06250 96.1750 137.916670
2.44 2.46140 3.050 94.40 142.50
2.43 2.448760 3.03750 92.6250 147.083330
2.42 2.440630 3.0250 90.850 151.666670
2.41 2.432510 3.01250 89.0750 156.250
2.40 2.424380 3.0 87.30 160.833330
2.39 2.412190 2.985710 87.442860 165.416670
2.38 2.40 2.971430 87.585710 170.0
2.37 2.387360 2.957140 87.728570 165.714290
2.36 2.374720 2.942860 87.871430 161.428570
2.35 2.366590 2.928570 88.014290 157.142860
2.34 2.358470 2.914290 88.157140 152.857140
2.33 2.350340 2.90 88.30 148.571430
2.32 2.338150 2.88750 89.03750 144.285710
2.31 2.325960 2.8750 89.7750 140.0
2.30 2.317530 2.86250 90.51250 135.0
2.29 2.30910 2.850 91.250 130.0
2.28 2.300680 2.83750 91.98750 125.0
2.27 2.288040 2.8250 92.7250 120.0
2.26 2.27540 2.81250 93.46250 115.0
2.25 2.267270 2.80 94.20 110.0
2.24 2.259140 2.785710 94.414290 105.0
2.23 2.251020 2.771430 94.628570 100.0
2.22 2.242290 2.757140 94.842860 102.142860
2.21 2.233560 2.742860 95.057140 104.285710
2.20 2.224830 2.728570 95.271430 106.428570
2.19 2.212190 2.714290 95.485710 108.571430
2.18 2.199550 2.70 95.70 110.714290
2.17 2.191120 2.642860 96.542860 112.857140
2.16 2.182690 2.585710 97.385710 115.0
2.15 2.174270 2.528570 98.228570 116.8750
2.14 2.161630 2.471430 99.071430 118.750
2.13 2.148980 2.414290 99.914290 120.6250
2.12 2.140560 2.357140 100.757140 122.50
2.11 2.132130 2.30 101.60 124.3750
2.10 2.12370 2.3250 100.2750 126.250
2.09 2.111510 2.350 98.950 128.1250
2.08 2.099320 2.3750 97.6250 130.0
2.07 2.090590 2.40 96.30 130.833330
2.06 2.081870 2.4250 94.9750 131.666670
2.05 2.073140 2.450 93.650 132.50
2.04 2.06050 2.4750 92.3250 133.333330
2.03 2.047860 2.50 91.0 134.166670
2.02 2.039730 2.50 92.457140 135.0
2.01 2.03160 2.50 93.914290 135.833330
2.00 2.023480 2.50 95.371430 136.666670
1.99 2.010380 2.50 96.828570 138.095240
1.98 1.997290 2.50 98.285710 139.523810
1.97 1.988860 2.50 99.742860 140.952380
1.96 1.980440 2.50 101.20 142.380950
1.95 1.972010 2.51250 99.38750 143.809520
1.94 1.959370 2.5250 97.5750 145.23810
1.93 1.946730 2.53750 95.76250 146.666670
1.92 1.93830 2.550 93.950 147.083330
1.91 1.929870 2.56250 92.13750 147.50
1.90 1.921440 2.5750 90.3250 147.916670
1.89 1.90880 2.58750 88.51250 148.333330
1.88 1.896160 2.60 86.70 148.750
1.87 1.888040 2.566670 87.980 149.166670
1.86 1.879910 2.533330 89.260 149.583330
1.85 1.871780 2.50 90.540 150.0
1.84 1.858690 2.466670 91.820 157.142860
1.83 1.84560 2.433330 93.10 164.285710
1.82 1.837470 2.40 94.380 171.428570
1.81 1.829350 2.366670 95.660 178.571430
1.80 1.821220 2.333330 96.940 185.714290
1.79 1.808580 2.30 98.220 192.857140
1.78 1.795940 2.266670 99.50 200.0
1.77 1.787510 2.233330 100.780 191.250
1.76 1.779080 2.20 102.060 182.50
1.75 1.770650 2.166670 103.340 173.750
1.74 1.758010 2.133330 104.620 165.0
1.73 1.745370 2.10 105.90 156.250
1.72 1.737250 2.06250 105.76250 147.50
1.71 1.729120 2.0250 105.6250 138.750
1.70 1.720990 1.98750 105.48750 130.0
1.69 1.70790 1.950 105.350 142.50
1.68 1.694810 1.91250 105.21250 155.0
1.67 1.686680 1.8750 105.0750 167.50
1.66 1.678560 1.83750 104.93750 180.0
1.65 1.670430 1.80 104.80 192.50
1.64 1.6620 1.771430 102.885710 205.0
1.63 1.653570 1.742860 100.971430 217.50
1.62 1.645150 1.714290 99.057140 230.0
1.61 1.632510 1.685710 97.142860 222.857140
1.60 1.619860 1.657140 95.228570 215.714290
1.59 1.607670 1.628570 93.314290 208.571430
1.58 1.595490 1.60 91.40 201.428570
1.57 1.587060 1.66250 91.850 194.285710
1.56 1.578630 1.7250 92.30 187.142860
1.55 1.57020 1.78750 92.750 180.0
1.54 1.558470 1.850 93.20 184.76190
1.53 1.546730 1.91250 93.650 189.523810
1.52 1.536340 1.9750 94.10 194.285710
1.51 1.525960 2.03750 94.550 199.047620
1.50 1.516480 2.10 95.0 203.809520
1.49 1.5070 2.10 95.20 208.571430
1.48 1.488040 2.10 95.40 213.333330
1.47 1.479460 2.10 95.60 208.750
1.46 1.470880 2.10 95.80 204.166670
1.45 1.462750 2.10 96.0 199.583330
1.44 1.454630 2.10 96.20 195.0
1.43 1.438370 2.10 96.40 190.416670
1.42 1.43070 2.08750 97.850 185.833330
1.41 1.423020 2.0750 99.30 181.250
1.40 1.408580 2.06250 100.750 176.666670
1.39 1.40090 2.050 102.20 178.095240
1.38 1.393230 2.03750 103.650 179.523810
1.37 1.378780 2.0250 105.10 180.952380
1.36 1.365240 2.01250 106.550 182.380950
1.35 1.351690 2.0 108.0 183.809520
1.34 1.340860 2.014290 107.485710 185.23810
1.33 1.333630 2.028570 106.971430 186.666670
1.32 1.324150 2.042860 106.457140 183.750
1.31 1.313410 2.057140 105.942860 180.833330
1.30 -999.25 2.071430 105.428570 177.916670
1.29 -999.25 2.085710 104.914290 175.0
1.28 -999.25 2.10 104.40 172.083330
1.27 -999.25 2.071430 106.157140 169.166670
1.26 -999.25 2.042860 107.914290 166.250
1.25 -999.25 2.014290 109.671430 163.333330
1.24 -999.25 1.985710 111.428570 165.0
1.23 -999.25 1.957140 113.185710 166.666670
1.22 -999.25 1.928570 114.942860 168.333330
1.21 -999.25 1.90 116.70 170.0
1.20 -999.25 1.860 113.70 171.666670
1.19 -999.25 1.820 110.70 173.333330
1.18 -999.25 1.780 107.70 175.0
1.17 -999.25 1.740 104.70 176.666670
1.16 -999.25 1.70 101.70 170.0
1.15 -999.25 1.640 103.80 163.333330
1.14 -999.25 1.580 105.90 156.666670
1.13 -999.25 1.520 108.0 150.0
1.12 -999.25 1.460 110.10 143.333330
1.11 -999.25 1.40 112.20 136.666670
1.10 -999.25 1.4750 112.30 130.0
1.09 -999.25 1.550 112.40 131.8750
1.08 -999.25 1.6250 112.50 133.750
1.07 -999.25 1.70 112.60 135.6250
1.06 -999.25 1.70 114.066670 137.50
1.05 -999.25 1.70 115.533330 139.3750
1.04 -999.25 1.70 117.0 141.250
1.03 -999.25 1.60 116.350 143.1250
1.02 -999.25 1.50 115.70 145.0
1.01 -999.25 1.40 116.20 141.904760
1.00 -999.25 -999.25 -999.25 138.809520
0.99 -999.25 -999.25 -999.25 135.714290
0.98 -999.25 -999.25 -999.25 132.619050
