~VERSION INFORMATION SECTION
VERS. 2.0 : CWLS LAS-VERSION 2.0
WRAP. NO : One line per depth step
~WELL INFORMATION SECTION
# MNEM.UNIT VALUE/NAME DESCRIPTION
#-------- -------------- ---------------------
STRT.Metres 16 : Start
STOP.Metres 0.47 : Stop
STEP.Metres -0.01 : Step
NULL.  -999.25 :NULL VALUE
DATE. 2025-03-11 : DATE
~CURVE INFORMATION SECTION
DEPTH.Metres : 0 Depth
Depth. : 1 Depth
Incline.Deg : 2 Incline
Azimuth.Deg : 3 Azimuth
GR.CPS : 4 GR
~PARAMETER INFORMATION SECTION
~OTHER
#-------------------------------------------------
#Produced By: GeoVista Logger - Version 7.1.107.0
Natural Gamma Sonde - 6447
Verticality Sonde - 6292
#-------------------------------------------------
~ASCII LOG DATA
# ...
12.09 12.107450 5.785710 101.442860 115.23810
12.08 12.097070 5.771430 101.385710 113.333330
12.07 12.086680 5.757140 101.328570 110.555560
12.06 12.076750 5.742860 101.271430 107.777780
12.05 12.066820 5.728570 101.214290 105.0
12.04 12.056880 5.714290 101.157140 102.222220
12.03 12.046950 5.70 101.10 99.444440
12.02 12.036570 5.716670 101.183330 96.666670
12.01 12.026190 5.733330 101.266670 105.0
12.00 12.016250 5.750 101.350 113.333330
11.99 12.006320 5.766670 101.433330 121.666670
11.98 11.995940 5.783330 101.516670 130.0
11.97 11.985550 5.80 101.60 138.333330
11.96 11.975170 5.816670 101.833330 146.666670
11.95 11.964790 5.833330 102.066670 143.888890
11.94 11.95440 5.850 102.30 141.111110
11.93 11.944020 5.866670 102.533330 138.333330
11.92 11.933180 5.883330 102.766670 135.555560
11.91 11.922350 5.90 103.0 132.777780
11.90 11.912420 5.90 103.250 130.0
11.89 11.902480 5.90 103.50 130.555560
11.88 11.89210 5.90 103.750 131.111110
11.87 11.881720 5.90 104.0 131.666670
11.86 11.871330 5.90 104.250 132.222220
11.85 11.860950 5.90 104.50 132.777780
11.84 11.854030 5.883330 104.166670 133.333330
11.83 11.84710 5.866670 103.833330 138.888890
11.82 11.840180 5.850 103.50 144.444440
11.81 11.82980 5.833330 103.166670 150.0
11.80 11.819410 5.816670 102.833330 155.555560
11.79 11.809030 5.80 102.50 161.111110
11.78 11.798650 5.80 102.516670 166.666670
11.77 11.788260 5.80 102.533330 160.555560
11.76 11.777880 5.80 102.550 154.444440
11.75 11.767490 5.80 102.566670 148.333330
11.74 11.757110 5.80 102.583330 142.222220
11.73 11.746280 5.80 102.60 136.111110
11.72 11.735440 5.80 102.633330 130.0
11.71 11.725060 5.80 102.666670 129.444440
11.70 11.714670 5.80 102.70 128.888890
11.69 11.703840 5.80 102.733330 128.333330
11.68 11.6930 5.80 102.766670 127.777780
11.67 11.682170 5.80 102.80 127.222220
11.66 11.671330 5.816670 102.666670 126.666670
11.65 11.664410 5.833330 102.533330 130.555560
11.64 11.657490 5.850 102.40 134.444440
11.63 11.650560 5.866670 102.266670 138.333330
11.62 11.639730 5.883330 102.133330 142.222220
11.61 11.628890 5.90 102.0 146.111110
11.60 11.618060 5.866670 101.966670 150.0
11.59 11.607220 5.833330 101.933330 150.555560
11.58 11.596390 5.80 101.90 151.111110
11.57 11.585550 5.766670 101.866670 151.666670
11.56 11.575170 5.733330 101.833330 152.222220
11.55 11.564790 5.70 101.80 152.777780
11.54 11.553950 5.628570 101.571430 153.333330
11.53 11.543120 5.557140 101.342860 159.523810
11.52 11.532730 5.485710 101.114290 165.714290
11.51 11.522350 5.414290 100.885710 171.904760
11.50 11.515430 5.342860 100.657140 178.095240
11.49 11.50850 5.271430 100.428570 184.285710
11.48 11.501580 5.20 100.20 190.476190
11.47 11.490740 5.266670 100.30 196.666670
11.46 11.479910 5.333330 100.40 183.888890
11.45 11.469530 5.40 100.50 171.111110
11.44 11.459140 5.466670 100.60 158.333330
11.43 11.448760 5.533330 100.70 145.555560
11.42 11.438370 5.60 100.80 132.777780
11.41 11.427990 5.633330 101.30 120.0
11.40 11.417610 5.666670 101.80 130.555560
11.39 11.407220 5.70 102.30 141.111110
11.38 11.396840 5.733330 102.80 151.666670
11.37 11.386460 5.766670 103.30 162.222220
11.36 11.376070 5.80 103.80 172.777780
11.35 11.365690 5.80 103.771430 183.333330
11.34 11.35530 5.80 103.742860 177.222220
11.33 11.345370 5.80 103.714290 171.111110
11.32 11.335440 5.80 103.685710 165.0
11.31 11.325060 5.80 103.657140 158.888890
11.30 11.314670 5.80 103.628570 152.777780
11.29 11.304740 5.80 103.60 146.666670
11.28 11.294810 5.80 103.050 140.0
11.27 11.284420 5.80 102.50 133.333330
11.26 11.274040 5.80 101.950 126.666670
11.25 11.263660 5.80 101.40 120.0
11.24 11.253270 5.80 100.850 113.333330
11.23 11.243340 5.80 100.30 106.666670
11.22 11.233410 5.785710 101.085710 112.222220
11.21 11.223020 5.771430 101.871430 117.777780
11.20 11.212640 5.757140 102.657140 123.333330
11.19 11.202710 5.742860 103.442860 128.888890
11.18 11.192780 5.728570 104.228570 134.444440
11.17 11.182390 5.714290 105.014290 140.0
11.16 11.172010 5.70 105.80 137.096770
11.15 11.162080 5.70 104.183330 134.193550
11.14 11.152140 5.70 102.566670 131.290320
11.13 11.142210 5.70 100.950 128.38710
11.12 11.132280 5.70 99.333330 125.483870
11.11 11.122350 5.70 97.716670 122.580650
11.10 11.112420 5.70 96.10 129.928320
11.09 11.102480 5.70 97.266670 137.275990
11.08 11.092550 5.70 98.433330 144.623660
11.07 11.082620 5.70 99.60 151.971330
11.06 11.072690 5.70 100.766670 159.3190
11.05 11.06230 5.70 101.933330 166.666670
11.04 11.051920 5.70 103.10 161.111110
11.03 11.042440 5.70 102.883330 155.555560
11.02 11.032960 5.70 102.666670 150.0
11.01 11.023020 5.70 102.450 144.444440
11.00 11.013090 5.70 102.233330 138.888890
10.99 11.003610 5.70 102.016670 133.333330
10.98 10.994130 5.70 101.80 135.23810
10.97 10.98420 5.683330 101.916670 137.142860
10.96 10.974270 5.666670 102.033330 139.047620
10.95 10.964790 5.650 102.150 140.952380
10.94 10.95530 5.633330 102.266670 142.857140
10.93 10.945820 5.616670 102.383330 144.76190
10.92 10.936340 5.60 102.50 146.666670
10.91 10.926860 5.566670 102.516670 148.888890
10.90 10.917380 5.533330 102.533330 151.111110
10.89 10.90790 5.50 102.550 153.333330
10.88 10.898420 5.466670 102.566670 155.555560
10.87 10.879460 5.433330 102.583330 157.777780
10.86 10.869980 5.40 102.60 160.0
10.85 10.86050 5.40 102.233330 155.555560
10.84 10.851020 5.40 101.866670 151.111110
10.83 10.841530 5.40 101.50 146.666670
10.82 10.832050 5.40 101.133330 142.222220
10.81 10.822570 5.40 100.766670 137.777780
10.80 10.813090 5.40 100.40 133.333330
10.79 10.803610 5.433330 101.133330 135.714290
10.78 10.794130 5.466670 101.866670 138.095240
10.77 10.784650 5.50 102.60 140.476190
10.76 10.775170 5.533330 103.333330 142.857140
10.75 10.765690 5.566670 104.066670 145.23810
10.74 10.756210 5.60 104.80 147.619050
10.73 10.746730 5.60 104.183330 150.0
10.72 10.737250 5.60 103.566670 147.777780
10.71 10.727770 5.60 102.950 145.555560
10.70 10.718280 5.60 102.333330 143.333330
10.69 10.70880 5.60 101.716670 141.111110
10.68 10.689840 5.60 101.10 138.888890
10.67 10.680360 5.616670 101.350 136.666670
10.66 10.670880 5.633330 101.60 141.111110
10.65 10.66140 5.650 101.850 145.555560
10.64 10.651920 5.666670 102.10 150.0
10.63 10.642440 5.683330 102.350 154.444440
10.62 10.632960 5.70 102.60 158.888890
10.61 10.623480 5.690910 102.672730 163.333330
10.60 10.6140 5.681820 102.745450 160.952380
10.59 10.604510 5.672730 102.818180 158.571430
10.58 10.595030 5.663640 102.890910 156.190480
10.57 10.5860 5.654550 102.963640 153.809520
10.56 10.576980 5.645450 103.036360 151.428570
10.55 10.567040 5.636360 103.109090 149.047620
10.54 10.557110 5.627270 103.181820 146.666670
10.53 10.547630 5.618180 103.254550 150.555560
10.52 10.538150 5.609090 103.327270 154.444440
10.51 10.519190 5.60 103.40 158.333330
10.50 10.509710 5.533330 102.916670 162.222220
10.49 10.500230 5.466670 102.433330 166.111110
10.48 10.490740 5.40 101.950 170.0
10.47 10.481260 5.333330 101.466670 168.333330
10.46 10.471780 5.266670 100.983330 166.666670
10.45 10.46230 5.20 100.50 165.0
10.44 10.452820 5.260 101.20 163.333330
10.43 10.443340 5.320 101.90 161.666670
10.42 10.433860 5.380 102.60 160.0
10.41 10.424380 5.440 103.30 161.666670
10.40 10.41490 5.50 104.0 163.333330
10.39 10.405420 5.50 104.008330 165.0
10.38 10.395940 5.50 104.016670 166.666670
10.37 10.386460 5.50 104.0250 168.333330
10.36 10.376980 5.50 104.033330 170.0
10.35 10.367490 5.50 104.041670 171.111110
10.34 10.358010 5.50 104.050 172.222220
10.33 10.348530 5.50 104.058330 173.333330
10.32 10.329570 5.50 104.066670 174.444440
10.31 10.320090 5.50 104.0750 175.555560
10.30 10.310610 5.50 104.083330 176.666670
10.29 10.301130 5.50 104.091670 173.888890
10.28 10.291650 5.50 104.10 171.111110
10.27 10.282170 5.50 104.183330 168.333330
10.26 10.272690 5.50 104.266670 165.555560
10.25 10.263210 5.50 104.350 162.777780
10.24 10.253720 5.50 104.433330 160.0
10.23 10.244240 5.50 104.516670 157.222220
10.22 10.234760 5.50 104.60 154.444440
10.21 10.225280 5.460 104.080 151.666670
