~VERSION INFORMATION SECTION
VERS. 2.0 : CWLS LAS-VERSION 2.0
WRAP. NO : One line per depth step
~WELL INFORMATION SECTION
# MNEM.UNIT VALUE/NAME DESCRIPTION
#-------- -------------- ---------------------
STRT.Metres 16 : Start
STOP.Metres 0.47 : Stop
STEP.Metres -0.01 : Step
NULL.  -999.25 :NULL VALUE
DATE. 2025-03-11 : DATE
~CURVE INFORMATION SECTION
DEPTH.Metres : 0 Depth
Depth. : 1 Depth
Incline.Deg : 2 Incline
Azimuth.Deg : 3 Azimuth
GR.CPS : 4 GR
~PARAMETER INFORMATION SECTION
~OTHER
#-------------------------------------------------
#Produced By: GeoVista Logger - Version 7.1.107.0
Natural Gamma Sonde - 6447
Verticality Sonde - 6292
#-------------------------------------------------
~ASCII LOG DATA
# ...
3.90 3.919640 3.60 93.850 167.333330
3.89 3.909710 3.60 92.933330 165.333330
3.88 3.899770 3.60 92.016670 163.333330
3.87 3.879910 3.60 91.10 161.111110
3.86 3.870430 3.620 91.540 158.888890
3.85 3.860950 3.640 91.980 156.666670
3.84 3.851020 3.660 92.420 154.444440
3.83 3.841080 3.680 92.860 152.222220
3.82 3.831150 3.70 93.30 150.0
3.81 3.821220 3.70 93.20 150.0
3.80 3.811740 3.70 93.10 150.0
3.79 3.802260 3.70 93.0 150.0
3.78 3.792330 3.70 92.90 150.0
3.77 3.782390 3.70 92.80 150.0
3.76 3.772460 3.70 92.70 150.0
3.75 3.762530 3.70 92.733330 150.0
3.74 3.753050 3.70 92.766670 150.0
3.73 3.743570 3.70 92.80 150.0
3.72 3.733630 3.70 92.833330 150.0
3.71 3.72370 3.70 92.866670 150.0
3.70 3.714220 3.70 92.90 150.555560
3.69 3.704740 3.70 93.0 151.111110
3.68 3.694810 3.70 93.10 151.666670
3.67 3.684880 3.70 93.20 152.222220
3.66 3.67540 3.70 93.30 152.777780
3.65 3.665910 3.70 93.40 153.333330
3.64 3.656430 3.70 93.50 155.555560
3.63 3.646950 3.70 93.460 157.777780
3.62 3.637470 3.70 93.420 160.0
3.61 3.627990 3.70 93.380 162.222220
3.60 3.609030 3.70 93.340 164.444440
3.59 3.599550 3.70 93.30 166.666670
3.58 3.590070 3.70 93.250 160.0
3.57 3.580590 3.70 93.20 153.333330
3.56 3.571110 3.70 93.150 146.666670
3.55 3.561630 3.70 93.10 140.0
3.54 3.552140 3.70 93.050 133.333330
3.53 3.542660 3.70 93.0 140.143370
3.52 3.533180 3.683330 93.066670 146.953410
3.51 3.52370 3.666670 93.133330 153.763440
3.50 3.514220 3.650 93.20 160.573480
3.49 3.504740 3.633330 93.266670 167.383510
3.48 3.495260 3.616670 93.333330 174.193550
3.47 3.485780 3.60 93.40 165.161290
3.46 3.47630 3.583330 93.466670 156.129030
3.45 3.466820 3.566670 93.533330 147.096770
3.44 3.457340 3.550 93.60 138.064520
3.43 3.44740 3.533330 93.666670 129.032260
3.42 3.437470 3.516670 93.733330 120.0
3.41 3.427990 3.50 93.80 131.333330
3.40 3.418510 3.483330 93.683330 142.666670
3.39 3.399550 3.466670 93.566670 154.0
3.38 3.390070 3.450 93.450 165.333330
3.37 3.380590 3.433330 93.333330 176.666670
3.36 3.370650 3.416670 93.216670 172.222220
3.35 3.360720 3.40 93.10 167.777780
3.34 3.351240 3.440 93.0 163.333330
3.33 3.341760 3.480 92.90 158.888890
3.32 3.332280 3.520 92.80 154.444440
3.31 3.32280 3.560 92.70 150.0
3.30 3.312870 3.60 92.60 156.666670
3.29 3.302930 3.566670 93.450 163.333330
3.28 3.293450 3.533330 94.30 170.0
3.27 3.283970 3.50 95.150 176.666670
3.26 3.274490 3.466670 96.0 183.333330
3.25 3.265010 3.433330 96.850 177.777780
3.24 3.255080 3.40 97.70 172.222220
3.23 3.245150 3.40 96.416670 166.666670
3.22 3.235670 3.40 95.133330 161.111110
3.21 3.226190 3.40 93.850 155.555560
3.20 3.21670 3.40 92.566670 150.0
3.19 3.207220 3.40 91.283330 147.222220
3.18 3.197290 3.40 90.0 144.444440
3.17 3.187360 3.383330 91.183330 141.666670
3.16 3.177880 3.366670 92.366670 138.888890
3.15 3.16840 3.350 93.550 136.111110
3.14 3.158920 3.333330 94.733330 133.333330
3.13 3.149440 3.316670 95.916670 134.444440
3.12 3.13950 3.30 97.10 135.555560
3.11 3.129570 3.260 95.260 136.666670
3.10 3.109710 3.220 93.420 137.777780
3.09 3.100230 3.180 91.580 138.888890
3.08 3.090740 3.140 89.740 140.0
3.07 3.080810 3.10 87.90 146.666670
3.06 3.070880 3.10 89.450 153.333330
3.05 3.06140 3.10 91.0 160.0
3.04 3.051920 3.10 92.550 166.666670
3.03 3.041990 3.10 94.10 173.333330
3.02 3.032050 3.10 95.650 162.222220
3.01 3.022570 3.10 97.20 151.111110
3.00 3.013090 3.10 96.683330 140.0
2.99 3.003610 3.10 96.166670 128.888890
2.98 2.994130 3.10 95.650 117.777780
2.97 2.984650 3.10 95.133330 106.666670
2.96 2.975170 3.10 94.616670 113.888890
2.95 2.965690 3.10 94.10 121.111110
2.94 2.956210 3.116670 93.20 128.333330
2.93 2.946280 3.133330 92.30 135.555560
2.92 2.936340 3.150 91.40 142.777780
2.91 2.926410 3.166670 90.50 150.0
2.90 2.916480 3.183330 89.60 147.222220
2.89 2.9070 3.20 88.70 144.444440
2.88 2.897520 3.216670 88.783330 141.666670
2.87 2.887580 3.233330 88.866670 138.888890
2.86 2.877650 3.250 88.950 136.111110
2.85 2.867720 3.266670 89.033330 133.333330
2.84 2.857790 3.283330 89.116670 147.474750
2.83 2.848310 3.30 89.20 161.616160
2.82 2.838830 3.260 90.220 175.757580
2.81 2.828890 3.220 91.240 189.898990
2.80 2.818960 3.180 92.260 204.04040
2.79 2.809030 3.140 93.280 218.181820
2.78 2.79910 3.10 94.30 207.256780
2.77 2.789160 3.066670 95.0 196.331740
2.76 2.779230 3.033330 95.70 185.40670
2.75 2.759370 3.0 96.40 174.481660
2.74 2.749890 2.966670 97.10 163.556620
2.73 2.740410 2.933330 97.80 152.631580
2.72 2.730470 2.90 98.50 150.771930
2.71 2.720540 2.933330 97.666670 148.912280
2.70 2.710610 2.966670 96.833330 147.052630
2.69 2.700680 3.0 96.0 145.192980
2.68 2.690740 3.033330 95.166670 143.333330
2.67 2.680810 3.066670 94.333330 147.777780
2.66 2.672230 3.10 93.50 152.222220
2.65 2.663660 3.116670 92.266670 156.666670
2.64 2.654180 3.133330 91.033330 161.111110
2.63 2.64470 3.150 89.80 165.555560
2.62 2.634760 3.166670 88.566670 170.0
2.61 2.624830 3.183330 87.333330 168.888890
2.60 2.615350 3.20 86.10 167.777780
2.59 2.605870 3.183330 86.50 166.666670
2.58 2.595940 3.166670 86.90 165.555560
2.57 2.5860 3.150 87.30 164.444440
2.56 2.576520 3.133330 87.70 163.333330
2.55 2.567040 3.116670 88.10 156.0
2.54 2.557110 3.10 88.50 148.666670
2.53 2.547180 3.083330 88.333330 141.333330
2.52 2.53770 3.066670 88.166670 134.0
2.51 2.528220 3.050 88.0 126.666670
2.50 2.509260 3.033330 87.833330 130.555560
2.49 2.499770 3.016670 87.666670 134.444440
2.48 2.490290 3.0 87.50 138.333330
2.47 2.480810 2.940 90.660 142.222220
2.46 2.471330 2.880 93.820 146.111110
2.45 2.46140 2.820 96.980 150.0
2.44 2.451470 2.760 100.140 149.731180
2.43 2.442440 2.70 103.30 149.462370
2.42 2.433410 2.716670 101.70 149.193550
2.41 2.423930 2.733330 100.10 148.924730
2.40 2.414450 2.750 98.50 148.655910
2.39 2.404970 2.766670 96.90 148.38710
2.38 2.395490 2.783330 95.30 145.878140
2.37 2.3860 2.80 93.70 143.369180
2.36 2.376520 2.80 94.250 140.860220
2.35 2.367040 2.80 94.80 138.351250
2.34 2.357560 2.80 95.350 135.842290
2.33 2.348080 2.80 95.90 133.333330
2.32 2.33860 2.80 96.450 132.222220
2.31 2.328670 2.80 97.0 131.111110
2.30 2.318740 2.783330 95.833330 130.0
2.29 2.299770 2.766670 94.666670 128.888890
2.28 2.290290 2.750 93.50 127.777780
2.27 2.280810 2.733330 92.333330 126.666670
2.26 2.271330 2.716670 91.166670 122.0
2.25 2.261850 2.70 90.0 117.333330
2.24 2.251920 2.654550 90.645450 112.666670
2.23 2.241990 2.609090 91.290910 108.0
2.22 2.232510 2.563640 91.936360 103.333330
2.21 2.223020 2.518180 92.581820 112.777780
2.20 2.213090 2.472730 93.227270 122.222220
2.19 2.203160 2.427270 93.872730 131.666670
2.18 2.193230 2.381820 94.518180 141.111110
2.17 2.18330 2.336360 95.163640 150.555560
2.16 2.173810 2.290910 95.809090 160.0
2.15 2.164330 2.245450 96.454550 157.777780
2.14 2.15440 2.20 97.10 155.555560
2.13 2.144470 2.233330 99.066670 153.333330
2.12 2.134990 2.266670 101.033330 151.111110
2.11 2.125510 2.30 103.0 148.888890
2.10 2.115580 2.333330 104.966670 146.666670
2.09 2.105640 2.366670 106.933330 143.333330
2.08 2.096160 2.40 108.90 140.0
2.07 2.086680 2.40 107.150 136.666670
2.06 2.07720 2.40 105.40 133.333330
2.05 2.067720 2.40 103.650 130.0
2.04 2.057790 2.40 101.90 126.666670
2.03 2.047860 2.40 100.150 130.0
2.02 2.037920 2.40 98.40 133.333330
2.01 2.027990 2.340 98.620 136.666670
2.00 2.018510 2.280 98.840 140.0
1.99 2.009030 2.220 99.060 143.333330
1.98 1.989160 2.160 99.280 146.666670
1.97 1.979680 2.10 99.50 149.444440
1.96 1.97020 2.10 99.133330 152.222220
1.95 1.960270 2.10 98.766670 155.0
1.94 1.950340 2.10 98.40 157.777780
1.93 1.940860 2.10 98.033330 160.555560
1.92 1.931380 2.10 97.666670 163.333330
1.91 1.921440 2.10 97.30 166.0
1.90 1.911510 2.150 98.466670 168.666670
1.89 1.902030 2.20 99.633330 171.333330
1.88 1.892550 2.250 100.80 174.0
1.87 1.882620 2.30 101.966670 176.666670
1.86 1.872690 2.350 103.133330 169.444440
1.85 1.863210 2.40 104.30 162.222220
1.84 1.853720 2.40 105.383330 155.0
1.83 1.844240 2.40 106.466670 147.777780
1.82 1.834760 2.40 107.550 140.555560
1.81 1.825280 2.40 108.633330 133.333330
