~VERSION INFORMATION SECTION
VERS. 2.0 : CWLS LAS-VERSION 2.0
WRAP. NO : One line per depth step
~WELL INFORMATION SECTION
# MNEM.UNIT VALUE/NAME DESCRIPTION
#-------- -------------- ---------------------
STRT.Metres 16 : Start
STOP.Metres 0.47 : Stop
STEP.Metres -0.01 : Step
NULL.  -999.25 :NULL VALUE
DATE. 2025-06-11 : DATE
~CURVE INFORMATION SECTION
DEPTH.Metres : 0 Depth
Depth. : 1 Depth
Incline.Deg : 2 Incline
Azimuth.Deg : 3 Azimuth
GR.CPS : 4 GR
~PARAMETER INFORMATION SECTION
~OTHER
#-------------------------------------------------
#Produced By: GeoVista Logger - Version 7.1.107.0
Natural Gamma Sonde - 6447
Verticality Sonde - 6292
#-------------------------------------------------
~ASCII LOG DATA
16.00 -999.25 -999.25 -999.25 -999.25
15.99 15.994580 7.10 90.450 -999.25
15.98 15.985550 7.10 90.40 -999.25
15.97 15.976520 7.10 90.30 -999.25
15.96 15.966590 7.10 90.20 -999.25
15.95 15.957560 7.10 90.250 -999.25
15.94 15.947630 7.10 90.30 -999.25
15.93 15.93860 7.10 90.20 -999.25
15.92 15.928670 7.10 90.10 -999.25
15.91 15.918740 7.10 89.550 -999.25
15.90 15.90880 7.10 89.0 -999.25
15.89 15.898870 7.10 90.0 -999.25
15.88 15.888940 7.0750 90.0750 -999.25
15.87 15.879010 7.050 90.150 -999.25
15.86 15.869070 7.0250 90.2250 -999.25
15.85 15.858240 7.0 90.30 -999.25
15.84 15.848310 7.0 90.50 -999.25
15.83 15.839280 7.0 90.70 -999.25
15.82 15.828440 7.050 90.70 -999.25
15.81 15.818510 7.10 90.70 -999.25
15.80 15.808580 7.10 90.6250 -999.25
15.79 15.797740 7.10 90.550 -999.25
15.78 15.787810 7.10 90.4750 -999.25
15.77 15.778780 7.10 90.40 -999.25
15.76 15.767950 7.10 90.70 -999.25
15.75 15.758010 7.10 91.0 -999.25
15.74 15.748080 7.10 91.30 -999.25
15.73 15.737250 7.10 90.90 -999.25
15.72 15.727310 7.10 90.50 139.966520
15.71 15.717380 7.10 90.566670 133.333330
15.70 15.705640 7.10 90.633330 140.0
15.69 15.695710 7.10 90.70 103.333330
15.68 15.684880 7.10 90.70 115.0
15.67 15.673140 7.10 90.70 126.666670
15.66 15.66230 7.10 90.70 140.0
15.65 15.656880 7.10 90.933330 148.333330
15.64 15.651470 7.10 91.166670 156.666670
15.63 15.639730 7.10 91.40 156.666670
15.62 15.628890 7.10 91.10 156.666670
15.61 15.618060 7.10 90.80 170.0
15.60 15.606320 7.10 90.50 183.333330
15.59 15.595490 7.10 90.366670 173.333330
15.58 15.584650 7.10 90.233330 156.666670
15.57 15.572910 7.10 90.10 140.0
15.56 15.561170 7.10 90.133330 135.0
15.55 15.555760 7.10 90.166670 130.0
15.54 15.550340 7.10 90.20 158.333330
15.53 15.53860 7.10 90.466670 186.666670
15.52 15.526860 7.10 90.733330 169.139780
15.51 15.516030 7.10 91.0 151.61290
15.50 15.504290 7.10 91.10 140.806450
15.49 15.492550 7.10 91.20 130.0
15.48 15.487130 7.10 91.30 120.0
15.47 15.481720 7.10 91.366670 135.0
15.46 15.469980 7.10 91.433330 150.0
15.45 15.458240 7.10 91.50 151.666670
15.44 15.44740 7.10 91.80 153.333330
15.43 15.435670 7.10 92.10 160.0
15.42 15.424830 7.10 92.40 166.666670
15.41 15.413090 7.10 91.466670 135.0
15.40 15.401350 7.10 90.533330 103.333330
15.39 15.395940 7.10 89.60 173.333330
15.38 15.390520 7.10 89.766670 160.0
15.37 15.378780 7.10 89.933330 146.666670
15.36 15.367040 7.10 90.10 148.333330
15.35 15.356210 7.0750 90.1250 150.0
15.34 15.344470 7.050 90.150 161.666670
15.33 15.332730 7.0250 90.1750 173.333330
15.32 15.320990 7.0 90.20 155.0
15.31 15.315580 7.0 89.90 136.666670
15.30 15.310160 7.0 89.60 133.333330
15.29 15.298420 7.0 89.30 130.0
15.28 15.286680 7.0 89.966670 180.0
15.27 15.275850 7.0 90.633330 155.0
15.26 15.263210 7.0 91.30 130.0
15.25 15.252370 7.0 90.750 131.666670
15.24 15.24650 7.0 90.20 133.333330
15.23 15.240630 7.0 89.650 155.0
15.22 15.228890 7.0 89.10 176.666670
15.21 15.218060 7.0 90.0 165.0
15.20 15.206320 7.0 90.90 153.333330
15.19 15.194580 7.0 91.80 165.858590
15.18 15.182840 7.0 91.50 178.383840
15.17 15.172010 7.0 91.20 190.909090
15.16 15.166140 7.0 90.90 162.954550
15.15 15.160270 7.0 90.60 135.0
15.14 15.148530 7.0 90.233330 132.222220
15.13 15.13770 7.0 89.866670 129.444440
15.12 15.125960 7.0 89.50 126.666670
15.11 15.114220 7.0 89.150 148.888890
15.10 15.103390 7.0 88.80 171.111110
15.09 15.091650 7.0 88.450 193.333330
15.08 15.086230 7.0 88.10 184.444440
15.07 15.080810 6.966670 89.40 175.555560
15.06 15.069980 6.933330 90.70 166.666670
15.05 15.057340 6.90 92.0 157.777780
15.04 15.04650 6.90 91.033330 148.888890
15.03 15.035670 6.90 90.066670 140.0
15.02 15.023930 6.90 89.10 137.777780
15.01 15.012190 6.90 89.3250 135.555560
15.00 15.006770 6.90 89.550 133.333330
14.99 15.001350 6.90 89.7750 148.888890
14.98 14.989620 6.90 90.0 164.444440
14.97 14.977880 6.90 89.966670 180.0
14.96 14.967040 6.90 89.933330 172.222220
14.95 14.95530 6.90 89.90 164.444440
14.94 14.944470 6.9250 90.0250 156.666670
14.93 14.933630 6.950 90.150 161.111110
14.92 14.92190 6.9750 90.2750 165.555560
14.91 14.911060 7.0 90.40 170.0
14.90 14.905640 6.966670 89.833330 160.0
14.89 14.900230 6.933330 89.266670 150.0
14.88 14.888490 6.90 88.70 140.0
14.87 14.876750 6.8750 88.80 146.666670
14.86 14.865910 6.850 88.90 153.333330
14.85 14.854180 6.8250 89.0 160.0
14.84 14.843340 6.80 89.10 165.555560
14.83 14.832510 6.80 89.30 171.111110
14.82 14.826640 6.80 89.50 176.666670
14.81 14.820770 6.80 89.70 167.777780
14.80 14.809030 6.833330 89.466670 158.888890
14.79 14.798190 6.866670 89.233330 150.0
14.78 14.786460 6.90 89.0 155.833330
14.77 14.775620 6.8750 89.0 161.666670
14.76 14.764790 6.850 89.0 167.50
14.75 14.752140 6.8250 89.0 173.333330
14.74 14.741310 6.80 89.0 163.333330
14.73 14.735890 6.80 89.633330 153.333330
14.72 14.730470 6.80 90.266670 143.333330
14.71 14.718740 6.80 90.90 155.555560
14.70 14.7070 6.80 91.0750 167.777780
14.69 14.696160 6.80 91.250 180.0
14.68 14.684420 6.80 91.4250 170.0
14.67 14.673590 6.80 91.60 160.0
14.66 14.662750 6.80 89.866670 150.0
14.65 14.656430 6.80 88.133330 140.0
14.64 14.650110 6.80 86.40 134.444440
14.63 14.639280 6.80 86.442860 128.888890
14.62 14.628440 6.80 86.485710 123.333330
14.61 14.61670 6.80 86.528570 127.50
14.60 14.604970 6.80 86.571430 131.666670
14.59 14.594130 6.80 86.614290 135.833330
14.58 14.582390 6.80 86.657140 140.0
14.57 14.576520 6.80 86.70 139.569890
14.56 14.570650 6.766670 86.933330 139.139780
14.55 14.559820 6.733330 87.166670 138.709680
14.54 14.548080 6.70 87.40 140.25090
14.53 14.536340 6.70 87.5750 141.792110
14.52 14.525510 6.70 87.750 143.333330
14.51 14.513770 6.70 87.9250 139.166670
14.50 14.502930 6.70 88.10 135.0
14.49 14.497520 6.70 88.40 130.833330
14.48 14.49210 6.70 88.70 126.666670
14.47 14.479460 6.70 89.0 121.111110
14.46 14.468620 6.70 88.766670 115.555560
14.45 14.457790 6.70 88.533330 110.0
14.44 14.446050 6.70 88.30 107.50
14.43 14.434310 6.70 87.70 105.0
14.42 14.423480 6.70 87.10 102.50
14.41 14.417610 6.70 86.50 100.0
14.40 14.411740 6.70 85.90 118.888890
14.39 14.40 6.666670 86.633330 137.777780
14.38 14.389160 6.633330 87.366670 156.666670
14.37 14.376520 6.60 88.10 145.833330
14.36 14.365690 6.5750 88.8750 135.0
14.35 14.354850 6.550 89.650 124.166670
14.34 14.343120 6.5250 90.4250 113.333330
14.33 14.331380 6.50 91.20 117.777780
14.32 14.325960 6.50 89.833330 122.222220
14.31 14.320540 6.50 88.466670 126.666670
14.30 14.30880 6.50 87.10 125.833330
14.29 14.297070 6.50 87.266670 125.0
14.28 14.286230 6.50 87.433330 124.166670
14.27 14.274490 6.50 87.60 123.333330
14.26 14.262750 6.50 87.750 105.555560
14.25 14.251920 6.50 87.90 87.777780
14.24 14.246050 6.50 88.050 70.0
14.23 14.240180 6.50 88.20 91.111110
14.22 14.229350 6.50 87.833330 112.222220
14.21 14.218510 6.50 87.466670 133.333330
14.20 14.205870 6.50 87.10 133.333330
14.19 14.195030 6.4750 86.5250 133.333330
14.18 14.18420 6.450 85.950 133.333330
14.17 14.172460 6.4250 85.3750 133.333330
14.16 14.166590 6.40 84.80 130.0
14.15 14.160720 6.414290 85.357140 126.666670
14.14 14.149890 6.428570 85.914290 123.333330
14.13 14.138150 6.442860 86.471430 126.666670
14.12 14.126410 6.457140 87.028570 130.0
14.11 14.115580 6.471430 87.585710 133.333330
14.10 14.103840 6.485710 88.142860 136.666670
14.09 14.0930 6.50 88.70 146.666670
14.08 14.087580 6.50 89.166670 156.666670
14.07 14.082170 6.50 89.633330 166.666670
14.06 14.069530 6.50 90.10 150.0
14.05 14.058690 6.50 89.333330 133.333330
14.04 14.047860 6.50 88.566670 116.666670
14.03 14.036120 6.50 87.80 122.50
14.02 14.024380 6.50 87.70 128.333330
14.01 14.013540 6.50 87.60 134.166670
14.00 14.001810 6.50 87.50 140.0
13.99 13.990970 6.50 87.40 144.848480
13.98 13.985550 6.466670 87.966670 149.696970
13.97 13.980140 6.433330 88.533330 154.545450
13.96 13.96840 6.40 89.10 160.645930
13.95 13.956660 6.40 89.4250 166.746410
13.94 13.945820 6.40 89.750 172.846890
13.93 13.934090 6.40 90.0750 178.947370
13.92 13.922350 6.40 90.40 176.287490
13.91 13.916930 6.40 89.433330 173.627620
13.90 13.911510 6.40 88.466670 170.967740
