~VERSION INFORMATION SECTION
VERS. 2.0 : CWLS LAS-VERSION 2.0
WRAP. NO : One line per depth step
~WELL INFORMATION SECTION
# MNEM.UNIT VALUE/NAME DESCRIPTION
#-------- -------------- ---------------------
STRT.Metres 16 : Start
STOP.Metres 0.47 : Stop
STEP.Metres -0.01 : Step
NULL.  -999.25 :NULL VALUE
DATE. 2025-06-11 : DATE
~CURVE INFORMATION SECTION
DEPTH.Metres : 0 Depth
Depth. : 1 Depth
Incline.Deg : 2 Incline
Azimuth.Deg : 3 Azimuth
GR.CPS : 4 GR
~PARAMETER INFORMATION SECTION
~OTHER
#-------------------------------------------------
#Produced By: GeoVista Logger - Version 7.1.107.0
Natural Gamma Sonde - 6447
Verticality Sonde - 6292
#-------------------------------------------------
~ASCII LOG DATA
# ...
11.81 11.820320 5.70 86.20 203.333330
11.80 11.808580 5.70 85.866670 186.666670
11.79 11.797740 5.70 85.533330 170.0
11.78 11.78510 5.70 85.20 173.333330
11.77 11.774270 5.6750 85.7250 176.666670
11.76 11.763430 5.650 86.250 180.0
11.75 11.757110 5.6250 86.7750 183.333330
11.74 11.750790 5.60 87.30 178.888890
11.73 11.739950 5.60 87.533330 174.444440
11.72 11.729120 5.60 87.766670 170.0
11.71 11.717380 5.60 88.0 170.0
11.70 11.705640 5.60 87.10 170.0
11.69 11.694810 5.60 86.20 170.0
11.68 11.683070 5.60 85.30 170.0
11.67 11.671330 5.60 84.40 178.888890
11.66 11.665910 5.60 84.633330 187.777780
11.65 11.66050 5.60 84.866670 196.666670
11.64 11.647860 5.60 85.10 197.50
11.63 11.637020 5.60 86.133330 198.333330
11.62 11.625280 5.60 87.166670 199.166670
11.61 11.613540 5.60 88.20 200.0
11.60 11.601810 5.60 87.550 185.555560
11.59 11.596390 5.60 86.90 171.111110
11.58 11.590970 5.60 86.250 156.666670
11.57 11.579230 5.60 85.60 160.0
11.56 11.56840 5.60 85.366670 163.333330
11.55 11.557560 5.60 85.133330 166.666670
11.54 11.545820 5.60 84.90 181.666670
11.53 11.534990 5.60 85.20 196.666670
11.52 11.523250 5.60 85.50 211.666670
11.51 11.512420 5.60 85.80 226.666670
11.50 11.506550 5.60 86.10 208.888890
11.49 11.500680 5.60 85.933330 191.111110
11.48 11.489840 5.60 85.766670 173.333330
11.47 11.47810 5.60 85.60 175.0
11.46 11.467270 5.60 85.1750 176.666670
11.45 11.455530 5.60 84.750 178.333330
11.44 11.44470 5.60 84.3250 180.0
11.43 11.432960 5.60 83.90 178.888890
11.42 11.422120 5.566670 84.733330 177.777780
11.41 11.416250 5.533330 85.566670 176.666670
11.40 11.410380 5.50 86.40 173.333330
11.39 11.399550 5.50 86.10 170.0
11.38 11.387810 5.50 85.80 166.666670
11.37 11.376980 5.50 85.50 166.666670
11.36 11.365240 5.5250 84.8750 166.666670
11.35 11.35440 5.550 84.250 166.666670
11.34 11.342660 5.5750 83.6250 166.666670
11.33 11.331830 5.60 83.0 158.422940
11.32 11.325960 5.533330 83.10 150.179210
11.31 11.320090 5.466670 83.20 141.935480
11.30 11.309260 5.40 83.30 153.512540
11.29 11.297520 5.420 83.440 165.089610
11.28 11.286680 5.440 83.580 176.666670
11.27 11.275850 5.460 83.720 163.333330
11.26 11.264110 5.480 83.860 150.0
11.25 11.253270 5.50 84.0 136.666670
11.24 11.241530 5.533330 84.533330 123.333330
11.23 11.236120 5.566670 85.066670 130.0
11.22 11.23070 5.60 85.60 136.666670
11.21 11.218960 5.5750 85.050 143.333330
11.20 11.208130 5.550 84.50 145.0
11.19 11.196390 5.5250 83.950 146.666670
11.18 11.185550 5.50 83.40 148.333330
11.17 11.173810 5.50 83.50 150.0
11.16 11.162980 5.50 83.60 163.333330
11.15 11.151240 5.50 83.70 176.666670
11.14 11.145820 5.50 84.733330 190.0
11.13 11.140410 5.50 85.766670 168.888890
11.12 11.128670 5.50 86.80 147.777780
11.11 11.117830 5.50 86.8250 126.666670
11.10 11.106090 5.50 86.850 127.50
11.09 11.095260 5.50 86.8750 128.333330
11.08 11.083520 5.50 86.90 129.166670
11.07 11.072690 5.50 85.966670 130.0
11.06 11.066820 5.50 85.033330 138.888890
11.05 11.060950 5.50 84.10 147.777780
11.04 11.049210 5.4750 84.20 156.666670
11.03 11.038370 5.450 84.30 155.0
11.02 11.026640 5.4250 84.40 153.333330
11.01 11.01580 5.40 84.50 151.666670
11.00 11.004060 5.40 84.950 150.0
10.99 10.993230 5.40 85.40 150.0
10.98 10.987360 5.40 85.850 150.0
10.97 10.981490 5.40 86.30 150.0
10.96 10.969750 5.40 86.750 132.50
10.95 10.958920 5.40 87.20 115.0
10.94 10.947180 5.4250 86.850 97.50
10.93 10.935440 5.450 86.50 80.0
10.92 10.92460 5.4750 86.150 92.222220
10.91 10.912870 5.50 85.80 104.444440
10.90 10.902030 5.466670 86.466670 116.666670
10.89 10.896160 5.433330 87.133330 113.333330
10.88 10.890290 5.40 87.80 110.0
10.87 10.878560 5.40 86.666670 106.666670
10.86 10.867720 5.40 85.533330 110.833330
10.85 10.855980 5.40 84.40 115.0
10.84 10.844240 5.4250 84.450 119.166670
10.83 10.833410 5.450 84.50 123.333330
10.82 10.827540 5.4750 84.550 125.555560
10.81 10.821670 5.50 84.60 127.777780
10.80 10.809930 5.466670 86.10 130.0
10.79 10.798190 5.433330 87.60 128.333330
10.78 10.787360 5.40 89.10 126.666670
10.77 10.775620 5.40 88.30 125.0
10.76 10.763880 5.40 87.50 123.333330
10.75 10.752140 5.40 86.70 126.666670
10.74 10.746280 5.40 85.90 130.0
10.73 10.740410 5.414290 85.985710 133.333330
10.72 10.729570 5.428570 86.071430 131.333330
10.71 10.717830 5.442860 86.157140 129.333330
10.70 10.706090 5.457140 86.242860 127.333330
10.69 10.695260 5.471430 86.328570 125.333330
10.68 10.683520 5.485710 86.414290 123.333330
10.67 10.671780 5.50 86.50 117.706090
10.66 10.666370 5.466670 86.266670 112.078850
10.65 10.660950 5.433330 86.033330 106.451610
10.64 10.649210 5.40 85.80 114.301080
10.63 10.637470 5.30 84.966670 122.150540
10.62 10.625730 5.20 84.133330 130.0
10.61 10.61490 5.10 83.30 129.758060
10.60 10.603160 5.0750 82.20 129.516130
10.59 10.592330 5.050 81.10 129.274190
10.58 10.586460 5.0250 80.0 129.032260
10.57 10.580590 5.0 78.90 149.354840
10.56 10.569750 5.066670 81.866670 169.677420
10.55 10.558010 5.133330 84.833330 190.0
10.54 10.547180 5.20 87.80 176.666670
10.53 10.535440 5.20 87.3750 163.333330
10.52 10.52460 5.20 86.950 150.0
10.51 10.512870 5.20 86.5250 136.666670
10.50 10.501130 5.20 86.10 145.555560
10.49 10.495710 5.20 85.50 154.444440
10.48 10.490290 5.20 84.90 163.333330
10.47 10.478560 5.20 84.30 160.0
10.46 10.467720 5.1750 85.6750 156.666670
10.45 10.455980 5.150 87.050 153.333330
10.44 10.445150 5.1250 88.4250 153.333330
10.43 10.433410 5.10 89.80 153.333330
10.42 10.422570 5.10 89.50 153.333330
10.41 10.41670 5.10 89.20 153.333330
10.40 10.410840 5.10 88.90 155.555560
10.39 10.40 5.033330 88.466670 157.777780
10.38 10.388260 4.966670 88.033330 160.0
10.37 10.377430 4.90 87.60 140.454550
10.36 10.365690 4.90 88.20 120.909090
10.35 10.354850 4.90 88.80 101.363640
10.34 10.343120 4.90 89.40 81.818180
10.33 10.332280 4.90 90.0 122.966510
10.32 10.326860 4.933330 88.333330 164.114830
10.31 10.321440 4.966670 86.666670 205.263160
10.30 10.309710 5.0 85.0 190.175440
10.29 10.297970 4.950 85.0750 175.087720
10.28 10.287130 4.90 85.150 160.0
10.27 10.27540 4.850 85.2250 165.0
10.26 10.264560 4.80 85.30 170.0
10.25 10.253720 4.816670 85.30 175.0
10.24 10.241990 4.833330 85.30 180.0
10.23 10.236120 4.850 85.30 174.444440
10.22 10.230250 4.866670 85.30 168.888890
10.21 10.219410 4.883330 85.30 163.333330
10.20 10.207670 4.90 85.30 164.435480
10.19 10.196840 4.8750 84.1750 165.537630
10.18 10.18510 4.850 83.050 166.639780
10.17 10.174270 4.8250 81.9250 167.741940
10.16 10.162530 4.80 80.80 188.494620
10.15 10.157110 4.833330 80.666670 209.247310
10.14 10.151690 4.866670 80.533330 230.0
10.13 10.139950 4.90 80.40 203.333330
10.12 10.129120 4.850 83.7750 176.666670
10.11 10.117380 4.80 87.150 150.0
10.10 10.106550 4.750 90.5250 165.0
10.09 10.094810 4.70 93.90 180.0
10.08 10.083070 4.733330 90.733330 195.0
10.07 10.072230 4.766670 87.566670 210.0
10.06 10.066370 4.80 84.40 213.333330
10.05 10.06050 4.80 85.066670 216.666670
10.04 10.049660 4.80 85.733330 220.0
10.03 10.037920 4.80 86.40 202.50
10.02 10.027090 4.80 86.8250 185.0
10.01 10.015350 4.80 87.250 167.50
10.00 10.004510 4.80 87.6750 150.0
9.99 9.992780 4.80 88.10 155.555560
9.98 9.981940 4.80 86.866670 161.111110
9.97 9.976070 4.80 85.633330 166.666670
9.96 9.97020 4.80 84.40 165.555560
9.95 9.958470 4.80 84.8750 164.444440
9.94 9.947630 4.80 85.350 163.333330
9.93 9.935890 4.80 85.8250 173.333330
9.92 9.924150 4.80 86.30 183.333330
9.91 9.913320 4.80 85.633330 193.333330
9.90 9.907450 4.80 84.966670 203.333330
9.89 9.901580 4.80 84.30 205.555560
9.88 9.889840 4.80 84.133330 207.777780
9.87 9.879010 4.80 83.966670 210.0
9.86 9.867270 4.80 83.80 202.50
9.85 9.855530 4.7750 84.0 195.0
9.84 9.84470 4.750 84.20 187.50
9.83 9.832960 4.7250 84.40 180.0
9.82 9.821220 4.70 84.60 185.555560
9.81 9.81580 4.70 84.30 191.111110
9.80 9.810380 4.70 84.0 196.666670
9.79 9.798650 4.70 83.70 204.166670
9.78 9.787810 4.70 83.850 211.666670
9.77 9.776070 4.70 84.0 219.166670
9.76 9.765240 4.70 84.150 226.666670
9.75 9.75350 4.70 84.30 226.666670
9.74 9.741760 4.666670 83.90 226.666670
9.73 9.736340 4.633330 83.50 226.666670
