~VERSION INFORMATION SECTION
VERS. 2.0 : CWLS LAS-VERSION 2.0
WRAP. NO : One line per depth step
~WELL INFORMATION SECTION
# MNEM.UNIT VALUE/NAME DESCRIPTION
#-------- -------------- ---------------------
STRT.Metres 16 : Start
STOP.Metres 0.47 : Stop
STEP.Metres -0.01 : Step
NULL.  -999.25 :NULL VALUE
DATE. 2025-06-11 : DATE
~CURVE INFORMATION SECTION
DEPTH.Metres : 0 Depth
Depth. : 1 Depth
Incline.Deg : 2 Incline
Azimuth.Deg : 3 Azimuth
GR.CPS : 4 GR
~PARAMETER INFORMATION SECTION
~OTHER
#-------------------------------------------------
#Produced By: GeoVista Logger - Version 7.1.107.0
Natural Gamma Sonde - 6447
Verticality Sonde - 6292
#-------------------------------------------------
~ASCII LOG DATA
# ...
3.19 3.19910 3.20 80.60 166.666670
3.18 3.187360 3.20 81.10 154.444440
3.17 3.175620 3.20 81.60 142.222220
3.16 3.164790 3.20 81.1750 130.0
3.15 3.153050 3.20 80.750 125.833330
3.14 3.141310 3.20 80.3250 121.666670
3.13 3.135890 3.20 79.90 117.50
3.12 3.130470 3.166670 81.133330 113.333330
3.11 3.118740 3.133330 82.366670 116.666670
3.10 3.1070 3.10 83.60 120.0
3.09 3.095260 3.10 83.20 123.333330
3.08 3.084420 3.10 82.80 127.383510
3.07 3.072690 3.10 82.40 131.433690
3.06 3.066820 3.10 82.30 135.483870
3.05 3.060950 3.10 82.20 136.61290
3.04 3.049210 3.10 82.10 137.741940
3.03 3.037470 3.10 82.0 138.870970
3.02 3.026640 3.10 82.0 140.0
3.01 3.01490 3.10 82.0 140.0
3.00 3.003160 3.10 82.0 140.0
2.99 2.997290 3.10 82.40 140.0
2.98 2.991420 3.10 82.80 143.333330
2.97 2.979680 3.10 83.20 146.666670
2.96 2.968850 3.10 83.60 150.0
2.95 2.957110 3.085710 83.685710 153.333330
2.94 2.945370 3.071430 83.771430 152.222220
2.93 2.933630 3.057140 83.857140 151.111110
2.92 2.92280 3.042860 83.942860 150.0
2.91 2.916930 3.028570 84.028570 162.50
2.90 2.911060 3.014290 84.114290 175.0
2.89 2.899320 3.0 84.20 187.50
2.88 2.887580 3.033330 84.333330 200.0
2.87 2.875850 3.066670 84.466670 190.833330
2.86 2.864110 3.10 84.60 181.666670
2.85 2.852370 3.10 84.4750 172.50
2.84 2.84650 3.10 84.350 163.333330
2.83 2.840630 3.10 84.2250 164.444440
2.82 2.828890 3.10 84.10 165.555560
2.81 2.817160 3.0 84.466670 166.666670
2.80 2.805420 2.90 84.833330 160.0
2.79 2.794580 2.80 85.20 153.333330
2.78 2.782840 2.80 85.40 146.666670
2.77 2.776980 2.80 85.60 140.0
2.76 2.771110 2.80 85.80 147.777780
2.75 2.759370 2.80 86.0 155.555560
2.74 2.747630 2.833330 84.933330 163.333330
2.73 2.735890 2.866670 83.866670 161.666670
2.72 2.724150 2.90 82.80 160.0
2.71 2.712420 2.90 83.4750 158.333330
2.70 2.706550 2.90 84.150 156.666670
2.69 2.700680 2.90 84.8250 150.476190
2.68 2.688940 2.90 85.50 144.285710
2.67 2.67720 2.833330 87.0 138.095240
2.66 2.664560 2.766670 88.50 142.207790
2.65 2.652820 2.70 90.0 146.320350
2.64 2.646950 2.70 88.40 150.43290
2.63 2.641080 2.70 86.80 154.545450
2.62 2.629350 2.70 85.20 148.644340
2.61 2.617610 2.70 85.450 142.743220
2.60 2.605870 2.70 85.70 136.842110
2.59 2.594130 2.70 85.950 135.672510
2.58 2.582390 2.70 86.20 134.502920
2.57 2.576520 2.666670 86.766670 133.333330
2.56 2.570650 2.633330 87.333330 141.666670
2.55 2.558920 2.60 87.90 150.0
2.54 2.547180 2.60 87.9250 158.333330
2.53 2.535440 2.60 87.950 166.666670
2.52 2.52370 2.60 87.9750 162.222220
2.51 2.512870 2.60 88.0 157.777780
2.50 2.5070 2.60 87.833330 153.333330
2.49 2.501130 2.60 87.666670 153.333330
2.48 2.489390 2.60 87.50 153.333330
2.47 2.477650 2.550 87.9750 153.333330
2.46 2.465910 2.50 88.450 153.333330
2.45 2.454180 2.450 88.9250 151.111110
2.44 2.443340 2.40 89.40 148.888890
2.43 2.437470 2.50 88.40 146.666670
2.42 2.43160 2.60 87.40 145.483870
2.41 2.419860 2.70 86.40 144.301080
2.40 2.408130 2.650 86.1250 143.118280
2.39 2.396390 2.60 85.850 141.935480
2.38 2.384650 2.550 85.5750 135.734770
2.37 2.372910 2.50 85.30 129.534050
2.36 2.362080 2.485710 85.30 123.333330
2.35 2.356210 2.471430 85.30 134.166670
2.34 2.350340 2.457140 85.30 145.0
2.33 2.33860 2.442860 85.30 155.833330
2.32 2.327770 2.428570 85.30 166.666670
2.31 2.316030 2.414290 85.30 168.888890
2.30 2.304290 2.40 85.30 171.111110
2.29 2.292550 2.4250 86.250 173.333330
2.28 2.286680 2.450 87.20 170.0
2.27 2.280810 2.4750 88.150 166.666670
2.26 2.269980 2.50 89.10 163.333330
2.25 2.258240 2.40 87.10 166.666670
2.24 2.24650 2.30 85.10 170.0
2.23 2.234760 2.20 83.10 173.333330
2.22 2.223020 2.2250 84.350 176.666670
2.21 2.217160 2.250 85.60 152.222220
2.20 2.211290 2.2750 86.850 127.777780
2.19 2.199550 2.30 88.10 103.333330
2.18 2.187810 2.30 89.666670 116.666670
2.17 2.176070 2.30 91.233330 130.0
2.16 2.164330 2.30 92.80 143.333330
2.15 2.15260 2.266670 93.133330 156.666670
2.14 2.146730 2.233330 93.466670 161.111110
2.13 2.140860 2.20 93.80 165.555560
2.12 2.129120 2.20 92.20 170.0
2.11 2.117380 2.20 90.60 163.333330
2.10 2.105640 2.20 89.0 156.666670
2.09 2.0930 2.20 87.40 150.0
2.08 2.087130 2.133330 88.333330 143.333330
2.07 2.081260 2.066670 89.266670 164.444440
2.06 2.069530 2.0 90.20 185.555560
2.05 2.057790 2.0250 91.350 206.666670
2.04 2.046050 2.050 92.50 195.0
2.03 2.034310 2.0750 93.650 183.333330
2.02 2.022570 2.10 94.80 171.666670
2.01 2.01670 2.10 95.30 160.0
2.00 2.010840 2.10 95.80 166.666670
1.99 1.99910 2.10 96.30 173.333330
1.98 1.987360 2.0750 96.0 180.0
1.97 1.975620 2.050 95.70 163.333330
1.96 1.963880 2.0250 95.40 146.666670
1.95 1.957560 2.0 95.10 130.0
1.94 1.951240 2.033330 92.733330 113.333330
1.93 1.93950 2.066670 90.366670 112.222220
1.92 1.927770 2.10 88.0 111.111110
1.91 1.916030 2.050 90.7750 110.0
1.90 1.904290 2.0 93.550 119.166670
1.89 1.897970 1.950 96.3250 128.333330
1.88 1.891650 1.90 99.10 137.50
1.87 1.879910 1.866670 98.066670 146.666670
1.86 1.868170 1.833330 97.033330 150.0
1.85 1.856430 1.80 96.0 153.333330
1.84 1.84470 1.850 96.2250 156.666670
1.83 1.832960 1.90 96.450 155.833330
1.82 1.826640 1.950 96.6750 155.0
1.81 1.820320 2.0 96.90 154.166670
1.80 1.808580 1.950 95.9250 153.333330
1.79 1.796840 1.90 94.950 146.666670
1.78 1.78510 1.850 93.9750 140.0
1.77 1.773360 1.80 93.0 133.333330
1.76 1.767040 1.80 94.80 145.161290
1.75 1.760720 1.80 96.60 156.989250
1.74 1.748980 1.80 98.40 168.81720
1.73 1.737250 1.80 99.3250 180.645160
1.72 1.725510 1.80 100.250 187.096770
1.71 1.713770 1.80 101.1750 193.548390
1.70 1.70790 1.80 102.10 200.0
1.69 1.702030 1.833330 98.133330 196.250
1.68 1.689390 1.866670 94.166670 192.50
1.67 1.677650 1.90 90.20 188.750
1.66 1.665910 1.8750 92.550 185.0
1.65 1.654180 1.850 94.90 183.333330
1.64 1.648310 1.8250 97.250 181.666670
1.63 1.642440 1.80 99.60 180.0
1.62 1.62980 1.80 98.50 178.333330
1.61 1.618060 1.80 97.40 176.666670
1.60 1.606320 1.80 96.30 175.0
1.59 1.594580 1.7750 96.50 173.333330
1.58 1.582840 1.750 96.70 167.777780
1.57 1.576980 1.7250 96.90 162.222220
1.56 1.571110 1.70 97.10 156.666670
1.55 1.559370 1.70 96.533330 173.333330
1.54 1.547630 1.70 95.966670 190.0
1.53 1.535890 1.70 95.40 206.666670
1.52 1.524150 1.7250 97.1250 223.333330
1.51 1.513320 1.750 98.850 214.444440
1.50 1.502480 1.7750 100.5750 205.555560
1.49 1.496610 1.80 102.30 196.666670
1.48 1.490740 1.7750 101.1250 210.0
1.47 1.479910 1.750 99.950 223.333330
1.46 1.469980 1.7250 98.7750 236.666670
1.45 1.459140 1.70 97.60 250.0
1.44 1.449210 1.70 99.666670 221.111110
1.43 1.434760 1.70 101.733330 192.222220
1.42 1.421220 1.70 103.80 163.333330
1.41 1.412190 1.7250 99.1250 166.666670
1.40 1.404060 1.750 94.450 170.0
1.39 1.395940 1.7750 89.7750 173.333330
1.38 1.385550 1.80 85.10 176.666670
1.37 1.375170 1.733330 92.30 170.0
1.36 1.364940 1.666670 99.50 163.333330
1.35 1.354040 1.60 106.70 156.666670
1.34 -999.25 1.6250 103.10 157.50
1.33 -999.25 1.650 99.50 158.333330
1.32 -999.25 1.6750 95.90 159.166670
1.31 -999.25 1.70 92.30 160.0
1.30 -999.25 1.733330 95.70 150.0
1.29 -999.25 1.766670 99.10 140.0
1.28 -999.25 1.80 102.50 130.0
1.27 -999.25 1.7750 102.050 132.50
1.26 -999.25 1.750 101.60 135.0
1.25 -999.25 1.7250 101.150 137.50
1.24 -999.25 1.70 100.70 140.0
1.23 -999.25 1.633330 100.633330 144.444440
1.22 -999.25 1.566670 100.566670 148.888890
1.21 -999.25 1.50 100.50 153.333330
1.20 -999.25 1.533330 101.566670 157.50
1.19 -999.25 1.566670 102.633330 161.666670
1.18 -999.25 1.60 103.70 165.833330
1.17 -999.25 1.60 106.20 170.0
1.16 -999.25 1.60 108.70 176.666670
1.15 -999.25 1.60 111.20 183.333330
1.14 -999.25 1.60 113.70 190.0
1.13 -999.25 1.550 105.0 180.0
1.12 -999.25 1.50 96.30 170.0
1.11 -999.25 1.50 96.60 160.0
1.10 -999.25 1.50 96.90 150.0
1.09 -999.25 1.50 97.20 140.860220
1.08 -999.25 1.60 117.0 131.720430
1.07 -999.25 1.550 113.050 122.580650
1.06 -999.25 1.50 109.10 132.768820
1.05 -999.25 1.70 115.80 142.956990
1.04 -999.25 -999.25 -999.25 153.145160
1.03 -999.25 -999.25 -999.25 163.333330
1.02 -999.25 -999.25 -999.25 178.750
1.01 -999.25 -999.25 -999.25 194.166670
