~VERSION INFORMATION SECTION
VERS. 2.0 : CWLS LAS-VERSION 2.0
WRAP. NO : One line per depth step
~WELL INFORMATION SECTION
# MNEM.UNIT VALUE/NAME DESCRIPTION
#-------- -------------- ---------------------
STRT.Metres 16 : Start
STOP.Metres 0.47 : Stop
STEP.Metres -0.01 : Step
NULL.  -999.25 :NULL VALUE
DATE. 2025-06-11 : DATE
~CURVE INFORMATION SECTION
DEPTH.Metres : 0 Depth
Depth. : 1 Depth
Incline.Deg : 2 Incline
Azimuth.Deg : 3 Azimuth
GR.CPS : 4 GR
~PARAMETER INFORMATION SECTION
~OTHER
#-------------------------------------------------
#Produced By: GeoVista Logger - Version 7.1.107.0
Natural Gamma Sonde - 6447
Verticality Sonde - 6292
#-------------------------------------------------
~ASCII LOG DATA
# ...
9.72 9.730930 4.60 83.10 208.888890
9.71 9.719190 4.666670 83.366670 191.111110
9.70 9.708350 4.733330 83.633330 173.333330
9.69 9.696610 4.80 83.90 170.0
9.68 9.685780 4.80 84.0250 166.666670
9.67 9.674040 4.80 84.150 163.333330
9.66 9.663210 4.80 84.2750 160.0
9.65 9.651470 4.80 84.40 184.444440
9.64 9.646050 4.866670 85.466670 208.888890
9.63 9.640630 4.933330 86.533330 233.333330
9.62 9.628890 5.0 87.60 222.50
9.61 9.617160 5.0 86.20 211.666670
9.60 9.606320 5.0 84.80 200.833330
9.59 9.594580 5.0 83.40 190.0
9.58 9.582840 5.0 82.0 219.259260
9.57 9.572010 4.933330 82.70 248.518520
9.56 9.566140 4.866670 83.40 277.777780
9.55 9.560270 4.80 84.10 248.626050
9.54 9.549440 4.90 85.866670 219.474310
9.53 9.53770 5.0 87.633330 190.322580
9.52 9.526860 5.10 89.40 184.40860
9.51 9.515120 5.0750 88.3250 178.494620
9.50 9.504290 5.050 87.250 172.580650
9.49 9.492550 5.0250 86.1750 166.666670
9.48 9.487130 5.0 85.10 163.333330
9.47 9.481720 5.0 85.266670 160.0
9.46 9.469980 5.0 85.433330 156.666670
9.45 9.458240 5.0 85.60 150.0
9.44 9.44740 5.0 85.250 143.333330
9.43 9.435670 5.0 84.90 136.666670
9.42 9.424830 5.0 84.550 130.0
9.41 9.4140 5.0 84.20 133.333330
9.40 9.402260 4.966670 85.166670 136.666670
9.39 9.396390 4.933330 86.133330 140.0
9.38 9.390520 4.90 87.10 137.777780
9.37 9.379680 4.90 87.50 135.555560
9.36 9.367950 4.90 87.90 133.333330
9.35 9.356210 4.90 88.30 145.833330
9.34 9.345370 4.90 87.8250 158.333330
9.33 9.333630 4.90 87.350 170.833330
9.32 9.32280 4.90 86.8750 183.333330
9.31 9.316930 4.90 86.40 175.555560
9.30 9.311060 4.90 85.80 167.777780
9.29 9.299320 4.90 85.20 160.0
9.28 9.288490 4.90 84.60 159.166670
9.27 9.276750 4.90 85.30 158.333330
9.26 9.265910 4.90 86.0 157.50
9.25 9.254180 4.90 86.70 156.666670
9.24 9.243340 4.90 87.40 161.111110
9.23 9.232510 4.933330 86.866670 165.555560
9.22 9.226640 4.966670 86.333330 170.0
9.21 9.220770 5.0 85.80 164.444440
9.20 9.209930 4.966670 86.066670 158.888890
9.19 9.19910 4.933330 86.333330 153.333330
9.18 9.187360 4.90 86.60 155.833330
9.17 9.176520 4.90 86.6750 158.333330
9.16 9.164790 4.90 86.750 160.833330
9.15 9.153950 4.90 86.8250 163.333330
9.14 9.142210 4.90 86.90 162.222220
9.13 9.136790 4.90 86.966670 161.111110
9.12 9.131380 4.90 87.033330 160.0
9.11 9.119640 4.90 87.10 151.666670
9.10 9.10880 4.90 86.9750 143.333330
9.09 9.097970 4.90 86.850 135.0
9.08 9.086230 4.90 86.7250 126.666670
9.07 9.074490 4.90 86.60 130.0
9.06 9.063660 4.90 86.40 133.333330
9.05 9.051920 4.90 86.20 136.666670
9.04 9.04650 4.90 86.0 137.777780
9.03 9.041080 4.90 85.850 138.888890
9.02 9.029350 4.90 85.70 140.0
9.01 9.017610 4.90 85.550 138.333330
9.00 9.006770 4.90 85.40 136.666670
8.99 8.995030 4.90 84.733330 135.0
8.98 8.98420 4.90 84.066670 133.333330
8.97 8.972460 4.90 83.40 148.888890
8.96 8.966590 4.90 85.266670 164.444440
8.95 8.960720 4.90 87.133330 180.0
8.94 8.949890 4.90 89.0 176.666670
8.93 8.938150 4.90 88.4250 173.333330
8.92 8.927310 4.90 87.850 170.0
8.91 8.915580 4.90 87.2750 166.666670
8.90 8.903840 4.90 86.70 157.347670
8.89 8.8930 4.833330 86.833330 148.028670
8.88 8.881260 4.766670 86.966670 138.709680
8.87 8.875850 4.70 87.10 134.865590
8.86 8.870430 4.766670 87.80 131.021510
8.85 8.858690 4.833330 88.50 127.177420
8.84 8.846950 4.90 89.20 123.333330
8.83 8.836120 4.90 88.30 124.444440
8.82 8.825280 4.90 87.40 125.555560
8.81 8.813540 4.90 86.50 126.666670
8.80 8.802710 4.90 85.60 125.555560
8.79 8.790970 4.866670 87.233330 124.444440
8.78 8.785550 4.833330 88.866670 123.333330
8.77 8.780140 4.80 90.50 130.0
8.76 8.76840 4.80 88.250 136.666670
8.75 8.757560 4.80 86.0 143.333330
8.74 8.745820 4.80 83.750 150.0
8.73 8.734990 4.80 81.50 158.888890
8.72 8.723250 4.833330 82.80 167.777780
8.71 8.712420 4.866670 84.10 176.666670
8.70 8.706550 4.90 85.40 173.333330
8.69 8.700680 4.866670 85.666670 170.0
8.68 8.689840 4.833330 85.933330 166.666670
8.67 8.67810 4.80 86.20 163.333330
8.66 8.667270 4.8250 85.7750 160.0
8.65 8.655530 4.850 85.350 156.666670
8.64 8.64470 4.8750 84.9250 153.333330
8.63 8.632960 4.90 84.50 147.777780
8.62 8.622120 4.866670 85.866670 142.222220
8.61 8.616250 4.833330 87.233330 136.666670
8.60 8.610380 4.80 88.60 139.166670
8.59 8.599550 4.80 88.450 141.666670
8.58 8.587810 4.80 88.30 144.166670
8.57 8.576980 4.80 88.150 146.666670
8.56 8.565240 4.80 88.0 143.333330
8.55 8.55440 4.80 87.266670 140.0
8.54 8.542660 4.80 86.533330 136.666670
8.53 8.531830 4.80 85.80 133.333330
8.52 8.525960 4.80 86.966670 130.0
8.51 8.520090 4.80 88.133330 126.666670
8.50 8.509260 4.80 89.30 129.166670
8.49 8.497520 4.80 87.5750 131.666670
8.48 8.486680 4.80 85.850 134.166670
8.47 8.474940 4.80 84.1250 136.666670
8.46 8.463210 4.80 82.40 140.0
8.45 8.452370 4.80 84.066670 143.333330
8.44 8.44650 4.80 85.733330 146.666670
8.43 8.440630 4.80 87.40 146.666670
8.42 8.42980 4.733330 89.233330 146.666670
8.41 8.418060 4.666670 91.066670 146.666670
8.40 8.406320 4.60 92.90 146.666670
8.39 8.395490 4.6250 89.90 142.222220
8.38 8.383750 4.650 86.90 137.777780
8.37 8.372010 4.6750 83.90 133.333330
8.36 8.366590 4.70 80.90 144.444440
8.35 8.361170 4.70 83.933330 155.555560
8.34 8.349440 4.70 86.966670 166.666670
8.33 8.33860 4.70 90.0 169.166670
8.32 8.326860 4.70 89.80 171.666670
8.31 8.316030 4.70 89.60 174.166670
8.30 8.304290 4.70 89.40 176.666670
8.29 8.292550 4.70 89.20 164.014340
8.28 8.286680 4.733330 87.333330 151.362010
8.27 8.280810 4.766670 85.466670 138.709680
8.26 8.269980 4.80 83.60 138.198920
8.25 8.258240 4.766670 85.866670 137.688170
8.24 8.24650 4.733330 88.133330 137.177420
8.23 8.234760 4.70 90.40 136.666670
8.22 8.223930 4.7250 88.8250 141.111110
8.21 8.212190 4.750 87.250 145.555560
8.20 8.206320 4.7750 85.6750 150.0
8.19 8.200450 4.80 84.10 145.555560
8.18 8.189620 4.80 83.533330 141.111110
8.17 8.177880 4.80 82.966670 136.666670
8.16 8.166140 4.80 82.40 145.833330
8.15 8.15530 4.7750 85.150 155.0
8.14 8.143570 4.750 87.90 164.166670
8.13 8.132730 4.7250 90.650 173.333330
8.12 8.120990 4.70 93.40 162.222220
8.11 8.115580 4.70 91.666670 151.111110
8.10 8.110160 4.70 89.933330 140.0
8.09 8.098420 4.70 88.20 139.166670
8.08 8.087580 4.7250 88.1250 138.333330
8.07 8.075850 4.750 88.050 137.50
8.06 8.065010 4.7750 87.9750 136.666670
8.05 8.053270 4.80 87.90 133.333330
8.04 8.042440 4.766670 89.066670 130.0
8.03 8.037020 4.733330 90.233330 126.666670
8.02 8.03160 4.70 91.40 142.222220
8.01 8.019860 4.733330 88.233330 157.777780
8.00 8.009030 4.766670 85.066670 173.333330
7.99 7.997290 4.80 81.90 170.0
7.98 7.986460 4.7750 83.7750 166.666670
7.97 7.974720 4.750 85.650 163.333330
7.96 7.963880 4.7250 87.5250 160.0
7.95 7.952140 4.70 89.40 166.666670
7.94 7.946730 4.70 87.366670 173.333330
7.93 7.941310 4.70 85.333330 180.0
7.92 7.929570 4.70 83.30 172.50
7.91 7.917830 4.70 83.4250 165.0
7.90 7.9070 4.70 83.550 157.50
7.89 7.895260 4.70 83.6750 150.0
7.88 7.884420 4.70 83.80 147.777780
7.87 7.872690 4.70 85.033330 145.555560
7.86 7.861850 4.70 86.266670 143.333330
7.85 7.855980 4.70 87.50 153.333330
7.84 7.850110 4.70 86.866670 163.333330
7.83 7.839280 4.70 86.233330 173.333330
7.82 7.827540 4.70 85.60 167.50
7.81 7.81670 4.7250 85.2250 161.666670
7.80 7.804970 4.750 84.850 155.833330
7.79 7.794130 4.7750 84.4750 150.0
7.78 7.782390 4.80 84.10 135.555560
7.77 7.776980 4.80 84.333330 121.111110
7.76 7.771560 4.80 84.566670 106.666670
7.75 7.759820 4.80 84.80 112.222220
7.74 7.748980 4.7750 84.4250 117.777780
7.73 7.738150 4.750 84.050 123.333330
7.72 7.726410 4.7250 83.6750 123.333330
7.71 7.715580 4.70 83.30 123.333330
7.70 7.703840 4.70 82.20 123.333330
7.69 7.6930 4.70 81.10 123.333330
7.68 7.681260 4.70 80.0 120.0
7.67 7.675850 4.733330 81.833330 116.666670
7.66 7.670430 4.766670 83.666670 113.333330
7.65 7.658690 4.80 85.50 122.50
7.64 7.647860 4.6250 85.0750 131.666670
7.63 7.636120 4.450 84.650 140.833330
7.62 7.625280 4.2750 84.2250 150.0
7.61 7.613540 4.10 83.80 144.086020
7.60 7.602710 4.30 84.233330 138.172040
7.59 7.591870 4.50 84.666670 132.258060
7.58 7.5860 4.70 85.10 131.505380
