~VERSION INFORMATION SECTION
VERS. 2.0 : CWLS LAS-VERSION 2.0
WRAP. NO : One line per depth step
~WELL INFORMATION SECTION
# MNEM.UNIT VALUE/NAME DESCRIPTION
#-------- -------------- ---------------------
STRT.Metres 16 : Start
STOP.Metres 0.47 : Stop
STEP.Metres -0.01 : Step
NULL.  -999.25 :NULL VALUE
DATE. 2025-06-11 : DATE
~CURVE INFORMATION SECTION
DEPTH.Metres : 0 Depth
Depth. : 1 Depth
Incline.Deg : 2 Incline
Azimuth.Deg : 3 Azimuth
GR.CPS : 4 GR
~PARAMETER INFORMATION SECTION
~OTHER
#-------------------------------------------------
#Produced By: GeoVista Logger - Version 7.1.107.0
Natural Gamma Sonde - 6447
Verticality Sonde - 6292
#-------------------------------------------------
~ASCII LOG DATA
# ...
7.57 7.580140 4.6750 85.70 130.752690
7.56 7.56930 4.650 86.30 130.0
7.55 7.557560 4.6250 86.90 138.333330
7.54 7.546730 4.60 87.50 146.666670
7.53 7.534990 4.610 87.030 155.0
7.52 7.524150 4.620 86.560 163.333330
7.51 7.512420 4.630 86.090 164.444440
7.50 7.506550 4.640 85.620 165.555560
7.49 7.500680 4.650 85.150 166.666670
7.48 7.489840 4.660 84.680 176.250
7.47 7.47810 4.670 84.210 185.833330
7.46 7.467270 4.680 83.740 195.416670
7.45 7.455530 4.690 83.270 205.0
7.44 7.44470 4.70 82.80 173.333330
7.43 7.432960 4.666670 82.833330 141.666670
7.42 7.422120 4.633330 82.866670 110.0
7.41 7.416250 4.60 82.90 122.50
7.40 7.410380 4.60 85.10 135.0
7.39 7.398650 4.60 87.30 147.50
7.38 7.387810 4.60 89.50 160.0
7.37 7.376070 4.60 88.5750 165.555560
7.36 7.364330 4.60 87.650 171.111110
7.35 7.35260 4.60 86.7250 176.666670
7.34 7.340860 4.60 85.80 183.333330
7.33 7.335440 4.633330 85.50 190.0
7.32 7.330020 4.666670 85.20 196.666670
7.31 7.318280 4.70 84.90 183.333330
7.30 7.307450 4.650 86.6250 170.0
7.29 7.295710 4.60 88.350 156.666670
7.28 7.283970 4.550 90.0750 143.333330
7.27 7.273140 4.50 91.80 144.444440
7.26 7.267270 4.533330 88.766670 145.555560
7.25 7.26140 4.566670 85.733330 146.666670
7.24 7.249660 4.60 82.70 147.50
7.23 7.238830 4.60 82.60 148.333330
7.22 7.227090 4.60 82.50 149.166670
7.21 7.215350 4.60 82.40 150.0
7.20 7.204510 4.60 83.042860 145.555560
7.19 7.192780 4.60 83.685710 141.111110
7.18 7.181040 4.60 84.328570 136.666670
7.17 7.175620 4.60 84.971430 128.888890
7.16 7.17020 4.60 85.614290 121.111110
7.15 7.158470 4.60 86.257140 113.333330
7.14 7.146730 4.60 86.90 110.833330
7.13 7.134990 4.60 86.10 108.333330
7.12 7.124150 4.60 85.30 105.833330
7.11 7.112420 4.60 84.50 103.333330
7.10 7.106550 4.60 83.70 126.666670
7.09 7.100680 4.566670 85.233330 150.0
7.08 7.089840 4.533330 86.766670 173.333330
7.07 7.07810 4.50 88.30 159.166670
7.06 7.066370 4.533330 87.50 145.0
7.05 7.054630 4.566670 86.70 130.833330
7.04 7.043790 4.60 85.90 116.666670
7.03 7.032050 4.60 85.7250 124.444440
7.02 7.026640 4.60 85.550 132.222220
7.01 7.021220 4.60 85.3750 140.0
7.00 7.009480 4.60 85.20 143.870970
6.99 6.998650 4.60 85.233330 147.741940
6.98 6.987810 4.60 85.266670 151.61290
6.97 6.976070 4.60 85.30 153.709680
6.96 6.965240 4.5750 85.050 155.806450
6.95 6.95440 4.550 84.80 157.903230
6.94 6.943570 4.5250 84.550 160.0
6.93 6.932730 4.50 84.30 163.333330
6.92 6.920990 4.533330 84.533330 166.666670
6.91 6.915580 4.566670 84.766670 170.0
6.90 6.910160 4.60 85.0 155.0
6.89 6.899320 4.60 84.628570 140.0
6.88 6.887580 4.60 84.257140 125.0
6.87 6.876750 4.60 83.885710 110.0
6.86 6.865910 4.60 83.514290 113.333330
6.85 6.854180 4.60 83.142860 116.666670
6.84 6.843340 4.60 82.771430 120.0
6.83 6.832510 4.60 82.40 135.0
6.82 6.826640 4.566670 84.10 150.0
6.81 6.820770 4.533330 85.80 165.0
6.80 6.809930 4.50 87.50 162.50
6.79 6.798190 4.5250 85.9750 160.0
6.78 6.787360 4.550 84.450 157.50
6.77 6.776520 4.5750 82.9250 155.0
6.76 6.764790 4.60 81.40 166.666670
6.75 6.753950 4.566670 83.633330 178.333330
6.74 6.742210 4.533330 85.866670 190.0
6.73 6.736790 4.50 88.10 177.777780
6.72 6.731380 4.50 87.550 165.555560
6.71 6.719640 4.50 87.0 153.333330
6.70 6.70880 4.50 86.450 148.333330
6.69 6.697970 4.50 85.90 143.333330
6.68 6.686230 4.50 85.416670 138.333330
6.67 6.67540 4.50 84.933330 133.333330
6.66 6.663660 4.50 84.450 128.888890
6.65 6.652820 4.50 83.966670 124.444440
6.64 6.641080 4.50 83.483330 120.0
6.63 6.635670 4.50 83.0 130.833330
6.62 6.630250 4.50 83.2250 141.666670
6.61 6.618510 4.50 83.450 152.50
6.60 6.607670 4.50 83.6750 163.333330
6.59 6.595940 4.50 83.90 156.666670
6.58 6.58510 4.466670 83.60 150.0
6.57 6.573360 4.433330 83.30 143.333330
6.56 6.562530 4.40 83.0 153.131310
6.55 6.556660 4.433330 83.266670 162.929290
6.54 6.550790 4.466670 83.533330 172.727270
6.53 6.539950 4.50 83.80 174.28230
6.52 6.528220 4.4750 82.7750 175.837320
6.51 6.517380 4.450 81.750 177.392340
6.50 6.505640 4.4250 80.7250 178.947370
6.49 6.494810 4.40 79.70 154.85380
6.48 6.483070 4.40 80.533330 130.760230
6.47 6.471330 4.40 81.366670 106.666670
6.46 6.465910 4.40 82.20 125.833330
6.45 6.46050 4.40 82.3250 145.0
6.44 6.448760 4.40 82.450 164.166670
6.43 6.437020 4.40 82.5750 183.333330
6.42 6.426190 4.40 82.70 170.0
6.41 6.414450 4.40 81.966670 156.666670
6.40 6.403610 4.40 81.233330 143.333330
6.39 6.391870 4.40 80.50 138.333330
6.38 6.3860 4.433330 80.733330 133.333330
6.37 6.380140 4.466670 80.966670 128.333330
6.36 6.36930 4.50 81.20 123.333330
6.35 6.357560 4.50 81.3250 141.362010
6.34 6.346730 4.50 81.450 159.390680
6.33 6.334990 4.50 81.5750 177.419350
6.32 6.323250 4.50 81.70 178.279570
6.31 6.311510 4.50 81.20 179.139780
6.30 6.306090 4.50 80.70 180.0
6.29 6.300680 4.50 80.20 176.666670
6.28 6.288940 4.50 81.233330 173.333330
6.27 6.27720 4.50 82.266670 170.0
6.26 6.266370 4.50 83.30 166.666670
6.25 6.254630 4.50 83.20 154.444440
6.24 6.242890 4.50 83.10 142.222220
6.23 6.237020 4.50 83.0 130.0
6.22 6.231150 4.50 82.90 143.750
6.21 6.219410 4.50 82.10 157.50
6.20 6.208580 4.50 81.30 171.250
6.19 6.196840 4.50 80.50 185.0
6.18 6.18510 4.50 80.9750 170.0
6.17 6.173360 4.50 81.450 155.0
6.16 6.167490 4.50 81.9250 140.0
6.15 6.161630 4.50 82.40 143.333330
6.14 6.149890 4.50 81.90 146.666670
6.13 6.138150 4.50 81.40 150.0
6.12 6.126410 4.50 80.90 153.333330
6.11 6.115580 4.50 81.266670 160.0
6.10 6.103840 4.50 81.633330 166.666670
6.09 6.09210 4.50 82.0 173.333330
6.08 6.086230 4.50 82.70 163.333330
6.07 6.080360 4.50 83.40 153.333330
6.06 6.068620 4.50 84.10 143.333330
6.05 6.056880 4.50 84.80 164.318180
6.04 6.046050 4.50 83.90 185.303030
6.03 6.034310 4.50 83.0 206.287880
6.02 6.022570 4.50 82.10 227.272730
6.01 6.01670 4.50 82.0250 209.409890
6.00 6.010840 4.50 81.950 191.547050
5.99 5.99910 4.50 81.8750 173.684210
5.98 5.988260 4.50 81.80 171.345030
5.97 5.976520 4.466670 82.433330 169.005850
5.96 5.964790 4.433330 83.066670 166.666670
5.95 5.953050 4.40 83.70 165.0
5.94 5.941310 4.40 82.80 163.333330
5.93 5.935890 4.40 81.90 161.666670
5.92 5.930470 4.40 81.0 160.0
5.91 5.918740 4.40 80.10 158.888890
5.90 5.90790 4.433330 79.533330 157.777780
5.89 5.896160 4.466670 78.966670 156.666670
5.88 5.884420 4.50 78.40 152.063490
5.87 5.873590 4.4750 80.0250 147.460320
5.86 5.861850 4.450 81.650 142.857140
5.85 5.855980 4.4250 83.2750 151.58730
5.84 5.850110 4.40 84.90 160.317460
5.83 5.839280 4.40 83.766670 169.047620
5.82 5.828440 4.40 82.633330 177.777780
5.81 5.81670 4.40 81.50 164.074070
5.80 5.805870 4.40 81.450 150.370370
5.79 5.794130 4.40 81.40 136.666670
5.78 5.78330 4.40 81.350 137.777780
5.77 5.771560 4.40 81.30 138.888890
5.76 5.766140 4.40 82.566670 140.0
5.75 5.760720 4.40 83.833330 140.833330
5.74 5.748980 4.40 85.10 141.666670
5.73 5.737250 4.40 83.20 142.50
5.72 5.726410 4.40 81.30 143.333330
5.71 5.714670 4.40 79.40 132.11470
5.70 5.702930 4.40 77.50 120.896060
5.69 5.697070 4.40 79.50 109.677420
5.68 5.69120 4.40 81.50 116.424730
5.67 5.679460 4.40 83.50 123.172040
5.66 5.668620 4.40 82.466670 129.919350
5.65 5.656880 4.40 81.433330 136.666670
5.64 5.645150 4.40 80.40 137.777780
5.63 5.633410 4.3750 80.90 138.888890
5.62 5.622570 4.350 81.40 140.0
5.61 5.61670 4.3250 81.90 126.666670
5.60 5.610840 4.30 82.40 113.333330
5.59 5.59910 4.30 81.666670 100.0
5.58 5.587360 4.30 80.933330 111.666670
5.57 5.575620 4.30 80.20 123.333330
5.56 5.563880 4.30 80.5250 135.0
5.55 5.552140 4.30 80.850 146.666670
5.54 5.546280 4.30 81.1750 137.777780
5.53 5.540410 4.30 81.50 128.888890
5.52 5.528670 4.233330 80.633330 120.0
5.51 5.516930 4.166670 79.766670 124.166670
5.50 5.505190 4.10 78.90 128.333330
5.49 5.493450 4.133330 79.566670 132.50
5.48 5.482620 4.166670 80.233330 136.666670
5.47 5.476750 4.20 80.90 148.888890
5.46 5.470880 4.1250 81.0250 161.111110
5.45 5.459140 4.050 81.150 173.333330
5.44 5.44740 3.9750 81.2750 158.333330
5.43 5.435670 3.90 81.40 143.333330
5.42 5.423930 3.933330 80.60 128.333330
5.41 5.412190 3.966670 79.80 113.333330
5.40 5.406320 4.0 79.0 106.666670
