~VERSION INFORMATION SECTION
VERS. 2.0 : CWLS LAS-VERSION 2.0
WRAP. NO : One line per depth step
~WELL INFORMATION SECTION
# MNEM.UNIT VALUE/NAME DESCRIPTION
#-------- -------------- ---------------------
STRT.Metres 16 : Start
STOP.Metres 0.47 : Stop
STEP.Metres -0.01 : Step
NULL.  -999.25 :NULL VALUE
DATE. 2025-06-11 : DATE
~CURVE INFORMATION SECTION
DEPTH.Metres : 0 Depth
Depth. : 1 Depth
Incline.Deg : 2 Incline
Azimuth.Deg : 3 Azimuth
GR.CPS : 4 GR
~PARAMETER INFORMATION SECTION
~OTHER
#-------------------------------------------------
#Produced By: GeoVista Logger - Version 7.1.107.0
Natural Gamma Sonde - 6447
Verticality Sonde - 6292
#-------------------------------------------------
~ASCII LOG DATA
# ...
13.89 13.899770 6.40 87.50 148.978490
13.88 13.888940 6.40 87.166670 126.989250
13.87 13.87810 6.40 86.833330 105.0
13.86 13.865460 6.40 86.50 111.250
13.85 13.854630 6.3750 87.050 117.50
13.84 13.843790 6.350 87.60 123.750
13.83 13.832050 6.3250 88.150 130.0
13.82 13.826190 6.30 88.70 140.0
13.81 13.820320 6.266670 88.966670 150.0
13.80 13.809480 6.233330 89.233330 160.0
13.79 13.797740 6.20 89.50 153.333330
13.78 13.7860 6.2250 88.60 146.666670
13.77 13.775170 6.250 87.70 140.0
13.76 13.763430 6.2750 86.80 133.333330
13.75 13.75260 6.30 85.90 125.555560
13.74 13.741760 6.30 87.0 117.777780
13.73 13.735890 6.30 88.10 110.0
13.72 13.730020 6.30 89.20 113.333330
13.71 13.718280 6.30 88.366670 116.666670
13.70 13.707450 6.30 87.533330 120.0
13.69 13.695710 6.30 86.70 125.0
13.68 13.683970 6.30 86.7250 130.0
13.67 13.673140 6.30 86.750 135.0
13.66 13.667270 6.30 86.7750 140.0
13.65 13.66140 6.30 86.80 132.222220
13.64 13.649660 6.30 88.866670 124.444440
13.63 13.638830 6.30 90.933330 116.666670
13.62 13.627090 6.30 93.0 117.50
13.61 13.615350 6.30 91.650 118.333330
13.60 13.604510 6.30 90.30 119.166670
13.59 13.592780 6.30 88.950 120.0
13.58 13.581940 6.30 87.60 124.444440
13.57 13.576070 6.10 86.766670 128.888890
13.56 13.57020 5.90 85.933330 133.333330
13.55 13.558470 5.70 85.10 131.111110
13.54 13.547630 5.8250 85.6250 128.888890
13.53 13.536790 5.950 86.150 126.666670
13.52 13.524150 6.0750 86.6750 140.454550
13.51 13.513320 6.20 87.20 154.242420
13.50 13.50790 6.20 86.60 168.03030
13.49 13.502480 6.20 86.0 181.818180
13.48 13.489840 6.20 85.40 173.84370
13.47 13.479010 6.20 85.70 165.869220
13.46 13.468170 6.20 86.0 157.894740
13.45 13.455530 6.20 86.30 153.421050
13.44 13.44470 6.20 86.2750 148.947370
13.43 13.433860 6.20 86.250 144.473680
13.42 13.422120 6.20 86.2250 140.0
13.41 13.416250 6.20 86.20 146.666670
13.40 13.410380 6.166670 87.733330 153.333330
13.39 13.399550 6.133330 89.266670 160.0
13.38 13.387810 6.10 90.80 151.666670
13.37 13.376070 6.1250 89.60 143.333330
13.36 13.365240 6.150 88.40 135.0
13.35 13.35350 6.1750 87.20 126.666670
13.34 13.342660 6.20 86.0 132.222220
13.33 13.331830 6.166670 86.70 137.777780
13.32 13.325960 6.133330 87.40 143.333330
13.31 13.320090 6.10 88.10 151.111110
13.30 13.308350 6.10 86.166670 158.888890
13.29 13.297520 6.10 84.233330 166.666670
13.28 13.285780 6.10 82.30 163.750
13.27 13.274940 6.1250 84.10 160.833330
13.26 13.264110 6.150 85.90 157.916670
13.25 13.252370 6.1750 87.70 155.0
13.24 13.24650 6.20 89.50 153.333330
13.23 13.240630 6.20 88.70 151.666670
13.22 13.22980 6.20 87.90 150.0
13.21 13.218060 6.20 87.10 149.166670
13.20 13.207220 6.1750 87.3250 148.333330
13.19 13.196390 6.150 87.550 147.50
13.18 13.184650 6.1250 87.7750 146.666670
13.17 13.172910 6.10 88.0 157.777780
13.16 13.162080 6.10 85.766670 168.888890
13.15 13.156210 6.10 83.533330 180.0
13.14 13.150340 6.10 81.30 168.888890
13.13 13.13950 6.1250 82.650 157.777780
13.12 13.128670 6.150 84.0 146.666670
13.11 13.116930 6.1750 85.350 140.833330
13.10 13.105190 6.20 86.70 135.0
13.09 13.094360 6.166670 87.0 129.166670
13.08 13.082620 6.133330 87.30 123.333330
13.07 13.071780 6.10 87.60 135.555560
13.06 13.066370 6.10 85.333330 147.777780
13.05 13.060950 6.10 83.066670 160.0
13.04 13.048310 6.10 80.80 157.50
13.03 13.037470 6.1250 80.850 155.0
13.02 13.026640 6.150 80.90 152.50
13.01 13.0140 6.1750 80.950 150.0
13.00 13.003160 6.20 81.0 151.666670
12.99 12.997740 6.20 82.40 153.333330
12.98 12.992330 6.20 83.80 155.0
12.97 12.979680 6.20 85.20 170.0
12.96 12.968850 6.166670 85.833330 185.0
12.95 12.958010 6.133330 86.466670 200.0
12.94 12.945370 6.10 87.10 193.333330
12.93 12.934540 6.1250 85.60 186.666670
12.92 12.92370 6.150 84.10 180.0
12.91 12.911960 6.1750 82.60 173.333330
12.90 12.906090 6.20 81.10 160.0
12.89 12.900230 6.20 81.30 146.666670
12.88 12.889390 6.20 81.50 133.333330
12.87 12.877650 6.20 81.70 140.0
12.86 12.865910 6.20 82.450 146.666670
12.85 12.855080 6.20 83.20 153.333330
12.84 12.843340 6.20 83.950 160.0
12.83 12.83160 6.20 84.70 155.555560
12.82 12.826190 6.20 84.30 151.111110
12.81 12.820770 6.20 83.90 146.666670
12.80 12.809030 6.20 83.50 147.777780
12.79 12.797290 6.20 83.433330 148.888890
12.78 12.786460 6.20 83.366670 150.0
12.77 12.774720 6.20 83.30 161.309520
12.76 12.762980 6.20 83.4750 172.619050
12.75 12.757560 6.20 83.650 183.928570
12.74 12.752140 6.20 83.8250 195.23810
12.73 12.73950 6.20 84.0 182.010580
12.72 12.728670 6.166670 84.433330 168.783070
12.71 12.717830 6.133330 84.866670 155.555560
12.70 12.705190 6.10 85.30 151.666670
12.69 12.694360 6.10 85.150 147.777780
12.68 12.683520 6.10 85.0 143.888890
12.67 12.670880 6.10 84.850 140.0
12.66 12.665460 6.10 84.70 148.888890
12.65 12.660050 6.133330 84.20 157.777780
12.64 12.649210 6.166670 83.70 166.666670
12.63 12.636570 6.20 83.20 159.677420
12.62 12.625730 6.1750 83.20 152.688170
12.61 12.61490 6.150 83.20 145.698920
12.60 12.602260 6.1250 83.20 138.709680
12.59 12.591420 6.10 83.20 141.362010
12.58 12.5860 6.10 83.833330 144.014340
12.57 12.580590 6.10 84.466670 146.666670
12.56 12.567950 6.10 85.10 156.666670
12.55 12.557110 6.10 85.666670 166.666670
12.54 12.546280 6.10 86.233330 176.666670
12.53 12.534540 6.10 86.80 173.333330
12.52 12.52280 6.10 86.4250 170.0
12.51 12.511960 6.10 86.050 166.666670
12.50 12.506090 6.10 85.6750 163.333330
12.49 12.500230 6.10 85.30 171.111110
12.48 12.488490 6.10 84.733330 178.888890
12.47 12.477650 6.10 84.166670 186.666670
12.46 12.465910 6.10 83.60 175.0
12.45 12.454180 6.0750 83.80 163.333330
12.44 12.443340 6.050 84.0 151.666670
12.43 12.43160 6.0250 84.20 140.0
12.42 12.426190 6.0 84.40 152.222220
12.41 12.420770 6.033330 84.666670 164.444440
12.40 12.409930 6.066670 84.933330 176.666670
12.39 12.397290 6.10 85.20 168.888890
12.38 12.386460 6.0750 85.40 161.111110
12.37 12.375620 6.050 85.60 153.333330
12.36 12.363880 6.0250 85.80 158.333330
12.35 12.353050 6.0 86.0 163.333330
12.34 12.342210 6.0 85.0 168.333330
12.33 12.336340 6.0 84.0 173.333330
12.32 12.330470 6.0 83.0 167.777780
12.31 12.318740 6.033330 83.533330 162.222220
12.30 12.30790 6.066670 84.066670 156.666670
12.29 12.296160 6.10 84.60 154.444440
12.28 12.285330 6.0750 84.850 152.222220
12.27 12.274490 6.050 85.10 150.0
12.26 12.262750 6.0250 85.350 155.0
12.25 12.251020 6.0 85.60 160.0
12.24 12.24560 5.966670 85.566670 165.0
12.23 12.240180 5.933330 85.533330 170.0
12.22 12.228440 5.90 85.50 173.333330
12.21 12.217610 5.9250 85.150 176.666670
12.20 12.206770 5.950 84.80 180.0
12.19 12.195030 5.9750 84.450 175.833330
12.18 12.18330 6.0 84.10 171.666670
12.17 12.173360 5.966670 84.466670 167.50
12.16 12.167040 5.933330 84.833330 163.333330
12.15 12.160720 5.90 85.20 173.333330
12.14 12.149890 5.90 86.0 183.333330
12.13 12.139050 5.90 86.80 193.333330
12.12 12.127310 5.90 87.60 186.666670
12.11 12.115580 5.90 87.150 180.0
12.10 12.104740 5.90 86.70 173.333330
12.09 12.0930 5.90 86.250 166.666670
12.08 12.082170 5.90 85.80 185.555560
12.07 12.076750 5.90 85.633330 204.444440
12.06 12.071330 5.90 85.466670 223.333330
12.05 12.059590 5.90 85.30 227.777780
12.04 12.047860 5.90 85.450 232.222220
12.03 12.037020 5.90 85.60 236.666670
12.02 12.025280 5.90 85.750 229.166670
12.01 12.014450 5.90 85.90 221.666670
12.00 12.003610 5.833330 85.533330 214.166670
11.99 11.991870 5.766670 85.166670 206.666670
11.98 11.9860 5.70 84.80 220.573480
11.97 11.980140 5.633330 84.40 234.480290
11.96 11.96930 5.566670 84.0 248.38710
11.95 11.957560 5.50 83.60 246.290320
11.94 11.946730 5.5250 83.3750 244.193550
11.93 11.935890 5.550 83.150 242.096770
11.92 11.923250 5.5750 82.9250 240.0
11.91 11.912420 5.60 82.70 233.333330
11.90 11.9070 5.666670 84.833330 226.666670
11.89 11.901580 5.733330 86.966670 220.0
11.88 11.888940 5.80 89.10 209.166670
11.87 11.87720 5.7750 88.8250 198.333330
11.86 11.866370 5.750 88.550 187.50
11.85 11.854630 5.7250 88.2750 176.666670
11.84 11.842890 5.70 88.0 191.111110
11.83 11.832050 5.70 87.40 205.555560
11.82 11.826190 5.70 86.80 220.0
