~VERSION INFORMATION SECTION
VERS. 2.0 : CWLS LAS-VERSION 2.0
WRAP. NO : One line per depth step
~WELL INFORMATION SECTION
# MNEM.UNIT VALUE/NAME DESCRIPTION
#-------- -------------- ---------------------
STRT.Metres 16 : Start
STOP.Metres 0.47 : Stop
STEP.Metres -0.01 : Step
NULL.  -999.25 :NULL VALUE
DATE. 2025-06-11 : DATE
~CURVE INFORMATION SECTION
DEPTH.Metres : 0 Depth
Depth. : 1 Depth
Incline.Deg : 2 Incline
Azimuth.Deg : 3 Azimuth
GR.CPS : 4 GR
~PARAMETER INFORMATION SECTION
~OTHER
#-------------------------------------------------
#Produced By: GeoVista Logger - Version 7.1.107.0
Natural Gamma Sonde - 6447
Verticality Sonde - 6292
#-------------------------------------------------
~ASCII LOG DATA
# ...
5.39 5.400450 4.0 80.5250 100.0
5.38 5.388710 4.0 82.050 93.333330
5.37 5.376980 4.0 83.5750 110.476190
5.36 5.365240 4.0 85.10 127.619050
5.35 5.35440 4.0 84.10 144.76190
5.34 5.341760 4.0 83.10 161.904760
5.33 5.335890 4.0 82.10 159.788360
5.32 5.330020 4.0 81.950 157.671960
5.31 5.319190 4.0 81.80 155.555560
5.30 5.307450 4.0 81.650 150.370370
5.29 5.295710 4.0 81.50 145.185190
5.28 5.283970 4.0 82.733330 140.0
5.27 5.272230 4.0 83.966670 138.333330
5.26 5.266370 4.0 85.20 136.666670
5.25 5.26050 4.0 84.2250 135.0
5.24 5.248760 4.0 83.250 133.333330
5.23 5.237920 4.0 82.2750 132.222220
5.22 5.226190 4.0 81.30 131.111110
5.21 5.214450 4.0 81.60 130.0
5.20 5.202710 4.0 81.90 137.50
5.19 5.196840 4.0 82.20 145.0
5.18 5.190970 4.0 81.5250 152.50
5.17 5.179230 4.0 80.850 160.0
5.16 5.16840 4.0 80.1750 164.444440
5.15 5.156660 4.0 79.50 168.888890
5.14 5.144920 3.966670 80.20 173.333330
5.13 5.133180 3.933330 80.90 167.50
5.12 5.121440 3.90 81.60 161.666670
5.11 5.116030 3.90 81.50 155.833330
5.10 5.110610 3.90 81.40 150.0
5.09 5.098870 3.90 81.30 150.0
5.08 5.087130 3.90 81.20 150.0
5.07 5.07540 3.90 80.666670 150.0
5.06 5.063660 3.90 80.133330 150.403230
5.05 5.052820 3.90 79.60 150.806450
5.04 5.046950 3.90 79.550 151.209680
5.03 5.041080 3.90 79.50 151.61290
5.02 5.029350 3.90 79.450 155.519710
5.01 5.017610 3.90 79.40 159.426520
5.00 5.005870 3.90 79.50 163.333330
4.99 4.994130 3.90 79.60 170.0
4.98 4.982390 3.90 79.70 176.666670
4.97 4.976520 3.8750 79.9750 183.333330
4.96 4.970650 3.850 80.250 190.0
4.95 4.959820 3.8250 80.5250 170.0
4.94 4.948080 3.80 80.80 150.0
4.93 4.936340 3.833330 80.70 130.0
4.92 4.92460 3.866670 80.60 136.666670
4.91 4.912870 3.90 80.50 143.333330
4.90 4.902030 3.8750 80.20 150.0
4.89 4.896160 3.850 79.90 141.666670
4.88 4.890290 3.8250 79.60 133.333330
4.87 4.878560 3.80 79.30 125.0
4.86 4.866820 3.766670 80.80 116.666670
4.85 4.855080 3.733330 82.30 132.222220
4.84 4.843340 3.70 83.80 147.777780
4.83 4.837470 3.7250 80.750 163.333330
4.82 4.83160 3.750 77.70 161.666670
4.81 4.819860 3.7750 74.650 160.0
4.80 4.808130 3.80 71.60 158.333330
4.79 4.796390 3.833330 75.833330 156.666670
4.78 4.785550 3.866670 80.066670 156.666670
4.77 4.773810 3.90 84.30 156.666670
4.76 4.762080 3.8750 83.20 156.666670
4.75 4.756210 3.850 82.10 146.250
4.74 4.750340 3.8250 81.0 135.833330
4.73 4.73860 3.80 79.90 125.416670
4.72 4.726860 3.833330 80.40 115.0
4.71 4.716030 3.866670 80.90 123.333330
4.70 4.704290 3.90 81.40 131.666670
4.69 4.692550 3.90 82.80 140.0
4.68 4.686680 3.90 84.20 141.666670
4.67 4.680810 3.90 85.60 143.333330
4.66 4.669980 3.9250 84.5750 145.0
4.65 4.658240 3.950 83.550 146.666670
4.64 4.64650 3.9750 82.5250 138.888890
4.63 4.634760 4.0 81.50 131.111110
4.62 4.623930 4.033330 81.20 123.333330
4.61 4.612190 4.066670 80.90 125.833330
4.60 4.606320 4.10 80.60 128.333330
4.59 4.600450 4.085710 80.685710 130.833330
4.58 4.589620 4.071430 80.771430 133.333330
4.57 4.577880 4.057140 80.857140 141.111110
4.56 4.566140 4.042860 80.942860 148.888890
4.55 4.55530 4.028570 81.028570 156.666670
4.54 4.543570 4.014290 81.114290 162.50
4.53 4.531830 4.0 81.20 168.333330
4.52 4.525960 4.0 81.650 174.166670
4.51 4.520090 4.0 82.10 180.0
4.50 4.508350 4.0 82.550 181.111110
4.49 4.496610 4.0 83.0 182.222220
4.48 4.484880 4.0 82.666670 183.333330
4.47 4.473140 4.0 82.333330 175.0
4.46 4.46140 4.0 82.0 166.666670
4.45 4.455980 4.0 82.20 158.333330
4.44 4.450560 4.0 82.40 150.0
4.43 4.438830 4.0 82.60 133.333330
4.42 4.427090 4.0 82.80 116.666670
4.41 4.415350 4.0 82.933330 100.0
4.40 4.403610 4.0 83.066670 120.161290
4.39 4.391870 4.0 83.20 140.322580
4.38 4.3860 4.0 83.050 160.483870
4.37 4.380140 4.0 82.90 180.645160
4.36 4.36840 4.0 82.750 173.763440
4.35 4.356660 4.0 82.60 166.881720
4.34 4.344920 4.0 82.533330 160.0
4.33 4.333180 4.0 82.466670 160.0
4.32 4.321440 4.0 82.40 160.0
4.31 4.316030 4.0 82.3750 160.0
4.30 4.310610 4.0 82.350 160.0
4.29 4.298870 4.0 82.3250 160.0
4.28 4.287130 4.0 82.30 160.0
4.27 4.27540 4.0 82.20 160.0
4.26 4.264560 4.0 82.10 161.111110
4.25 4.252820 4.0 82.0 162.222220
4.24 4.241080 4.0 82.8750 163.333330
4.23 4.235670 4.0 83.750 157.50
4.22 4.230250 4.0 84.6250 151.666670
4.21 4.218510 4.0 85.50 145.833330
4.20 4.206770 4.0 84.766670 140.0
4.19 4.195030 4.0 84.033330 147.777780
4.18 4.18330 4.0 83.30 155.555560
4.17 4.171560 4.0 83.128570 163.333330
4.16 4.166140 4.0 82.957140 150.0
4.15 4.160720 4.0 82.785710 136.666670
4.14 4.148980 4.0 82.614290 123.333330
4.13 4.137250 4.0 82.442860 110.0
4.12 4.125510 4.0 82.271430 125.555560
4.11 4.114670 4.0 82.10 141.111110
4.10 4.102930 4.0250 81.350 156.666670
4.09 4.09120 4.050 80.60 156.666670
4.08 4.085780 4.0750 79.850 156.666670
4.07 4.080360 4.10 79.10 156.666670
4.06 4.068620 4.066670 78.60 156.666670
4.05 4.056880 4.033330 78.10 157.777780
4.04 4.045150 4.0 77.60 158.888890
4.03 4.034310 3.950 79.0 160.0
4.02 4.022570 3.90 80.40 155.833330
4.01 4.01670 3.850 81.80 151.666670
4.00 4.010840 3.80 83.20 147.50
3.99 3.99910 3.80 83.633330 143.333330
3.98 3.988260 3.80 84.066670 140.0
3.97 3.976520 3.80 84.50 136.666670
3.96 3.964790 3.833330 82.166670 133.333330
3.95 3.953050 3.866670 79.833330 134.090910
3.94 3.941310 3.90 77.50 134.848480
3.93 3.935890 3.850 78.9750 135.606060
3.92 3.930470 3.80 80.450 136.363640
3.91 3.918740 3.750 81.9250 129.505580
3.90 3.9070 3.70 83.40 122.647530
3.89 3.895260 3.70 81.733330 115.789470
3.88 3.883520 3.70 80.066670 133.508770
3.87 3.871780 3.70 78.40 151.228070
3.86 3.865910 3.70 78.90 168.947370
3.85 3.860050 3.70 79.40 186.666670
3.84 3.848310 3.70 79.90 184.444440
3.83 3.836570 3.70 80.40 182.222220
3.82 3.824830 3.70 80.433330 180.0
3.81 3.813090 3.70 80.466670 175.476190
3.80 3.807220 3.70 80.50 170.952380
3.79 3.801350 3.6750 81.20 166.428570
3.78 3.789620 3.650 81.90 161.904760
3.77 3.777880 3.6250 82.60 156.084660
3.76 3.766140 3.60 83.30 150.264550
3.75 3.75440 3.633330 82.166670 144.444440
3.74 3.742660 3.666670 81.033330 151.135010
3.73 3.736790 3.70 79.90 157.825570
3.72 3.730930 3.6750 80.250 164.516130
3.71 3.719190 3.650 80.60 165.88710
3.70 3.707450 3.6250 80.950 167.258060
3.69 3.695710 3.60 81.30 168.629030
3.68 3.683970 3.633330 80.833330 170.0
3.67 3.672230 3.666670 80.366670 167.777780
3.66 3.666370 3.70 79.90 165.555560
3.65 3.66050 3.6750 80.650 163.333330
3.64 3.648760 3.650 81.40 160.0
3.63 3.637020 3.6250 82.150 156.666670
3.62 3.625280 3.60 82.90 153.333330
3.61 3.613540 3.60 81.866670 150.0
3.60 3.601810 3.60 80.833330 151.111110
3.59 3.595940 3.60 79.80 152.222220
3.58 3.590070 3.6250 80.9250 153.333330
3.57 3.578330 3.650 82.050 150.0
3.56 3.566590 3.6750 83.1750 146.666670
3.55 3.554850 3.70 84.30 143.333330
3.54 3.543120 3.70 83.266670 140.0
3.53 3.531380 3.70 82.233330 153.333330
3.52 3.525960 3.70 81.20 166.666670
3.51 3.520540 3.650 81.4250 180.0
3.50 3.50880 3.60 81.650 163.750
3.49 3.497070 3.550 81.8750 147.50
3.48 3.486230 3.50 82.10 131.250
3.47 3.474490 3.533330 80.766670 115.0
3.46 3.463660 3.566670 79.433330 117.777780
3.45 3.451920 3.60 78.10 120.555560
3.44 3.446050 3.60 78.8250 123.333330
3.43 3.440180 3.60 79.550 135.833330
3.42 3.429350 3.60 80.2750 148.333330
3.41 3.417610 3.60 81.0 160.833330
3.40 3.405870 3.566670 82.766670 173.333330
3.39 3.394130 3.533330 84.533330 173.333330
3.38 3.38330 3.50 86.30 173.333330
3.37 3.377430 3.4750 84.4750 173.333330
3.36 3.371560 3.450 82.650 170.0
3.35 3.359820 3.4250 80.8250 166.666670
3.34 3.348980 3.40 79.0 163.333330
3.33 3.337250 3.366670 81.266670 160.0
3.32 3.325510 3.333330 83.533330 163.333330
3.31 3.313770 3.30 85.80 166.666670
3.30 3.302930 3.30 84.857140 170.0
3.29 3.297070 3.30 83.914290 159.166670
3.28 3.29120 3.30 82.971430 148.333330
3.27 3.279460 3.30 82.028570 137.50
3.26 3.267720 3.30 81.085710 126.666670
3.25 3.256880 3.30 80.142860 138.888890
3.24 3.245150 3.30 79.20 151.111110
3.23 3.233410 3.2750 79.4250 163.333330
3.22 3.227540 3.250 79.650 164.166670
3.21 3.221670 3.2250 79.8750 165.0
3.20 3.209930 3.20 80.10 165.833330
