~VERSION INFORMATION SECTION
VERS. 2.0 : CWLS LAS-VERSION 2.0
WRAP. NO : One line per depth step
~WELL INFORMATION SECTION
# MNEM.UNIT VALUE/NAME DESCRIPTION
#-------- -------------- ---------------------
STRT.Metres 16 : Start
STOP.Metres -1.79 : Stop
STEP.Metres -0.01 : Step
NULL.  -999.25 :NULL VALUE
DATE. 2025-13-11 : DATE
~CURVE INFORMATION SECTION
DEPTH.Metres : 0 Depth
Depth. : 1 Depth
Incline.Deg : 2 Incline
Azimuth.Deg : 3 Azimuth
GR.CPS : 4 GR
~PARAMETER INFORMATION SECTION
~OTHER
#-------------------------------------------------
#Produced By: GeoVista Logger - Version 7.1.107.0
Natural Gamma Sonde - 6447
Verticality Sonde - 6292
#-------------------------------------------------
~ASCII LOG DATA
# ...
5.22 5.23160 3.80 65.50 160.0
5.21 5.219860 3.80 66.133330 160.0
5.20 5.207220 3.80 66.766670 168.333330
5.19 5.194580 3.80 67.40 176.666670
5.18 5.182840 3.80 67.2750 185.0
5.17 5.176520 3.80 67.150 193.333330
5.16 5.17020 3.80 67.0250 198.333330
5.15 5.158470 3.80 66.90 203.333330
5.14 5.145820 3.80 66.850 208.333330
5.13 5.133180 3.80 66.80 213.333330
5.12 5.127310 3.80 66.750 211.111110
5.11 5.121440 3.80 66.70 208.888890
5.10 5.10880 3.80 66.4750 206.666670
5.09 5.096160 3.80 66.250 200.0
5.08 5.083520 3.80 66.0250 193.333330
5.07 5.077650 3.80 65.80 186.666670
5.06 5.071780 3.80 66.30 180.0
5.05 5.059140 3.80 66.80 185.0
5.04 5.04650 3.80 67.30 190.0
5.03 5.033860 3.7750 67.550 195.0
5.02 5.027990 3.750 67.80 200.0
5.01 5.022120 3.7250 68.050 191.111110
5.00 5.009480 3.70 68.30 182.222220
4.99 4.996840 3.7250 67.9250 173.333330
4.98 4.98420 3.750 67.550 170.833330
4.97 4.977880 3.7750 67.1750 168.333330
4.96 4.971560 3.80 66.80 165.833330
4.95 4.959820 3.766670 66.933330 163.333330
4.94 4.947180 3.733330 67.066670 158.888890
4.93 4.934540 3.70 67.20 154.444440
4.92 4.92280 3.750 66.60 150.0
4.91 4.916480 3.80 66.0 155.833330
4.90 4.910160 3.850 65.40 161.666670
4.89 4.897520 3.90 64.80 167.50
4.88 4.885780 3.90 65.40 173.333330
4.87 4.873140 3.90 66.0 165.0
4.86 4.866820 3.90 66.60 156.666670
4.85 4.86050 3.90 67.20 148.333330
4.84 4.847860 3.9250 66.9250 140.0
4.83 4.836120 3.950 66.650 136.666670
4.82 4.823480 3.9750 66.3750 133.333330
4.81 4.817160 4.0 66.10 130.0
4.80 4.810840 4.0 65.766670 126.666670
4.79 4.798190 4.0 65.433330 118.888890
4.78 4.785550 4.0 65.10 111.111110
4.77 4.772910 4.0 65.4750 103.333330
4.76 4.766590 4.0 65.850 121.666670
4.75 4.760270 4.0 66.2250 140.0
4.74 4.748530 4.0 66.60 158.333330
4.73 4.735890 4.0 66.40 176.666670
4.72 4.724150 4.0 66.20 177.50
4.71 4.717830 4.0 66.0 178.333330
4.70 4.711510 4.0 65.80 179.166670
4.69 4.698870 4.0 66.60 180.0
4.68 4.687130 4.0 67.40 157.777780
4.67 4.674490 4.0 68.20 135.555560
4.66 4.661850 4.0 68.150 113.333330
4.65 4.655980 4.0 68.10 120.833330
4.64 4.650110 4.0 68.050 128.333330
4.63 4.637470 4.0 68.0 135.833330
4.62 4.625730 4.0 67.950 143.333330
4.61 4.6140 4.0 67.90 145.833330
4.60 4.607670 4.0 67.850 148.333330
4.59 4.601350 4.0 67.80 150.833330
4.58 4.589620 4.0250 67.90 153.333330
4.57 4.576980 4.050 68.0 153.709680
4.56 4.564330 4.0750 68.10 154.086020
4.55 4.558470 4.10 68.20 154.462370
4.54 4.55260 4.10 68.133330 154.838710
4.53 4.539950 4.10 68.066670 162.11470
4.52 4.527310 4.10 68.0 169.390680
4.51 4.514670 4.10 68.150 176.666670
4.50 4.502030 4.10 68.30 173.333330
4.49 4.496160 4.10 68.450 170.0
4.48 4.490290 4.10 68.60 166.666670
4.47 4.477650 4.10 68.40 163.333330
4.46 4.465010 4.10 68.20 154.166670
4.45 4.458690 4.10 68.0 145.0
4.44 4.452370 4.10 67.80 135.833330
4.43 4.439730 4.0750 68.10 126.666670
4.42 4.427090 4.050 68.40 139.166670
4.41 4.414450 4.0250 68.70 151.666670
4.40 4.402710 4.0 69.0 164.166670
4.39 4.396390 4.0 69.133330 176.666670
4.38 4.390070 4.0 69.266670 170.0
4.37 4.377430 4.0 69.40 163.333330
4.36 4.365690 4.0250 69.2250 156.666670
4.35 4.353050 4.050 69.050 164.166670
4.34 4.346730 4.0750 68.8750 171.666670
4.33 4.340410 4.10 68.70 179.166670
4.32 4.327770 4.10 68.7250 186.666670
4.31 4.316030 4.10 68.750 177.50
4.30 4.303390 4.10 68.7750 168.333330
4.29 4.297070 4.10 68.80 159.166670
4.28 4.290740 4.10 69.233330 150.0
4.27 4.279010 4.10 69.666670 155.555560
4.26 4.266370 4.10 70.10 161.111110
4.25 4.253720 4.10 68.350 166.666670
4.24 4.247860 4.10 66.60 166.666670
4.23 4.241990 4.10 64.850 166.666670
4.22 4.229350 4.10 63.10 166.666670
4.21 4.217610 4.0750 66.0750 166.666670
4.20 4.204970 4.050 69.050 169.166670
4.19 4.192330 4.0250 72.0250 171.666670
4.18 4.186460 4.0 75.0 174.166670
4.17 4.180590 4.0 72.650 176.666670
4.16 4.167950 4.0 70.30 168.888890
4.15 4.15530 4.0 67.950 161.111110
4.14 4.143570 4.0 65.60 153.333330
4.13 4.137250 4.0 66.833330 153.333330
4.12 4.130930 4.0 68.066670 153.333330
4.11 4.118280 4.0 69.30 153.333330
4.10 4.106550 4.0 68.10 153.333330
4.09 4.093910 4.0 66.90 151.666670
4.08 4.088040 4.0 65.70 150.0
4.07 4.082170 4.0 64.50 148.333330
4.06 4.069530 4.0 64.9250 146.666670
4.05 4.056880 4.0 65.350 140.833330
4.04 4.045150 4.0 65.7750 135.0
4.03 4.038830 4.0 66.20 129.166670
4.02 4.032510 3.933330 65.80 123.333330
4.01 4.019860 3.866670 65.40 115.555560
4.00 4.008130 3.80 65.0 107.777780
3.99 3.995490 3.8250 64.50 100.0
3.98 3.983750 3.850 64.0 107.894740
3.97 3.977430 3.8750 63.50 115.789470
3.96 3.971110 3.90 63.0 123.684210
3.95 3.958470 3.90 63.850 131.578950
3.94 3.946730 3.90 64.70 134.517540
3.93 3.934090 3.90 65.550 137.456140
3.92 3.927770 3.90 66.40 140.394740
3.91 3.921440 3.90 65.466670 143.333330
3.90 3.90880 3.90 64.533330 140.833330
3.89 3.896160 3.90 63.60 138.333330
3.88 3.883520 3.8750 64.2250 135.833330
3.87 3.877650 3.850 64.850 133.333330
3.86 3.871780 3.8250 65.4750 125.448030
3.85 3.859140 3.80 66.10 117.562720
3.84 3.84650 3.80 65.70 109.677420
3.83 3.833860 3.80 65.30 117.258060
3.82 3.827540 3.80 64.90 124.838710
3.81 3.821220 3.80 64.50 132.419350
3.80 3.808580 3.7750 64.90 140.0
3.79 3.795940 3.750 65.30 136.666670
3.78 3.78330 3.7250 65.70 133.333330
3.77 3.776980 3.70 66.10 130.0
3.76 3.770650 3.666670 66.70 126.666670
3.75 3.758010 3.633330 67.30 131.111110
3.74 3.745370 3.60 67.90 135.555560
3.73 3.732730 3.60 67.150 140.0
3.72 3.726860 3.60 66.40 141.666670
3.71 3.720990 3.60 65.650 143.333330
3.70 3.708350 3.60 64.90 145.0
3.69 3.695710 3.6250 65.6750 146.666670
3.68 3.683070 3.650 66.450 144.166670
3.67 3.676750 3.6750 67.2250 141.666670
3.66 3.670430 3.70 68.0 139.166670
3.65 3.657790 3.633330 64.366670 136.666670
3.64 3.645150 3.566670 60.733330 141.111110
3.63 3.638830 3.50 57.10 145.555560
3.62 3.632510 3.5250 58.5750 150.0
3.61 3.619860 3.550 60.050 155.0
3.60 3.608130 3.5750 61.5250 160.0
3.59 3.595490 3.60 63.0 165.0
3.58 3.582840 3.60 63.050 170.0
3.57 3.576520 3.60 63.10 162.50
3.56 3.57020 3.60 63.150 155.0
3.55 3.557560 3.60 63.20 147.50
3.54 3.544920 3.60 62.5750 140.0
3.53 3.533180 3.60 61.950 149.166670
3.52 3.527310 3.60 61.3250 158.333330
3.51 3.521440 3.60 60.70 167.50
3.50 3.50880 3.60 62.0 176.666670
3.49 3.496160 3.60 63.30 154.444440
3.48 3.484420 3.60 64.60 132.222220
3.47 3.471780 3.5750 63.2750 110.0
3.46 3.465910 3.550 61.950 120.833330
3.45 3.460050 3.5250 60.6250 131.666670
3.44 3.44740 3.50 59.30 142.50
3.43 3.435670 3.50 59.750 153.333330
3.42 3.423020 3.50 60.20 152.50
3.41 3.417160 3.50 60.650 151.666670
3.40 3.411290 3.50 61.10 150.833330
3.39 3.398650 3.50 61.20 150.0
3.38 3.3860 3.50 61.30 149.166670
3.37 3.374270 3.50 61.40 148.333330
3.36 3.367950 3.50 61.50 147.50
3.35 3.361630 3.466670 60.833330 146.666670
3.34 3.349890 3.433330 60.166670 164.444440
3.33 3.337250 3.40 59.50 182.222220
3.32 3.32460 3.40 59.5250 200.0
3.31 3.312870 3.40 59.550 187.50
3.30 3.306550 3.40 59.5750 175.0
3.29 3.300230 3.40 59.60 162.50
3.28 3.287580 3.40 59.450 150.0
3.27 3.275850 3.40 59.30 152.50
3.26 3.263210 3.40 59.150 155.0
3.25 3.257340 3.40 59.0 157.50
3.24 3.251470 3.3750 59.0250 160.0
3.23 3.238830 3.350 59.050 158.888890
3.22 3.226190 3.3250 59.0750 157.777780
3.21 3.214450 3.30 59.10 156.666670
3.20 3.208130 3.30 59.666670 148.333330
3.19 3.201810 3.30 60.233330 140.0
3.18 3.189160 3.30 60.80 131.666670
3.17 3.177430 3.30 60.150 123.333330
3.16 3.164790 3.30 59.50 135.241940
3.15 3.153050 3.30 58.850 147.150540
3.14 3.146730 3.30 58.20 159.059140
3.13 3.140410 3.2750 58.650 170.967740
3.12 3.127770 3.250 59.10 166.200720
3.11 3.116030 3.2250 59.550 161.433690
3.10 3.103390 3.20 60.0 156.666670
3.09 3.097070 3.20 58.40 151.666670
3.08 3.090740 3.20 56.80 146.666670
3.07 3.079010 3.20 55.20 141.666670
3.06 3.066370 3.150 55.6750 136.666670
3.05 3.053720 3.10 56.150 140.833330
3.04 3.047860 3.050 56.6250 145.0
3.03 3.041990 3.0 57.10 149.166670
3.02 3.029350 3.050 56.3250 153.333330
3.01 3.01670 3.10 55.550 147.50
3.00 3.004970 3.150 54.7750 141.666670
