~VERSION INFORMATION SECTION
VERS. 2.0 : CWLS LAS-VERSION 2.0
WRAP. NO : One line per depth step
~WELL INFORMATION SECTION
# MNEM.UNIT VALUE/NAME DESCRIPTION
#-------- -------------- ---------------------
STRT.Metres 16 : Start
STOP.Metres -1.79 : Stop
STEP.Metres -0.01 : Step
NULL.  -999.25 :NULL VALUE
DATE. 2025-13-11 : DATE
~CURVE INFORMATION SECTION
DEPTH.Metres : 0 Depth
Depth. : 1 Depth
Incline.Deg : 2 Incline
Azimuth.Deg : 3 Azimuth
GR.CPS : 4 GR
~PARAMETER INFORMATION SECTION
~OTHER
#-------------------------------------------------
#Produced By: GeoVista Logger - Version 7.1.107.0
Natural Gamma Sonde - 6447
Verticality Sonde - 6292
#-------------------------------------------------
~ASCII LOG DATA
# ...
9.69 9.69210 4.6250 79.40 155.555560
9.68 9.686230 4.650 79.40 143.333330
9.67 9.680360 4.6750 79.40 158.333330
9.66 9.668620 4.70 79.40 173.333330
9.65 9.655980 4.70 79.60 188.333330
9.64 9.644240 4.70 79.80 203.333330
9.63 9.637920 4.70 80.0 197.50
9.62 9.63160 4.70 79.7750 191.666670
9.61 9.619860 4.70 79.550 185.833330
9.60 9.607220 4.70 79.3250 180.0
9.59 9.595490 4.70 79.10 181.111110
9.58 9.583750 4.70 79.30 182.222220
9.57 9.577430 4.70 79.50 183.333330
9.56 9.571110 4.70 79.70 178.333330
9.55 9.559370 4.70 79.5250 173.333330
9.54 9.546730 4.70 79.350 168.333330
9.53 9.534990 4.70 79.1750 163.333330
9.52 9.523250 4.70 79.0 160.0
9.51 9.516930 4.6750 79.1750 156.666670
9.50 9.510610 4.650 79.350 153.333330
9.49 9.498870 4.6250 79.5250 149.166670
9.48 9.487130 4.60 79.70 145.0
9.47 9.474490 4.60 79.30 140.833330
9.46 9.462750 4.60 78.90 136.666670
9.45 9.456430 4.60 78.50 128.333330
9.44 9.450110 4.60 78.60 120.0
9.43 9.438370 4.60 78.70 111.666670
9.42 9.426640 4.60 78.80 103.333330
9.41 9.4140 4.60 78.90 114.444440
9.40 9.408130 4.60 79.850 125.555560
9.39 9.402260 4.60 80.80 136.666670
9.38 9.389620 4.60 81.750 128.306450
9.37 9.377880 4.60 82.70 119.946240
9.36 9.366140 4.533330 81.60 111.586020
9.35 9.35350 4.466670 80.50 103.225810
9.34 9.347630 4.40 79.40 102.150540
9.33 9.341760 4.4250 78.6250 101.075270
9.32 9.329120 4.450 77.850 100.0
9.31 9.317380 4.4750 77.0750 95.0
9.30 9.305640 4.50 76.30 90.0
9.29 9.2930 4.50 76.950 85.0
9.28 9.287130 4.50 77.60 80.0
9.27 9.281260 4.50 78.250 105.0
9.26 9.269530 4.50 78.90 130.0
9.25 9.257790 4.533330 78.766670 155.0
9.24 9.246050 4.566670 78.633330 180.0
9.23 9.233410 4.60 78.50 166.666670
9.22 9.227540 4.5250 77.90 153.333330
9.21 9.221670 4.450 77.30 140.0
9.20 9.209930 4.3750 76.70 137.50
9.19 9.198190 4.30 76.10 135.0
9.18 9.185550 4.366670 76.0 132.50
9.17 9.173810 4.433330 75.90 130.0
9.16 9.167950 4.50 75.80 129.166670
9.15 9.162080 4.450 75.850 128.333330
9.14 9.149440 4.40 75.90 127.50
9.13 9.13770 4.350 75.950 126.666670
9.12 9.125960 4.30 76.0 144.444440
9.11 9.114220 4.350 76.60 162.222220
9.10 9.10790 4.40 77.20 180.0
9.09 9.101580 4.450 77.80 176.666670
9.08 9.089840 4.50 78.40 173.333330
9.07 9.07720 4.50 77.70 170.0
9.06 9.065460 4.50 77.0 166.666670
9.05 9.052820 4.50 76.30 170.833330
9.04 9.046950 4.50 76.750 175.0
9.03 9.041080 4.50 77.20 179.166670
9.02 9.028440 4.50 77.650 183.333330
9.01 9.01670 4.50 78.10 176.666670
9.00 9.004060 4.50 78.450 170.0
8.99 8.998190 4.50 78.80 163.333330
8.98 8.992330 4.50 79.150 160.833330
8.97 8.979680 4.50 79.50 158.333330
8.96 8.967040 4.50 78.766670 155.833330
8.95 8.95530 4.50 78.033330 153.333330
8.94 8.942660 4.50 77.30 164.444440
8.93 8.936790 4.50 77.6750 175.555560
8.92 8.930930 4.50 78.050 186.666670
8.91 8.918280 4.50 78.4250 173.333330
8.90 8.906550 4.50 78.80 160.0
8.89 8.893910 4.50 78.433330 146.666670
8.88 8.882170 4.50 78.066670 133.333330
8.87 8.87630 4.50 77.70 130.0
8.86 8.870430 4.50 78.150 126.666670
8.85 8.857790 4.50 78.60 123.333330
8.84 8.846050 4.50 79.050 120.0
8.83 8.833410 4.50 79.50 122.857140
8.82 8.827540 4.50 79.40 125.714290
8.81 8.821670 4.50 79.30 128.571430
8.80 8.809930 4.50 79.20 126.984130
8.79 8.797290 4.50 79.0750 125.396830
8.78 8.785550 4.50 78.950 123.809520
8.77 8.773810 4.50 78.8250 122.222220
8.76 8.767490 4.50 78.70 125.833330
8.75 8.761170 4.50 78.8750 129.444440
8.74 8.749440 4.50 79.050 133.055560
8.73 8.73770 4.50 79.2250 136.666670
8.72 8.725960 4.50 79.40 145.555560
8.71 8.713320 4.50 79.50 154.444440
8.70 8.707450 4.50 79.60 163.333330
8.69 8.701580 4.50 79.70 159.596770
8.68 8.689840 4.50 79.80 155.860220
8.67 8.67720 4.50 79.80 152.123660
8.66 8.665460 4.50 79.80 148.38710
8.65 8.652820 4.50 79.80 146.290320
8.64 8.646950 4.50 79.750 144.193550
8.63 8.641080 4.50 79.70 142.096770
8.62 8.629350 4.50 79.650 140.0
8.61 8.61670 4.50 79.60 142.222220
8.60 8.604970 4.50 79.80 144.444440
8.59 8.593230 4.50 80.0 146.666670
8.58 8.586910 4.50 80.20 160.833330
8.57 8.580590 4.50 80.2750 175.0
8.56 8.568850 4.50 80.350 189.166670
8.55 8.557110 4.50 80.4250 203.333330
8.54 8.544470 4.50 80.50 198.888890
8.53 8.532730 4.50 80.3250 194.444440
8.52 8.526860 4.50 80.150 190.0
8.51 8.520990 4.50 79.9750 178.333330
8.50 8.508350 4.50 79.80 166.666670
8.49 8.496610 4.466670 79.966670 155.0
8.48 8.483970 4.433330 80.133330 143.333330
8.47 8.47810 4.40 80.30 145.833330
8.46 8.472230 4.40 80.20 148.333330
8.45 8.459590 4.40 80.10 150.833330
8.44 8.447860 4.40 80.0 153.333330
8.43 8.436120 4.40 79.90 144.444440
8.42 8.423480 4.433330 80.466670 135.555560
8.41 8.417160 4.466670 81.033330 126.666670
8.40 8.410840 4.50 81.60 136.666670
8.39 8.39910 4.4750 80.9250 146.666670
8.38 8.387360 4.450 80.250 156.666670
8.37 8.374720 4.4250 79.5750 166.666670
8.36 8.362980 4.40 78.90 170.0
8.35 8.356660 4.40 79.30 173.333330
8.34 8.350340 4.40 79.70 176.666670
8.33 8.33860 4.40 80.10 170.0
8.32 8.325960 4.40 80.50 163.333330
8.31 8.314220 4.40 79.833330 156.666670
8.30 8.30790 4.40 79.166670 150.0
8.29 8.301580 4.40 78.50 162.50
8.28 8.289840 4.40 78.10 175.0
8.27 8.27720 4.40 77.70 187.50
8.26 8.264560 4.40 77.30 200.0
8.25 8.252820 4.40 76.90 183.333330
8.24 8.24650 4.3750 78.10 166.666670
8.23 8.240180 4.350 79.30 150.0
8.22 8.228440 4.3250 80.50 150.0
8.21 8.21580 4.30 81.70 150.0
8.20 8.204060 4.30 81.114290 150.0
8.19 8.197740 4.30 80.528570 150.0
8.18 8.191420 4.30 79.942860 160.0
8.17 8.179680 4.30 79.357140 170.0
8.16 8.167040 4.30 78.771430 180.0
8.15 8.15530 4.30 78.185710 190.0
8.14 8.142660 4.30 77.60 184.444440
8.13 8.136790 4.3250 78.10 178.888890
8.12 8.130930 4.350 78.60 173.333330
8.11 8.119190 4.3750 79.10 159.166670
8.10 8.106550 4.40 79.60 145.0
8.09 8.094810 4.40 78.70 130.833330
8.08 8.083070 4.40 77.80 116.666670
8.07 8.076750 4.40 76.90 121.666670
8.06 8.070430 4.40 77.1250 126.666670
8.05 8.058690 4.40 77.350 131.666670
8.04 8.046950 4.40 77.5750 136.666670
8.03 8.035210 4.40 77.80 155.555560
8.02 8.023480 4.366670 78.333330 174.444440
8.01 8.017160 4.333330 78.866670 193.333330
8.00 8.010840 4.30 79.40 187.741940
7.99 7.99910 4.3250 78.450 182.150540
7.98 7.986460 4.350 77.50 176.559140
7.97 7.974720 4.3750 76.550 170.967740
7.96 7.962980 4.40 75.60 155.645160
7.95 7.956660 4.3750 76.850 140.322580
7.94 7.950340 4.350 78.10 125.0
7.93 7.93860 4.3250 79.350 118.750
7.92 7.926860 4.30 80.60 112.50
7.91 7.914220 4.30 79.90 106.250
7.90 7.908350 4.30 79.20 100.0
7.89 7.902480 4.30 78.50 113.333330
7.88 7.889840 4.30 77.80 126.666670
7.87 7.87810 4.333330 76.966670 140.0
7.86 7.866370 4.366670 76.133330 153.333330
7.85 7.854630 4.40 75.30 148.888890
7.84 7.841990 4.3750 77.6250 144.444440
7.83 7.836120 4.350 79.950 140.0
7.82 7.830250 4.3250 82.2750 138.333330
7.81 7.818510 4.30 84.60 136.666670
7.80 7.805870 4.333330 82.166670 135.0
7.79 7.794130 4.366670 79.733330 133.333330
7.78 7.788260 4.40 77.30 130.0
7.77 7.782390 4.40 76.2750 126.666670
7.76 7.769750 4.40 75.250 123.333330
7.75 7.758010 4.40 74.2250 120.0
7.74 7.746280 4.40 73.20 122.222220
7.73 7.733630 4.40 74.150 124.444440
7.72 7.72190 4.40 75.10 126.666670
7.71 7.716030 4.40 76.050 130.833330
7.70 7.710160 4.40 77.0 135.0
7.69 7.698420 4.40 75.333330 139.166670
7.68 7.685780 4.40 73.666670 143.333330
7.67 7.674040 4.40 72.0 140.0
7.66 7.668170 4.40 71.7750 136.666670
7.65 7.66230 4.40 71.550 133.333330
7.64 7.649660 4.40 71.3250 145.833330
7.63 7.637920 4.40 71.10 158.333330
7.62 7.626190 4.40 73.20 170.833330
7.61 7.614450 4.40 75.30 183.333330
7.60 7.601810 4.40 77.40 169.642860
7.59 7.595940 4.40 76.3750 155.952380
7.58 7.590070 4.40 75.350 142.26190
7.57 7.578330 4.40 74.3250 128.571430
7.56 7.565690 4.40 73.30 122.380950
7.55 7.553950 4.40 73.4250 116.190480
7.54 7.548080 4.40 73.550 110.0
7.53 7.542210 4.40 73.6750 110.0
7.52 7.529570 4.40 73.80 110.0
7.51 7.517830 4.40 74.366670 110.0
7.50 7.505190 4.40 74.933330 110.0
7.49 7.493450 4.40 75.50 113.333330
7.48 7.487580 4.40 75.0750 116.666670
7.47 7.481720 4.40 74.650 120.0
7.46 7.469070 4.40 74.2250 123.333330
