~VERSION INFORMATION SECTION
VERS. 2.0 : CWLS LAS-VERSION 2.0
WRAP. NO : One line per depth step
~WELL INFORMATION SECTION
# MNEM.UNIT VALUE/NAME DESCRIPTION
#-------- -------------- ---------------------
STRT.Metres 16 : Start
STOP.Metres -1.79 : Stop
STEP.Metres -0.01 : Step
NULL.  -999.25 :NULL VALUE
DATE. 2025-13-11 : DATE
~CURVE INFORMATION SECTION
DEPTH.Metres : 0 Depth
Depth. : 1 Depth
Incline.Deg : 2 Incline
Azimuth.Deg : 3 Azimuth
GR.CPS : 4 GR
~PARAMETER INFORMATION SECTION
~OTHER
#-------------------------------------------------
#Produced By: GeoVista Logger - Version 7.1.107.0
Natural Gamma Sonde - 6447
Verticality Sonde - 6292
#-------------------------------------------------
~ASCII LOG DATA
# ...
13.92 13.931380 5.050 83.5750 182.50
13.91 13.918740 5.0 84.90 175.0
13.90 13.9070 5.033330 84.033330 167.50
13.89 13.894360 5.066670 83.166670 160.0
13.88 13.888490 5.10 82.30 157.777780
13.87 13.882620 5.1250 82.8750 155.555560
13.86 13.869980 5.150 83.450 153.333330
13.85 13.858240 5.1750 84.0250 141.666670
13.84 13.84650 5.20 84.60 130.0
13.83 13.833860 5.233330 84.733330 118.333330
13.82 13.827990 5.266670 84.866670 106.666670
13.81 13.822120 5.30 85.0 121.666670
13.80 13.809480 5.250 84.10 136.666670
13.79 13.797740 5.20 83.20 151.666670
13.78 13.7860 5.150 82.30 166.666670
13.77 13.774270 5.10 81.40 154.444440
13.76 13.767950 5.0750 81.5750 142.222220
13.75 13.761630 5.050 81.750 130.0
13.74 13.749890 5.0250 81.9250 131.666670
13.73 13.738150 5.0 82.10 133.333330
13.72 13.725510 5.033330 82.933330 135.0
13.71 13.712870 5.066670 83.766670 136.666670
13.70 13.7070 5.10 84.60 139.166670
13.69 13.701130 5.10 84.1750 141.666670
13.68 13.688490 5.10 83.750 144.166670
13.67 13.676750 5.10 83.3250 146.666670
13.66 13.665010 5.10 82.90 135.555560
13.65 13.652370 5.10 83.0 124.444440
13.64 13.64650 5.10 83.10 113.333330
13.63 13.640630 5.10 83.20 115.952380
13.62 13.627990 5.10 83.30 118.571430
13.61 13.616250 5.033330 84.40 121.190480
13.60 13.604510 4.966670 85.50 123.809520
13.59 13.591870 4.90 86.60 108.465610
13.58 13.5860 4.9250 85.350 93.121690
13.57 13.580140 4.950 84.10 77.777780
13.56 13.567490 4.9750 82.850 95.0
13.55 13.555760 5.0 81.60 112.222220
13.54 13.543120 5.0 81.550 129.444440
13.53 13.537250 5.0 81.50 146.666670
13.52 13.531380 5.0 81.450 154.354840
13.51 13.518740 5.0 81.40 162.043010
13.50 13.5070 5.033330 82.166670 169.731180
13.49 13.495260 5.066670 82.933330 177.419350
13.48 13.482620 5.10 83.70 160.501790
13.47 13.476750 5.0750 83.750 143.584230
13.46 13.470880 5.050 83.80 126.666670
13.45 13.458240 5.0250 83.850 140.0
13.44 13.44650 5.0 83.90 153.333330
13.43 13.433860 5.033330 83.60 166.666670
13.42 13.427990 5.066670 83.30 180.0
13.41 13.422120 5.10 83.0 173.333330
13.40 13.409480 5.10 83.2250 166.666670
13.39 13.397740 5.10 83.450 160.0
13.38 13.3860 5.10 83.6750 153.333330
13.37 13.373360 5.10 83.90 140.0
13.36 13.367490 5.0750 83.20 126.666670
13.35 13.361630 5.050 82.50 113.333330
13.34 13.349890 5.0250 81.80 120.0
13.33 13.337250 5.0 81.10 126.666670
13.32 13.325510 5.0 81.766670 133.333330
13.31 13.313770 5.0 82.433330 140.0
13.30 13.30790 5.0 83.10 141.666670
13.29 13.302030 5.0 82.80 143.333330
13.28 13.289390 5.0 82.50 145.0
13.27 13.277650 5.0 82.20 146.666670
13.26 13.265910 5.0 81.90 145.555560
13.25 13.253270 5.0 82.050 144.444440
13.24 13.24740 5.0 82.20 143.333330
13.23 13.241530 5.0 82.350 137.50
13.22 13.22980 5.0 82.50 131.666670
13.21 13.218060 5.0 82.933330 125.833330
13.20 13.205420 5.0 83.366670 120.0
13.19 13.193680 5.0 83.80 135.555560
13.18 13.187810 5.0 83.7750 151.111110
13.17 13.181940 5.0 83.750 166.666670
13.16 13.16930 5.0 83.7250 160.0
13.15 13.157560 5.0 83.70 153.333330
13.14 13.145820 5.0 83.6750 146.666670
13.13 13.133180 5.0 83.650 140.0
13.12 13.127310 5.0 83.6250 141.666670
13.11 13.121440 5.0 83.60 143.333330
13.10 13.109710 5.0 83.20 145.0
13.09 13.097970 5.0 82.80 146.666670
13.08 13.085330 5.0 82.40 145.396830
13.07 13.073590 4.9750 82.70 144.126980
13.06 13.067270 4.950 83.0 142.857140
13.05 13.060950 4.9250 83.30 132.142860
13.04 13.049210 4.90 83.60 121.428570
13.03 13.037470 4.933330 83.10 110.714290
13.02 13.024830 4.966670 82.60 100.0
13.01 13.013090 5.0 82.10 105.0
13.00 13.006770 5.0 82.1250 110.0
12.99 13.000450 5.0 82.150 115.0
12.98 12.988710 5.0 82.1750 120.0
12.97 12.976070 5.0 82.20 113.333330
12.96 12.964330 5.0 82.60 106.666670
12.95 12.958470 5.0 83.0 100.0
12.94 12.95260 5.0 83.40 121.666670
12.93 12.939950 5.0 83.4750 143.333330
12.92 12.928220 5.0 83.550 165.0
12.91 12.915580 5.0 83.6250 186.666670
12.90 12.903840 5.0 83.70 172.222220
12.89 12.897520 5.0 82.8750 157.777780
12.88 12.89120 5.0 82.050 143.333330
12.87 12.879460 5.0 81.2250 145.833330
12.86 12.867720 5.0 80.40 148.333330
12.85 12.855080 5.0 80.066670 150.833330
12.84 12.843340 5.0 79.733330 153.333330
12.83 12.837020 5.0 79.40 154.516130
12.82 12.83070 5.0 79.850 155.698920
12.81 12.818960 5.0 80.30 156.881720
12.80 12.806320 5.0 80.750 158.064520
12.79 12.794580 5.0 81.20 150.93190
12.78 12.788260 5.0 81.550 143.799280
12.77 12.781940 5.0 81.90 136.666670
12.76 12.76930 5.0 82.250 136.666670
12.75 12.757560 5.0 82.60 136.666670
12.74 12.744920 5.0 81.30 136.666670
12.73 12.733180 5.0 80.0 136.666670
12.72 12.726860 5.0 78.70 140.0
12.71 12.720540 5.0 78.40 143.333330
12.70 12.70880 5.0 78.10 146.666670
12.69 12.697070 5.0 77.80 150.0
12.68 12.684420 5.0 77.50 154.444440
12.67 12.672690 5.0 77.90 158.888890
12.66 12.666370 5.0 78.30 163.333330
12.65 12.660050 5.0 78.70 163.333330
12.64 12.648310 5.0 78.9250 163.333330
12.63 12.635670 5.0 79.150 163.333330
12.62 12.623930 5.0 79.3750 163.333330
12.61 12.617610 5.0 79.60 165.833330
12.60 12.611290 5.0 79.30 168.333330
12.59 12.599550 5.0 79.0 170.833330
12.58 12.586910 5.0 78.70 173.333330
12.57 12.574270 5.0 78.40 188.888890
12.56 12.562530 5.033330 78.40 204.444440
12.55 12.556660 5.066670 78.40 220.0
12.54 12.550790 5.10 78.40 199.090910
12.53 12.538150 5.10 77.950 178.181820
12.52 12.525510 5.10 77.50 157.272730
12.51 12.513770 5.10 77.050 136.363640
12.50 12.50790 5.10 76.60 150.558210
12.49 12.502030 5.1250 78.050 164.752790
12.48 12.489390 5.150 79.50 178.947370
12.47 12.477650 5.1750 80.950 195.043860
12.46 12.465010 5.20 82.40 211.140350
12.45 12.453270 5.066670 82.166670 227.236840
12.44 12.44740 4.933330 81.933330 243.333330
12.43 12.441530 4.80 81.70 235.0
12.42 12.428890 4.80 81.1250 226.666670
12.41 12.417160 4.80 80.550 218.333330
12.40 12.405420 4.80 79.9750 210.0
12.39 12.392780 4.80 79.40 208.888890
12.38 12.386910 4.8250 79.9250 207.777780
12.37 12.381040 4.850 80.450 206.666670
12.36 12.36930 4.8750 80.9750 206.666670
12.35 12.357560 4.90 81.50 206.666670
12.34 12.344920 4.90 82.20 206.666670
12.33 12.333180 4.90 82.90 206.666670
12.32 12.327310 4.90 83.60 216.666670
12.31 12.321440 4.90 83.0 226.666670
12.30 12.309710 4.90 82.40 236.666670
12.29 12.297970 4.90 81.80 246.666670
12.28 12.285330 4.90 81.20 253.333330
12.27 12.273590 4.9250 80.9750 260.0
12.26 12.261850 4.950 80.750 266.666670
12.25 12.255980 4.9750 80.5250 257.50
12.24 12.250110 5.0 80.30 248.333330
12.23 12.237470 5.0 80.366670 239.166670
12.22 12.225730 5.0 80.433330 230.0
12.21 12.2140 5.0 80.50 207.777780
12.20 12.207670 5.0 81.1750 185.555560
12.19 12.201350 5.0 81.850 163.333330
12.18 12.189620 5.0 82.5250 155.0
12.17 12.177880 5.0 83.20 146.666670
12.16 12.166140 5.0 83.150 138.333330
12.15 12.15350 5.0 83.10 130.0
12.14 12.141760 5.0 83.050 129.758060
12.13 12.135890 5.0 83.0 129.516130
12.12 12.130020 5.0 82.333330 129.274190
12.11 12.117380 5.0 81.666670 129.032260
12.10 12.105640 5.0 81.0 153.799280
12.09 12.093910 5.0 80.8250 178.566310
12.08 12.087580 5.0 80.650 203.333330
12.07 12.081260 5.0 80.4750 195.0
12.06 12.069530 5.0 80.30 186.666670
12.05 12.057790 5.0 80.066670 178.333330
12.04 12.046050 5.0 79.833330 170.0
12.03 12.033410 5.0 79.60 165.0
12.02 12.027540 5.0 79.5250 160.0
12.01 12.021670 5.0 79.450 155.0
12.00 12.009030 5.0 79.3750 150.0
11.99 11.997290 5.0 79.30 162.222220
11.98 11.985550 5.0 79.366670 174.444440
11.97 11.972910 5.0 79.433330 186.666670
11.96 11.967040 5.0 79.50 179.166670
11.95 11.961170 5.0 79.350 171.666670
11.94 11.948530 5.0 79.20 164.166670
11.93 11.936790 5.0 79.050 156.666670
11.92 11.924150 5.0 78.90 165.833330
11.91 11.918280 5.0 79.1250 175.0
11.90 11.912420 5.0 79.350 184.166670
11.89 11.899770 5.0 79.5750 193.333330
11.88 11.887130 5.0 79.80 196.666670
11.87 11.87540 5.0 79.066670 200.0
11.86 11.862750 5.0 78.333330 203.333330
11.85 11.856880 5.0 77.60 197.50
11.84 11.851020 5.0250 77.6750 191.666670
11.83 11.838370 5.050 77.750 185.833330
11.82 11.826640 5.0750 77.8250 180.0
11.81 11.8140 5.10 77.90 167.777780
