~VERSION INFORMATION SECTION
VERS. 2.0 : CWLS LAS-VERSION 2.0
WRAP. NO : One line per depth step
~WELL INFORMATION SECTION
# MNEM.UNIT VALUE/NAME DESCRIPTION
#-------- -------------- ---------------------
STRT.Metres 16 : Start
STOP.Metres -1.79 : Stop
STEP.Metres -0.01 : Step
NULL.  -999.25 :NULL VALUE
DATE. 2025-13-11 : DATE
~CURVE INFORMATION SECTION
DEPTH.Metres : 0 Depth
Depth. : 1 Depth
Incline.Deg : 2 Incline
Azimuth.Deg : 3 Azimuth
GR.CPS : 4 GR
~PARAMETER INFORMATION SECTION
~OTHER
#-------------------------------------------------
#Produced By: GeoVista Logger - Version 7.1.107.0
Natural Gamma Sonde - 6447
Verticality Sonde - 6292
#-------------------------------------------------
~ASCII LOG DATA
# ...
11.80 11.807670 5.10 78.0750 155.555560
11.79 11.801350 5.10 78.250 143.333330
11.78 11.789620 5.10 78.4250 142.50
11.77 11.777880 5.10 78.60 141.666670
11.76 11.765240 5.066670 78.60 140.833330
11.75 11.75260 5.033330 78.60 140.0
11.74 11.746730 5.0 78.60 147.50
11.73 11.740860 5.050 78.250 155.0
11.72 11.728220 5.10 77.90 162.50
11.71 11.716480 5.150 77.550 170.0
11.70 11.703840 5.20 77.20 166.666670
11.69 11.697970 5.166670 76.766670 163.333330
11.68 11.69210 5.133330 76.333330 160.0
11.67 11.679460 5.10 75.90 153.333330
11.66 11.666820 5.0750 76.3750 146.666670
11.65 11.655080 5.050 76.850 140.0
11.64 11.642440 5.0250 77.3250 133.333330
11.63 11.636570 5.0 77.80 142.50
11.62 11.63070 5.0250 78.5250 151.666670
11.61 11.618060 5.050 79.250 160.833330
11.60 11.606320 5.0750 79.9750 170.0
11.59 11.593680 5.10 80.70 150.0
11.58 11.587810 5.0 79.70 130.0
11.57 11.581940 4.90 78.70 110.0
11.56 11.56930 4.80 77.70 119.166670
11.55 11.557560 4.8250 77.40 128.333330
11.54 11.544920 4.850 77.10 137.50
11.53 11.533180 4.8750 76.80 146.666670
11.52 11.527310 4.90 76.50 146.666670
11.51 11.521440 4.9250 77.150 146.666670
11.50 11.50880 4.950 77.80 146.666670
11.49 11.497070 4.9750 78.450 146.666670
11.48 11.485330 5.0 79.10 148.888890
11.47 11.472690 5.0 79.933330 151.111110
11.46 11.466820 5.0 80.766670 153.333330
11.45 11.460950 5.0 81.60 155.322580
11.44 11.449210 5.0 80.70 157.311830
11.43 11.437470 5.0 79.80 159.301080
11.42 11.424830 5.0 78.90 161.290320
11.41 11.413090 5.0 78.0 157.526880
11.40 11.406770 5.0 77.80 153.763440
11.39 11.400450 5.0 77.60 150.0
11.38 11.388710 5.0 77.40 140.0
11.37 11.376980 5.0 77.20 130.0
11.36 11.364330 4.985710 77.771430 120.0
11.35 11.35260 4.971430 78.342860 110.0
11.34 11.346730 4.957140 78.914290 113.333330
11.33 11.340860 4.942860 79.485710 116.666670
11.32 11.329120 4.928570 80.057140 120.0
11.31 11.316480 4.914290 80.628570 120.0
11.30 11.304740 4.90 81.20 120.0
11.29 11.2930 4.90 80.5250 120.0
11.28 11.286680 4.90 79.850 120.0
11.27 11.280360 4.90 79.1750 125.0
11.26 11.268620 4.90 78.50 130.0
11.25 11.256880 4.90 78.866670 135.0
11.24 11.245150 4.90 79.233330 140.0
11.23 11.232510 4.90 79.60 131.111110
11.22 11.226640 4.90 80.20 122.222220
11.21 11.220770 4.90 80.80 113.333330
11.20 11.209030 4.90 81.40 122.50
11.19 11.196390 4.90 82.0 131.666670
11.18 11.184650 4.8750 81.950 140.833330
11.17 11.172910 4.850 81.90 150.0
11.16 11.166590 4.8250 81.850 145.833330
11.15 11.160270 4.80 81.80 141.666670
11.14 11.148530 4.833330 80.933330 137.50
11.13 11.136790 4.866670 80.066670 133.333330
11.12 11.124150 4.90 79.20 133.333330
11.11 11.112420 4.8750 79.1750 133.333330
11.10 11.106550 4.850 79.150 133.333330
11.09 11.100680 4.8250 79.1250 138.333330
11.08 11.088040 4.80 79.10 143.333330
11.07 11.07630 4.833330 80.933330 148.333330
11.06 11.064560 4.866670 82.766670 153.333330
11.05 11.051920 4.90 84.60 155.555560
11.04 11.046050 4.90 83.5250 157.777780
11.03 11.040180 4.90 82.450 160.0
11.02 11.027540 4.90 81.3750 161.666670
11.01 11.01580 4.90 80.30 163.333330
11.00 11.003160 4.8750 79.9250 165.0
10.99 10.997290 4.850 79.550 166.666670
10.98 10.991420 4.8250 79.1750 157.50
10.97 10.978780 4.80 78.80 148.333330
10.96 10.967040 4.80 80.833330 139.166670
10.95 10.95440 4.80 82.866670 130.0
10.94 10.942660 4.80 84.90 131.111110
10.93 10.936340 4.80 83.650 132.222220
10.92 10.930020 4.80 82.40 133.333330
10.91 10.918280 4.80 81.150 133.333330
10.90 10.905640 4.80 79.90 133.333330
10.89 10.893910 4.766670 79.266670 133.333330
10.88 10.888040 4.733330 78.633330 133.333330
10.87 10.882170 4.70 78.0 136.666670
10.86 10.869530 4.70 79.40 140.0
10.85 10.857790 4.70 80.80 143.333330
10.84 10.845150 4.70 82.20 146.666670
10.83 10.833410 4.70 83.60 148.333330
10.82 10.827090 4.70 84.3750 150.0
10.81 10.820770 4.70 85.150 151.666670
10.80 10.808130 4.70 85.9250 153.333330
10.79 10.796390 4.70 86.70 144.444440
10.78 10.783750 4.666670 83.166670 135.555560
10.77 10.777430 4.633330 79.633330 126.666670
10.76 10.771110 4.60 76.10 136.129030
10.75 10.759370 4.5750 77.350 145.59140
10.74 10.746730 4.550 78.60 155.053760
10.73 10.734990 4.5250 79.850 164.516130
10.72 10.722350 4.50 81.10 158.38710
10.71 10.716480 4.550 81.3250 152.258060
10.70 10.710610 4.60 81.550 146.129030
10.69 10.697970 4.650 81.7750 140.0
10.68 10.686230 4.70 82.0 138.333330
10.67 10.673590 4.733330 80.666670 136.666670
10.66 10.667270 4.766670 79.333330 135.0
10.65 10.660950 4.80 78.0 137.916670
10.64 10.649210 4.80 79.050 140.833330
10.63 10.637470 4.80 80.10 143.750
10.62 10.624830 4.80 81.150 146.666670
10.61 10.613090 4.80 82.20 147.777780
10.60 10.606770 4.80 82.30 148.888890
10.59 10.600450 4.80 82.40 150.0
10.58 10.588710 4.80 82.50 150.0
10.57 10.576980 4.80 82.60 150.0
10.56 10.565240 4.80 81.60 150.0
10.55 10.55260 4.80 80.60 150.0
10.54 10.546730 4.80 79.60 140.0
10.53 10.540860 4.80 79.650 130.0
10.52 10.528220 4.80 79.70 120.0
10.51 10.516480 4.80 79.750 110.0
10.50 10.503840 4.80 79.80 117.777780
10.49 10.497520 4.80 79.0 125.555560
10.48 10.49120 4.80 78.20 133.333330
10.47 10.479460 4.80 77.40 131.666670
10.46 10.467720 4.80 76.60 130.0
10.45 10.455080 4.80 77.333330 128.333330
10.44 10.443340 4.80 78.066670 126.666670
10.43 10.437470 4.80 78.80 133.333330
10.42 10.43160 4.80 78.70 140.0
10.41 10.418960 4.80 78.60 146.666670
10.40 10.407220 4.80 78.50 143.333330
10.39 10.395490 4.80 78.40 140.0
10.38 10.382840 4.80 78.2250 136.666670
10.37 10.376980 4.80 78.050 133.333330
10.36 10.371110 4.80 77.8750 134.166670
10.35 10.359370 4.80 77.70 135.0
10.34 10.346730 4.766670 77.966670 135.833330
10.33 10.334990 4.733330 78.233330 136.666670
10.32 10.323250 4.70 78.50 135.555560
10.31 10.316930 4.70 78.350 134.444440
10.30 10.310610 4.70 78.20 133.333330
10.29 10.298870 4.70 78.050 126.666670
10.28 10.287130 4.70 77.90 120.0
10.27 10.274490 4.733330 78.166670 113.333330
10.26 10.262750 4.766670 78.433330 106.666670
10.25 10.256430 4.80 78.70 127.777780
10.24 10.250110 4.7750 78.450 148.888890
10.23 10.238370 4.750 78.20 170.0
10.22 10.226640 4.7250 77.950 164.166670
10.21 10.2140 4.70 77.70 158.333330
10.20 10.202260 4.7250 77.0750 152.50
10.19 10.196390 4.750 76.450 146.666670
10.18 10.190520 4.7750 75.8250 145.833330
10.17 10.177880 4.80 75.20 145.0
10.16 10.166140 4.866670 76.266670 144.166670
10.15 10.15350 4.933330 77.333330 143.333330
10.14 10.141760 5.0 78.40 136.666670
10.13 10.135890 4.950 78.5750 130.0
10.12 10.130020 4.90 78.750 123.333330
10.11 10.117380 4.850 78.9250 130.0
10.10 10.105640 4.80 79.10 136.666670
10.09 10.0930 4.7750 78.550 143.333330
10.08 10.087130 4.750 78.0 150.0
10.07 10.081260 4.7250 77.450 145.564520
10.06 10.068620 4.70 76.90 141.129030
10.05 10.056880 4.733330 77.0 136.693550
10.04 10.044240 4.766670 77.10 132.258060
10.03 10.032510 4.80 77.20 139.283150
10.02 10.026640 4.7750 77.5250 146.308240
10.01 10.020770 4.750 77.850 153.333330
10.00 10.008130 4.7250 78.1750 148.333330
9.99 9.996390 4.70 78.50 143.333330
9.98 9.983750 4.733330 79.066670 138.333330
9.97 9.977880 4.766670 79.633330 133.333330
9.96 9.972010 4.80 80.20 141.666670
9.95 9.959370 4.80 79.6750 150.0
9.94 9.947630 4.80 79.150 158.333330
9.93 9.934990 4.80 78.6250 166.666670
9.92 9.923250 4.80 78.10 172.777780
9.91 9.916930 4.7750 78.10 178.888890
9.90 9.910610 4.750 78.10 185.0
9.89 9.898870 4.7250 78.10 186.250
9.88 9.886230 4.70 78.10 187.50
9.87 9.874490 4.70 78.333330 188.750
9.86 9.861850 4.70 78.566670 190.0
9.85 9.855980 4.70 78.80 178.333330
9.84 9.850110 4.70 79.3750 166.666670
9.83 9.837470 4.70 79.950 155.0
9.82 9.825730 4.70 80.5250 143.333330
9.81 9.813090 4.70 81.10 156.666670
9.80 9.807220 4.6750 80.90 170.0
9.79 9.801350 4.650 80.70 183.333330
9.78 9.789620 4.6250 80.50 181.666670
9.77 9.776980 4.60 80.30 180.0
9.76 9.765240 4.60 79.40 178.333330
9.75 9.75260 4.60 78.50 176.666670
9.74 9.746730 4.60 77.60 177.50
9.73 9.740860 4.60 78.050 178.333330
9.72 9.729120 4.60 78.50 179.166670
9.71 9.716480 4.60 78.950 180.0
9.70 9.704740 4.60 79.40 167.777780
