~VERSION INFORMATION SECTION
VERS. 2.0 : CWLS LAS-VERSION 2.0
WRAP. NO : One line per depth step
~WELL INFORMATION SECTION
# MNEM.UNIT VALUE/NAME DESCRIPTION
#-------- -------------- ---------------------
STRT.Metres 16 : Start
STOP.Metres -1.79 : Stop
STEP.Metres -0.01 : Step
NULL.  -999.25 :NULL VALUE
DATE. 2025-13-11 : DATE
~CURVE INFORMATION SECTION
DEPTH.Metres : 0 Depth
Depth. : 1 Depth
Incline.Deg : 2 Incline
Azimuth.Deg : 3 Azimuth
GR.CPS : 4 GR
~PARAMETER INFORMATION SECTION
~OTHER
#-------------------------------------------------
#Produced By: GeoVista Logger - Version 7.1.107.0
Natural Gamma Sonde - 6447
Verticality Sonde - 6292
#-------------------------------------------------
~ASCII LOG DATA
# ...
7.45 7.457340 4.40 73.80 126.666670
7.44 7.44470 4.40 73.60 130.0
7.43 7.432960 4.40 73.40 133.333330
7.42 7.426640 4.40 73.20 137.50
7.41 7.420320 4.40 73.50 141.666670
7.40 7.408580 4.40 73.80 145.833330
7.39 7.395940 4.40 74.10 150.0
7.38 7.38330 4.40 74.40 156.666670
7.37 7.376980 4.40 74.4250 163.333330
7.36 7.370650 4.40 74.450 170.0
7.35 7.358920 4.40 74.4750 176.666670
7.34 7.346280 4.40 74.50 161.111110
7.33 7.334540 4.433330 74.266670 145.555560
7.32 7.32190 4.466670 74.033330 130.0
7.31 7.316030 4.50 73.80 131.370970
7.30 7.310160 4.4750 73.8250 132.741940
7.29 7.297520 4.450 73.850 134.11290
7.28 7.285780 4.4250 73.8750 135.483870
7.27 7.273140 4.40 73.90 145.779570
7.26 7.267270 4.450 73.70 156.075270
7.25 7.26140 4.50 73.50 166.370970
7.24 7.248760 4.550 73.30 176.666670
7.23 7.237020 4.60 73.10 165.555560
7.22 7.224380 4.533330 73.40 154.444440
7.21 7.218060 4.466670 73.70 143.333330
7.20 7.211740 4.40 74.0 135.0
7.19 7.20 4.450 74.10 126.666670
7.18 7.187360 4.50 74.20 118.333330
7.17 7.175620 4.550 74.30 110.0
7.16 7.162980 4.60 74.40 108.888890
7.15 7.156660 4.60 73.333330 107.777780
7.14 7.150340 4.60 72.266670 106.666670
7.13 7.13860 4.60 71.20 113.333330
7.12 7.125960 4.60 71.850 120.0
7.11 7.114220 4.60 72.50 126.666670
7.10 7.10790 4.60 73.150 133.333330
7.09 7.101580 4.60 73.80 134.166670
7.08 7.088940 4.60 73.50 135.0
7.07 7.07720 4.60 73.20 135.833330
7.06 7.064560 4.60 72.90 136.666670
7.05 7.052820 4.60 72.60 140.0
7.04 7.046950 4.60 72.733330 143.333330
7.03 7.041080 4.60 72.866670 146.666670
7.02 7.029350 4.60 73.0 142.50
7.01 7.01670 4.60 73.0750 138.333330
7.00 7.004970 4.60 73.150 134.166670
6.99 6.993230 4.60 73.2250 130.0
6.98 6.987360 4.60 73.30 147.777780
6.97 6.981490 4.60 73.350 165.555560
6.96 6.969750 4.60 73.40 183.333330
6.95 6.958010 4.60 73.450 166.666670
6.94 6.946280 4.60 73.50 150.0
6.93 6.934540 4.60 73.566670 133.333330
6.92 6.92280 4.60 73.633330 116.666670
6.91 6.916930 4.60 73.70 122.50
6.90 6.911060 4.60 73.750 128.333330
6.89 6.899320 4.60 73.80 134.166670
6.88 6.886680 4.60 73.850 140.0
6.87 6.874940 4.60 73.90 145.555560
6.86 6.863210 4.60 73.8250 151.111110
6.85 6.856880 4.60 73.750 156.666670
6.84 6.850560 4.60 73.6750 153.333330
6.83 6.838830 4.60 73.60 150.0
6.82 6.827090 4.60 73.6750 146.666670
6.81 6.815350 4.60 73.750 143.333330
6.80 6.802710 4.60 73.8250 154.444440
6.79 6.796840 4.60 73.90 165.555560
6.78 6.790970 4.60 73.50 176.666670
6.77 6.779230 4.60 73.10 175.0
6.76 6.766590 4.60 72.70 173.333330
6.75 6.754850 4.60 73.2250 171.666670
6.74 6.743120 4.60 73.750 170.0
6.73 6.736790 4.60 74.2750 163.333330
6.72 6.730470 4.60 74.80 156.666670
6.71 6.718740 4.60 74.30 150.0
6.70 6.7070 4.60 73.80 143.333330
6.69 6.694360 4.60 73.30 144.444440
6.68 6.682620 4.6250 73.20 145.555560
6.67 6.676750 4.650 73.10 146.666670
6.66 6.670880 4.6750 73.0 137.50
6.65 6.658240 4.70 72.90 128.333330
6.64 6.64650 4.666670 72.966670 119.166670
6.63 6.634760 4.633330 73.033330 110.0
6.62 6.622120 4.60 73.10 107.50
6.61 6.616250 4.60 73.2250 105.0
6.60 6.610380 4.60 73.350 102.50
6.59 6.598650 4.60 73.4750 100.0
6.58 6.5860 4.60 73.60 120.0
6.57 6.574270 4.60 73.650 140.0
6.56 6.56840 4.60 73.70 160.0
6.55 6.562530 4.60 73.750 169.166670
6.54 6.549890 4.60 73.80 178.333330
6.53 6.538150 4.566670 73.566670 187.50
6.52 6.525510 4.533330 73.333330 196.666670
6.51 6.513770 4.50 73.10 191.666670
6.50 6.50790 4.50 73.20 186.666670
6.49 6.502030 4.50 73.30 181.666670
6.48 6.489390 4.50 73.40 176.666670
6.47 6.476750 4.50 73.50 157.777780
6.46 6.465010 4.50 73.666670 138.888890
6.45 6.452370 4.50 73.833330 120.0
6.44 6.44650 4.50 74.0 130.0
6.43 6.440630 4.50 73.20 140.0
6.42 6.428890 4.50 72.40 150.0
6.41 6.416250 4.50 71.60 160.0
6.40 6.404510 4.50 70.80 165.833330
6.39 6.391870 4.4750 72.3250 171.666670
6.38 6.3860 4.450 73.850 177.50
6.37 6.380140 4.4250 75.3750 183.333330
6.36 6.367490 4.40 76.90 176.666670
6.35 6.355760 4.40 75.633330 170.0
6.34 6.343120 4.40 74.366670 163.333330
6.33 6.337250 4.40 73.10 168.333330
6.32 6.331380 4.40 73.750 173.333330
6.31 6.318740 4.40 74.40 178.333330
6.30 6.3070 4.40 75.050 183.333330
6.29 6.294360 4.40 75.70 188.333330
6.28 6.288490 4.40 75.20 193.333330
6.27 6.282620 4.40 74.70 198.333330
6.26 6.269980 4.40 74.20 203.333330
6.25 6.257340 4.40 74.10 194.444440
6.24 6.24560 4.40 74.0 185.555560
6.23 6.232960 4.40 73.90 176.666670
6.22 6.226640 4.40 73.80 181.666670
6.21 6.220320 4.40 73.950 186.666670
6.20 6.208580 4.40 74.10 191.666670
6.19 6.195940 4.40 74.250 196.666670
6.18 6.18330 4.40 74.40 188.333330
6.17 6.176980 4.40 73.40 180.0
6.16 6.170650 4.40 72.40 171.666670
6.15 6.158010 4.40 71.40 163.333330
6.14 6.145370 4.3750 71.90 166.666670
6.13 6.132730 4.350 72.40 170.0
6.12 6.126860 4.3250 72.90 173.333330
6.11 6.120990 4.30 73.40 163.333330
6.10 6.108350 4.30 73.350 153.333330
6.09 6.095710 4.30 73.30 143.333330
6.08 6.083070 4.30 73.250 133.333330
6.07 6.07720 4.30 73.20 133.333330
6.06 6.071330 4.30 72.90 133.333330
6.05 6.058690 4.30 72.60 133.333330
6.04 6.046050 4.30 72.30 137.50
6.03 6.034310 4.30 72.4750 141.666670
6.02 6.027990 4.30 72.650 145.833330
6.01 6.021670 4.30 72.8250 150.0
6.00 6.009030 4.30 73.0 156.666670
5.99 5.997290 4.30 72.950 163.333330
5.98 5.984650 4.30 72.90 170.0
5.97 5.978330 4.30 72.850 170.681820
5.96 5.972010 4.30 72.80 171.363640
5.95 5.959370 4.266670 73.0 172.045450
5.94 5.947630 4.233330 73.20 172.727270
5.93 5.934990 4.20 73.40 170.795450
5.92 5.923250 4.20 72.4250 168.863640
5.91 5.916930 4.20 71.450 166.931820
5.90 5.910610 4.20 70.4750 165.0
5.89 5.897970 4.20 69.50 175.555560
5.88 5.886230 4.20 70.8750 186.111110
5.87 5.873590 4.20 72.250 196.666670
5.86 5.861850 4.20 73.6250 188.333330
5.85 5.855980 4.20 75.0 180.0
5.84 5.850110 4.1750 74.2750 171.666670
5.83 5.837470 4.150 73.550 163.333330
5.82 5.825730 4.1250 72.8250 154.444440
5.81 5.813090 4.10 72.10 145.555560
5.80 5.807220 4.10 71.166670 136.666670
5.79 5.801350 4.10 70.233330 139.166670
5.78 5.789620 4.10 69.30 141.666670
5.77 5.776980 4.10 70.10 144.166670
5.76 5.765240 4.10 70.90 146.666670
5.75 5.75260 4.10 71.70 154.166670
5.74 5.746730 4.10 72.50 161.666670
5.73 5.740860 4.0750 72.150 169.166670
5.72 5.728220 4.050 71.80 176.666670
5.71 5.716480 4.0250 71.450 174.444440
5.70 5.703840 4.0 71.10 172.222220
5.69 5.697520 4.0250 70.7250 170.0
5.68 5.69120 4.050 70.350 163.333330
5.67 5.679460 4.0750 69.9750 156.666670
5.66 5.666820 4.10 69.60 150.0
5.65 5.654180 4.066670 69.533330 143.333330
5.64 5.648310 4.033330 69.466670 150.0
5.63 5.642440 4.0 69.40 156.666670
5.62 5.62980 3.9750 70.250 163.333330
5.61 5.617160 3.950 71.10 170.0
5.60 5.604510 3.9250 71.950 167.777780
5.59 5.598190 3.90 72.80 165.555560
5.58 5.591870 3.90 70.80 163.333330
5.57 5.579230 3.90 68.80 158.333330
5.56 5.567490 3.90 66.80 153.333330
5.55 5.554850 3.9250 66.950 148.333330
5.54 5.548530 3.950 67.10 143.333330
5.53 5.542210 3.9750 67.250 155.555560
5.52 5.529570 4.0 67.40 167.777780
5.51 5.517830 3.950 69.40 180.0
5.50 5.505190 3.90 71.40 180.0
5.49 5.498870 3.850 73.40 180.0
5.48 5.492550 3.80 75.40 180.0
5.47 5.479910 3.833330 74.066670 180.0
5.46 5.468170 3.866670 72.733330 183.333330
5.45 5.455530 3.90 71.40 186.666670
5.44 5.442890 3.90 69.6750 190.0
5.43 5.436570 3.90 67.950 193.333330
5.42 5.430250 3.90 66.2250 193.333330
5.41 5.418510 3.90 64.50 193.333330
5.40 5.405870 3.90 67.050 193.333330
5.39 5.393230 3.90 69.60 179.166670
5.38 5.386910 3.90 72.150 165.0
5.37 5.380590 3.90 74.70 150.833330
5.36 5.368850 3.866670 71.266670 136.666670
5.35 5.356210 3.833330 67.833330 152.50
5.34 5.343570 3.80 64.40 168.333330
5.33 5.337250 3.8250 65.0250 184.166670
5.32 5.330930 3.850 65.650 200.0
5.31 5.319190 3.8750 66.2750 194.047620
5.30 5.306550 3.90 66.90 188.095240
5.29 5.293910 3.8750 67.050 182.142860
5.28 5.287580 3.850 67.20 176.190480
5.27 5.281260 3.8250 67.350 170.793650
5.26 5.268620 3.80 67.50 165.396830
5.25 5.256880 3.80 67.0 160.0
5.24 5.244240 3.80 66.50 160.0
5.23 5.237920 3.80 66.0 160.0
