~VERSION INFORMATION SECTION
VERS. 2.0 : CWLS LAS-VERSION 2.0
WRAP. NO : One line per depth step
~WELL INFORMATION SECTION
# MNEM.UNIT VALUE/NAME DESCRIPTION
#-------- -------------- ---------------------
STRT.Metres 16 : Start
STOP.Metres -1.79 : Stop
STEP.Metres -0.01 : Step
NULL.  -999.25 :NULL VALUE
DATE. 2025-13-11 : DATE
~CURVE INFORMATION SECTION
DEPTH.Metres : 0 Depth
Depth. : 1 Depth
Incline.Deg : 2 Incline
Azimuth.Deg : 3 Azimuth
GR.CPS : 4 GR
~PARAMETER INFORMATION SECTION
~OTHER
#-------------------------------------------------
#Produced By: GeoVista Logger - Version 7.1.107.0
Natural Gamma Sonde - 6447
Verticality Sonde - 6292
#-------------------------------------------------
~ASCII LOG DATA
# ...
0.80 0.806320 0.550 187.850 150.0
0.79 0.793680 0.5250 113.9250 150.0
0.78 0.787360 0.50 40.0 150.0
0.77 0.781040 0.550 40.1750 155.0
0.76 0.76840 0.60 40.350 160.0
0.75 0.755760 0.650 40.5250 165.0
0.74 0.743120 0.70 40.70 170.0
0.73 0.736790 0.70 38.70 165.833330
0.72 0.730470 0.70 36.70 161.666670
0.71 0.717830 0.70 34.70 157.50
0.70 0.705190 0.70 32.70 153.333330
0.69 0.698870 0.70 33.0 160.833330
0.68 0.692550 0.70 33.30 168.333330
0.67 0.679910 0.70 33.60 175.833330
0.66 0.667270 0.70 33.90 183.333330
0.65 0.655530 0.70 33.033330 175.555560
0.64 0.642890 0.70 32.166670 167.777780
0.63 0.636570 0.70 31.30 160.0
0.62 0.630250 0.70 30.6750 152.50
0.61 0.617610 0.70 30.050 145.0
0.60 0.604970 0.70 29.4250 137.50
0.59 0.592330 0.70 28.80 130.0
0.58 0.586460 0.6250 35.0750 134.166670
0.57 0.580590 0.550 41.350 138.333330
0.56 0.567950 0.4750 47.6250 142.50
0.55 0.55530 0.40 53.90 146.666670
0.54 0.542660 0.450 44.150 147.50
0.53 0.536340 0.50 34.40 148.333330
0.52 0.530020 0.550 24.650 149.166670
0.51 0.517380 0.60 14.90 150.0
0.50 0.504740 0.4750 101.1250 161.666670
0.49 0.498420 0.350 187.350 173.333330
0.48 0.49210 0.2250 273.5750 185.0
0.47 0.479460 0.10 359.80 196.666670
0.46 0.466820 0.10 260.233330 184.444440
0.45 0.454180 0.10 160.666670 172.222220
0.44 0.447860 0.10 61.10 160.0
0.43 0.441530 0.150 58.0 152.50
0.42 0.428890 0.20 54.90 145.0
0.41 0.416250 0.250 51.80 137.50
0.40 0.403610 0.30 48.70 130.0
0.39 0.397290 0.350 113.650 130.0
0.38 0.390970 0.40 178.60 130.0
0.37 0.378330 0.450 243.550 130.0
0.36 0.365690 0.50 308.50 130.0
0.35 0.353050 0.50 246.6750 116.944440
0.34 0.346730 0.50 184.850 103.888890
0.33 0.340410 0.50 123.0250 90.833330
0.32 0.327770 0.50 61.20 77.777780
0.31 0.315120 0.366670 83.933330 88.410990
0.30 0.30880 0.233330 106.666670 99.044210
0.29 0.302480 0.10 129.40 109.677420
0.28 0.289840 0.10 119.650 127.258060
0.27 0.27630 0.10 109.90 144.838710
0.26 0.263660 0.10 100.150 162.419350
0.25 0.257790 0.10 90.40 180.0
0.24 0.251920 0.150 121.60 168.750
0.23 0.239280 0.20 152.80 157.50
0.22 0.225730 0.250 184.0 146.250
0.21 0.2140 0.30 215.20 135.0
0.20 0.207670 0.3750 239.0750 132.083330
0.19 0.201350 0.450 262.950 129.166670
0.18 0.187810 0.5250 286.8250 126.250
0.17 0.175170 0.60 310.70 123.333330
0.16 0.168850 0.650 300.3750 121.111110
0.15 0.162530 0.70 290.050 118.888890
0.14 0.149890 0.750 279.7250 116.666670
0.13 0.137250 0.80 269.40 125.0
0.12 0.12460 0.633330 279.033330 133.333330
0.11 0.118280 0.466670 288.666670 141.666670
0.10 0.111960 0.30 298.30 150.0
0.09 0.099320 0.3250 290.9750 145.0
0.08 0.086680 0.350 283.650 140.0
0.07 0.074040 0.3750 276.3250 135.0
0.06 0.067720 0.40 269.0 130.0
0.05 0.06140 0.350 260.1250 127.50
0.04 0.049660 0.30 251.250 125.0
0.03 0.037020 0.250 242.3750 122.50
0.02 0.024380 0.20 233.50 120.0
0.01 0.011740 0.233330 255.433330 120.0
0.00 -0.00090 0.266670 277.366670 120.0
-0.01 -0.013540 0.30 299.30 120.0
-0.02 -0.025280 0.3250 290.2750 113.333330
-0.03 -0.03160 0.350 281.250 106.666670
-0.04 -0.037920 0.3750 272.2250 100.0
-0.05 -0.050560 0.40 263.20 93.333330
-0.06 -0.063210 0.466670 260.466670 101.111110
-0.07 -0.075850 0.533330 257.733330 108.888890
-0.08 -0.082170 0.60 255.0 116.666670
-0.09 -0.088490 0.5250 255.850 110.833330
-0.10 -0.101130 0.450 256.70 105.0
-0.11 -0.113770 0.3750 257.550 99.166670
-0.12 -0.126410 0.30 258.40 93.333330
-0.13 -0.139050 0.30 258.5250 89.166670
-0.14 -0.144470 0.30 258.650 85.0
-0.15 -0.149890 0.30 258.7750 80.833330
-0.16 -0.161630 0.30 258.90 76.666670
-0.17 -0.174270 0.3750 254.5750 88.333330
-0.18 -0.1860 0.450 250.250 100.0
-0.19 -0.192330 0.5250 245.9250 111.666670
-0.20 -0.198650 0.60 241.60 123.333330
-0.21 -0.210380 0.60 239.350 113.333330
-0.22 -0.223020 0.60 237.10 103.333330
-0.23 -0.235670 0.60 234.850 93.333330
-0.24 -0.241530 0.60 232.60 90.0
-0.25 -0.24740 0.60 237.366670 86.666670
-0.26 -0.260050 0.60 242.133330 83.333330
-0.27 -0.271780 0.60 246.90 80.0
-0.28 -0.284420 0.5750 246.050 80.833330
-0.29 -0.297070 0.550 245.20 81.666670
-0.30 -0.302930 0.5250 244.350 82.50
-0.31 -0.30880 0.50 243.50 83.333330
-0.32 -0.320540 0.5250 242.40 87.50
-0.33 -0.333180 0.550 241.30 91.666670
-0.34 -0.345820 0.5750 240.20 95.833330
-0.35 -0.351690 0.60 239.10 100.0
-0.36 -0.357560 0.628570 238.357140 96.666670
-0.37 -0.37020 0.657140 237.614290 93.333330
-0.38 -0.382840 0.685710 236.871430 90.0
-0.39 -0.394580 0.714290 236.128570 84.435480
-0.40 -0.407220 0.742860 235.385710 78.870970
-0.41 -0.413090 0.771430 234.642860 73.306450
-0.42 -0.418960 0.80 233.90 67.741940
-0.43 -0.43160 0.80 233.80 64.973120
-0.44 -0.443340 0.80 233.70 62.20430
-0.45 -0.455980 0.80 233.60 59.435480
-0.46 -0.461850 0.80 233.50 56.666670
-0.47 -0.467720 0.7750 232.4750 66.666670
-0.48 -0.480360 0.750 231.450 76.666670
-0.49 -0.49210 0.7250 230.4250 86.666670
-0.50 -0.504740 0.70 229.40 96.666670
-0.51 -0.517380 0.70 228.233330 91.666670
-0.52 -0.523250 0.70 227.066670 86.666670
-0.53 -0.529120 0.70 225.90 81.666670
-0.54 -0.541760 0.7250 224.8250 76.666670
-0.55 -0.55440 0.750 223.750 80.0
-0.56 -0.566140 0.7750 222.6750 83.333330
-0.57 -0.572460 0.80 221.60 86.666670
-0.58 -0.578780 0.80 220.5250 80.0
-0.59 -0.591420 0.80 219.450 73.333330
-0.60 -0.603160 0.80 218.3750 66.666670
-0.61 -0.61580 0.80 217.30 60.0
-0.62 -0.622120 0.80 219.10 62.50
-0.63 -0.628440 0.80 220.90 65.0
-0.64 -0.640180 0.80 222.70 67.50
-0.65 -0.652820 0.7750 223.9250 70.0
-0.66 -0.665460 0.750 225.150 75.0
-0.67 -0.67720 0.7250 226.3750 80.0
-0.68 -0.683070 0.70 227.60 85.0
-0.69 -0.688940 0.7750 223.50 90.0
-0.70 -0.701580 0.850 219.40 90.833330
-0.71 -0.712420 0.9250 215.30 91.666670
-0.72 -0.723250 1.0 211.20 92.50
-0.73 -0.734090 1.0 210.30 93.333330
-0.74 -0.744920 1.0 209.40 87.50
-0.75 -0.754850 1.0 208.50 81.666670
-0.76 -0.764790 0.950 209.2750 75.833330
-0.77 -0.774720 0.90 210.050 70.0
-0.78 -0.783750 0.850 210.8250 72.063490
-0.79 -0.793680 0.80 211.60 74.126980
-0.80 -0.802710 0.7750 211.3750 76.190480
-0.81 -0.812640 0.750 211.150 71.031750
-0.82 -0.821670 0.7250 210.9250 65.873020
-0.83 -0.83070 0.70 210.70 60.714290
-0.84 -0.84470 0.766670 211.40 55.555560
-0.85 -0.857790 0.833330 212.10 61.666670
-0.86 -0.865010 0.90 212.80 67.777780
-0.87 -0.873140 0.950 212.5250 73.888890
-0.88 -0.883970 1.0 212.250 80.0
-0.89 -0.893910 1.050 211.9750 73.333330
-0.90 -0.904740 1.10 211.70 66.666670
-0.91 -0.916350 1.1750 210.2750 60.0
-0.92 -999.25 1.250 208.850 53.333330
-0.93 -999.25 1.3250 207.4250 51.111110
-0.94 -999.25 1.40 206.0 48.888890
-0.95 -999.25 1.333330 206.80 46.666670
-0.96 -999.25 1.266670 207.60 50.833330
-0.97 -999.25 1.20 208.40 55.0
-0.98 -999.25 1.1250 207.60 59.166670
-0.99 -999.25 1.050 206.80 63.333330
-1.00 -999.25 0.9750 206.0 65.681820
-1.01 -999.25 0.90 205.20 68.03030
-1.02 -999.25 1.0 199.266670 70.378790
-1.03 -999.25 1.10 193.333330 72.727270
-1.04 -999.25 1.20 187.40 78.309410
-1.05 -999.25 1.333330 189.90 83.891550
-1.06 -999.25 1.466670 192.40 89.473680
-1.07 -999.25 1.60 194.90 87.93860
-1.08 -999.25 1.466670 200.166670 86.403510
-1.09 -999.25 1.333330 205.433330 84.868420
-1.10 -999.25 1.20 210.70 83.333330
-1.11 -999.25 1.166670 213.233330 80.241940
-1.12 -999.25 1.133330 215.766670 77.150540
-1.13 -999.25 1.10 218.30 74.059140
-1.14 -999.25 1.450 204.0 70.967740
-1.15 -999.25 1.80 189.70 78.422940
-1.16 -999.25 1.7250 189.0750 85.878140
-1.17 -999.25 1.650 188.450 93.333330
-1.18 -999.25 1.5750 187.8250 85.0
-1.19 -999.25 1.50 187.20 76.666670
-1.20 -999.25 1.10 201.0 68.333330
-1.21 -999.25 1.50 190.366670 60.0
-1.22 -999.25 -999.25 -999.25 70.833330
-1.23 -999.25 -999.25 -999.25 81.666670
-1.24 -999.25 -999.25 -999.25 92.50
-1.25 -999.25 -999.25 -999.25 103.333330
-1.26 -999.25 -999.25 -999.25 101.111110
-1.27 -999.25 -999.25 -999.25 98.888890
-1.28 -999.25 -999.25 -999.25 96.666670
-1.29 -999.25 -999.25 -999.25 90.833330
-1.30 -999.25 -999.25 -999.25 85.0
-1.31 -999.25 -999.25 -999.25 79.166670
-1.32 -999.25 -999.25 -999.25 73.333330
-1.33 -999.25 -999.25 -999.25 72.50
