~VERSION INFORMATION SECTION
VERS. 2.0 : CWLS LAS-VERSION 2.0
WRAP. NO : One line per depth step
~WELL INFORMATION SECTION
# MNEM.UNIT VALUE/NAME DESCRIPTION
#-------- -------------- ---------------------
STRT.Metres 16 : Start
STOP.Metres -1.79 : Stop
STEP.Metres -0.01 : Step
NULL.  -999.25 :NULL VALUE
DATE. 2025-13-11 : DATE
~CURVE INFORMATION SECTION
DEPTH.Metres : 0 Depth
Depth. : 1 Depth
Incline.Deg : 2 Incline
Azimuth.Deg : 3 Azimuth
GR.CPS : 4 GR
~PARAMETER INFORMATION SECTION
~OTHER
#-------------------------------------------------
#Produced By: GeoVista Logger - Version 7.1.107.0
Natural Gamma Sonde - 6447
Verticality Sonde - 6292
#-------------------------------------------------
~ASCII LOG DATA
16.00 -999.25 -999.25 -999.25 -999.25
15.99 15.994580 -999.25 -999.25 143.333330
15.98 15.982840 -999.25 -999.25 180.0
15.97 15.976980 -999.25 -999.25 165.0
15.96 15.971110 5.80 84.666670 150.0
15.95 15.959370 5.80 81.433330 133.333330
15.94 15.947630 5.80 78.20 116.666670
15.93 15.935890 5.80 77.3750 105.555560
15.92 15.924150 5.80 76.550 94.444440
15.91 15.912420 5.80 75.7250 83.333330
15.90 15.906550 5.80 74.90 118.939390
15.89 15.900680 5.7750 77.3750 154.545450
15.88 15.888940 5.750 79.850 158.851670
15.87 15.87720 5.7250 82.3250 163.157890
15.86 15.865460 5.70 84.80 149.883040
15.85 15.852820 5.833330 83.40 136.608190
15.84 15.846950 5.966670 82.0 123.333330
15.83 15.841080 6.10 80.60 135.555560
15.82 15.829350 6.0 81.50 147.777780
15.81 15.817610 5.90 82.40 160.0
15.80 15.804970 5.80 83.30 153.333330
15.79 15.793230 5.70 84.20 146.666670
15.78 15.787360 5.70 83.966670 140.0
15.77 15.781490 5.70 83.733330 131.111110
15.76 15.769750 5.70 83.50 122.222220
15.75 15.758010 5.70 82.5250 113.333330
15.74 15.745370 5.70 81.550 134.444440
15.73 15.733630 5.70 80.5750 155.555560
15.72 15.72190 5.70 79.60 176.666670
15.71 15.716030 5.666670 80.566670 167.50
15.70 15.710160 5.633330 81.533330 158.333330
15.69 15.697520 5.60 82.50 149.166670
15.68 15.685780 5.60 82.4250 140.0
15.67 15.674040 5.60 82.350 142.222220
15.66 15.667720 5.60 82.2750 144.444440
15.65 15.66140 5.60 82.20 146.666670
15.64 15.649660 5.633330 82.766670 144.444440
15.63 15.637920 5.666670 83.333330 142.222220
15.62 15.625280 5.70 83.90 140.0
15.61 15.613540 5.6750 83.4750 140.0
15.60 15.601810 5.650 83.050 140.0
15.59 15.595940 5.6250 82.6250 140.0
15.58 15.590070 5.60 82.20 140.0
15.57 15.577430 5.60 82.433330 139.677420
15.56 15.565690 5.60 82.666670 139.354840
15.55 15.553950 5.60 82.90 139.032260
15.54 15.547630 5.60 82.4750 138.709680
15.53 15.541310 5.60 82.050 136.917560
15.52 15.528670 5.60 81.6250 135.125450
15.51 15.516930 5.60 81.20 133.333330
15.50 15.505190 5.60 80.950 130.833330
15.49 15.492550 5.60 80.70 128.333330
15.48 15.486680 5.60 80.450 125.833330
15.47 15.480810 5.60 80.20 123.333330
15.46 15.468170 5.60 81.133330 123.333330
15.45 15.456430 5.60 82.066670 123.333330
15.44 15.443790 5.60 83.0 123.333330
15.43 15.432050 5.60 82.550 122.50
15.42 15.426190 5.60 82.10 121.666670
15.41 15.420320 5.60 81.650 120.833330
15.40 15.407670 5.60 81.20 120.0
15.39 15.395940 5.60 82.266670 115.0
15.38 15.38330 5.60 83.333330 110.0
15.37 15.377430 5.60 84.40 105.0
15.36 15.371560 5.60 84.350 108.750
15.35 15.358920 5.60 84.30 112.50
15.34 15.347180 5.60 84.250 116.250
15.33 15.334540 5.60 84.20 120.0
15.32 15.32280 5.60 84.066670 118.888890
15.31 15.316480 5.60 83.933330 117.777780
15.30 15.310160 5.60 83.80 116.666670
15.29 15.297520 5.6250 83.450 110.833330
15.28 15.284880 5.650 83.10 105.0
15.27 15.273140 5.6750 82.750 99.166670
15.26 15.266820 5.70 82.40 93.333330
15.25 15.26050 5.6750 82.7750 103.333330
15.24 15.248760 5.650 83.150 113.333330
15.23 15.236120 5.6250 83.5250 123.333330
15.22 15.224380 5.60 83.90 126.666670
15.21 15.218060 5.60 84.333330 130.0
15.20 15.211740 5.60 84.766670 133.333330
15.19 15.20 5.60 85.20 136.666670
15.18 15.187360 5.60 84.6250 124.444440
15.17 15.175620 5.60 84.050 112.222220
15.16 15.162980 5.60 83.4750 100.0
15.15 15.157110 5.60 82.90 106.666670
15.14 15.151240 5.60 83.4750 113.333330
15.13 15.13950 5.60 84.050 120.0
15.12 15.126860 5.60 84.6250 126.666670
15.11 15.115120 5.60 85.20 123.333330
15.10 15.103390 5.566670 84.766670 120.0
15.09 15.097070 5.533330 84.333330 116.666670
15.08 15.090740 5.50 83.90 113.333330
15.07 15.079010 5.5250 83.550 104.444440
15.06 15.066370 5.550 83.20 95.555560
15.05 15.054630 5.5750 82.850 86.666670
15.04 15.042890 5.60 82.50 94.166670
15.03 15.036570 5.60 82.9250 101.666670
15.02 15.030250 5.60 83.350 109.166670
15.01 15.018510 5.60 83.7750 116.666670
15.00 15.005870 5.60 84.20 116.666670
14.99 14.994130 5.566670 84.533330 116.666670
14.98 14.988260 5.533330 84.866670 116.666670
14.97 14.982390 5.50 85.20 120.833330
14.96 14.969750 5.5250 84.40 125.0
14.95 14.958010 5.550 83.60 129.166670
14.94 14.946280 5.5750 82.80 133.333330
14.93 14.933630 5.60 82.0 135.555560
14.92 14.92190 5.60 81.750 137.777780
14.91 14.916030 5.60 81.50 140.0
14.90 14.910160 5.60 81.250 140.483870
14.89 14.898420 5.60 81.0 140.967740
14.88 14.885780 5.533330 82.10 141.451610
14.87 14.874040 5.466670 83.20 141.935480
14.86 14.86230 5.40 84.30 126.845880
14.85 14.856430 5.4250 84.6250 111.756270
14.84 14.850560 5.450 84.950 96.666670
14.83 14.837920 5.4750 85.2750 99.166670
14.82 14.826190 5.50 85.60 101.666670
14.81 14.814450 5.50 85.40 104.166670
14.80 14.801810 5.50 85.20 106.666670
14.79 14.795940 5.50 85.0 108.333330
14.78 14.790070 5.50 84.80 110.0
14.77 14.778330 5.50 84.60 111.666670
14.76 14.765690 5.50 84.40 113.333330
14.75 14.753950 5.50 84.20 123.333330
14.74 14.748080 5.3750 84.50 133.333330
14.73 14.742210 5.250 84.80 143.333330
14.72 14.729570 5.1250 85.10 137.50
14.71 14.717830 5.0 85.40 131.666670
14.70 14.705190 5.10 85.30 125.833330
14.69 14.693450 5.20 85.20 120.0
14.68 14.687580 5.30 85.10 128.333330
14.67 14.681720 5.40 85.0 136.666670
14.66 14.669070 5.333330 84.733330 145.0
14.65 14.657340 5.266670 84.466670 153.333330
14.64 14.64560 5.20 84.20 154.444440
14.63 14.632960 5.20 84.5250 155.555560
14.62 14.627090 5.20 84.850 156.666670
14.61 14.621220 5.20 85.1750 151.666670
14.60 14.608580 5.20 85.50 146.666670
14.59 14.596840 5.233330 84.933330 141.666670
14.58 14.58420 5.266670 84.366670 136.666670
14.57 14.572460 5.30 83.80 135.555560
14.56 14.566590 5.30 84.550 134.444440
14.55 14.560720 5.30 85.30 133.333330
14.54 14.548080 5.30 86.050 136.904760
14.53 14.536340 5.30 86.80 140.476190
14.52 14.52460 5.333330 85.90 144.047620
14.51 14.511960 5.366670 85.0 147.619050
14.50 14.506090 5.40 84.10 169.047620
14.49 14.500230 5.3750 83.1750 190.476190
14.48 14.487580 5.350 82.250 211.904760
14.47 14.475850 5.3250 81.3250 233.333330
14.46 14.464110 5.30 80.40 218.888890
14.45 14.457790 5.30 81.9250 204.444440
14.44 14.451470 5.30 83.450 190.0
14.43 14.439730 5.30 84.9750 186.666670
14.42 14.427090 5.30 86.50 183.333330
14.41 14.415350 5.333330 87.066670 180.0
14.40 14.402710 5.366670 87.633330 176.666670
14.39 14.396840 5.40 88.20 173.333330
14.38 14.390970 5.3750 86.350 170.0
14.37 14.378330 5.350 84.50 166.666670
14.36 14.366590 5.3250 82.650 163.333330
14.35 14.353950 5.30 80.80 170.0
14.34 14.342210 5.30 80.850 176.666670
14.33 14.336340 5.30 80.90 183.333330
14.32 14.330470 5.30 80.950 169.166670
14.31 14.317830 5.30 81.0 155.0
14.30 14.306090 5.30 82.50 140.833330
14.29 14.293450 5.30 84.0 126.666670
14.28 14.287580 5.30 85.50 140.833330
14.27 14.281720 5.30 84.5250 155.0
14.26 14.269070 5.30 83.550 169.166670
14.25 14.257340 5.30 82.5750 183.333330
14.24 14.24560 5.30 81.60 173.333330
14.23 14.232960 5.30 82.366670 163.333330
14.22 14.227090 5.30 83.133330 153.333330
14.21 14.221220 5.30 83.90 165.0
14.20 14.208580 5.30 84.3750 176.666670
14.19 14.196840 5.30 84.850 188.333330
14.18 14.18510 5.30 85.3250 200.0
14.17 14.172460 5.30 85.80 178.333330
14.16 14.166590 5.2750 84.6750 156.666670
14.15 14.160720 5.250 83.550 135.0
14.14 14.148080 5.2250 82.4250 113.333330
14.13 14.136340 5.20 81.30 140.0
14.12 14.12370 5.20 81.766670 166.666670
14.11 14.111960 5.20 82.233330 193.333330
14.10 14.106090 5.20 82.70 184.166670
14.09 14.100230 5.20 83.350 175.0
14.08 14.087580 5.20 84.0 165.833330
14.07 14.075850 5.20 84.650 156.666670
14.06 14.063210 5.20 85.30 180.0
14.05 14.057340 5.20 85.70 203.333330
14.04 14.051470 5.20 86.10 226.666670
14.03 14.039730 5.20 86.50 212.50
14.02 14.027090 5.20 86.90 198.333330
14.01 14.015350 5.20 84.666670 184.166670
14.00 14.003610 5.20 82.433330 170.0
13.99 13.997290 5.20 80.20 174.166670
13.98 13.990970 5.20 80.050 178.333330
13.97 13.979230 5.20 79.90 182.50
13.96 13.967490 5.20 79.750 186.666670
13.95 13.955760 5.20 79.60 187.777780
13.94 13.943120 5.150 80.9250 188.888890
13.93 13.937250 5.10 82.250 190.0
