~VERSION INFORMATION SECTION
VERS. 2.0 : CWLS LAS-VERSION 2.0
WRAP. NO : One line per depth step
~WELL INFORMATION SECTION
# MNEM.UNIT VALUE/NAME DESCRIPTION
#-------- -------------- ---------------------
STRT.Metres 16 : Start
STOP.Metres -1.79 : Stop
STEP.Metres -0.01 : Step
NULL.  -999.25 :NULL VALUE
DATE. 2025-13-11 : DATE
~CURVE INFORMATION SECTION
DEPTH.Metres : 0 Depth
Depth. : 1 Depth
Incline.Deg : 2 Incline
Azimuth.Deg : 3 Azimuth
GR.CPS : 4 GR
~PARAMETER INFORMATION SECTION
~OTHER
#-------------------------------------------------
#Produced By: GeoVista Logger - Version 7.1.107.0
Natural Gamma Sonde - 6447
Verticality Sonde - 6292
#-------------------------------------------------
~ASCII LOG DATA
# ...
2.99 2.998650 3.20 54.0 135.833330
2.98 2.992330 3.133330 55.60 130.0
2.97 2.979680 3.066670 57.20 140.0
2.96 2.967950 3.0 58.80 150.0
2.95 2.95530 2.950 57.0 160.0
2.94 2.942660 2.90 55.20 155.833330
2.93 2.936790 2.850 53.40 151.666670
2.92 2.930930 2.80 51.60 147.50
2.91 2.918280 2.8250 53.950 143.333330
2.90 2.905640 2.850 56.30 132.50
2.89 2.8930 2.8750 58.650 121.666670
2.88 2.886680 2.90 61.0 110.833330
2.87 2.880360 2.90 58.933330 100.0
2.86 2.868620 2.90 56.866670 116.666670
2.85 2.855980 2.90 54.80 133.333330
2.84 2.843340 2.90 55.9750 150.0
2.83 2.837020 2.90 57.150 166.666670
2.82 2.83070 2.90 58.3250 163.333330
2.81 2.818060 2.90 59.50 160.0
2.80 2.805420 2.8750 58.90 156.666670
2.79 2.793680 2.850 58.30 163.333330
2.78 2.787360 2.8250 57.70 170.0
2.77 2.781040 2.80 57.10 176.666670
2.76 2.76840 2.750 56.7750 183.333330
2.75 2.755760 2.70 56.450 176.666670
2.74 2.743120 2.650 56.1250 170.0
2.73 2.736790 2.60 55.80 163.333330
2.72 2.730470 2.666670 56.866670 156.666670
2.71 2.718740 2.733330 57.933330 150.0
2.70 2.706090 2.80 59.0 143.333330
2.69 2.699770 2.7750 57.50 136.666670
2.68 2.693450 2.750 56.0 130.0
2.67 2.679910 2.7250 54.50 134.444440
2.66 2.667270 2.70 53.0 138.888890
2.65 2.654630 2.70 54.50 143.333330
2.64 2.648310 2.70 56.0 143.333330
2.63 2.641990 2.70 57.50 143.333330
2.62 2.629350 2.70 59.0 143.333330
2.61 2.617610 2.60 54.833330 143.333330
2.60 2.604970 2.50 50.666670 143.333330
2.59 2.598650 2.40 46.50 143.333330
2.58 2.592330 2.4250 49.6750 143.333330
2.57 2.579680 2.450 52.850 143.333330
2.56 2.567950 2.4750 56.0250 156.666670
2.55 2.55530 2.50 59.20 170.0
2.54 2.542660 2.50 58.0250 183.333330
2.53 2.536340 2.50 56.850 175.833330
2.52 2.530020 2.50 55.6750 168.333330
2.51 2.517380 2.50 54.50 160.833330
2.50 2.505640 2.5250 54.8750 153.333330
2.49 2.4930 2.550 55.250 154.166670
2.48 2.486680 2.5750 55.6250 155.0
2.47 2.480360 2.60 56.0 155.833330
2.46 2.468620 2.566670 54.833330 156.666670
2.45 2.455980 2.533330 53.666670 156.057350
2.44 2.443340 2.50 52.50 155.448030
2.43 2.437470 2.4750 51.650 154.838710
2.42 2.43160 2.450 50.80 161.962370
2.41 2.418960 2.4250 49.950 169.086020
2.40 2.406320 2.40 49.10 176.209680
2.39 2.394580 2.40 50.0750 183.333330
2.38 2.388260 2.40 51.050 170.0
2.37 2.381940 2.40 52.0250 156.666670
2.36 2.36930 2.40 53.0 143.333330
2.35 2.357560 2.3750 53.2250 130.0
2.34 2.344920 2.350 53.450 135.833330
2.33 2.332280 2.3250 53.6750 141.666670
2.32 2.326410 2.30 53.90 147.50
2.31 2.320540 2.30 54.0750 153.333330
2.30 2.30790 2.30 54.250 161.111110
2.29 2.295260 2.30 54.4250 168.888890
2.28 2.283520 2.30 54.60 176.666670
2.27 2.27720 2.266670 53.066670 170.0
2.26 2.270880 2.233330 51.533330 163.333330
2.25 2.258240 2.20 50.0 156.666670
2.24 2.24560 2.20 50.4250 150.0
2.23 2.232960 2.20 50.850 141.666670
2.22 2.227090 2.20 51.2750 133.333330
2.21 2.221220 2.20 51.70 125.0
2.20 2.208580 2.20 51.150 116.666670
2.19 2.195940 2.20 50.60 126.666670
2.18 2.18330 2.20 50.050 136.666670
2.17 2.176980 2.20 49.50 146.666670
2.16 2.170650 2.166670 51.866670 150.833330
2.15 2.158010 2.133330 54.233330 155.0
2.14 2.145370 2.10 56.60 159.166670
2.13 2.132730 2.10 55.58750 163.333330
2.12 2.126410 2.10 54.5750 156.666670
2.11 2.120090 2.10 53.56250 150.0
2.10 2.107450 2.10 52.550 143.333330
2.09 2.094810 2.10 51.53750 136.666670
2.08 2.088490 2.10 50.5250 148.888890
2.07 2.082170 2.10 49.51250 161.111110
2.06 2.069530 2.10 48.50 173.333330
2.05 2.057790 2.066670 47.033330 167.50
2.04 2.045150 2.033330 45.566670 161.666670
2.03 2.038830 2.0 44.10 155.833330
2.02 2.032510 1.9750 45.1750 150.0
2.01 2.019860 1.950 46.250 152.50
2.00 2.007220 1.9250 47.3250 155.0
1.99 1.994580 1.90 48.40 157.50
1.98 1.988260 1.9250 49.20 160.0
1.97 1.981940 1.950 50.0 159.166670
1.96 1.96930 1.9750 50.80 158.333330
1.95 1.956660 2.0 51.60 157.50
1.94 1.943120 1.9750 49.8750 156.666670
1.93 1.936790 1.950 48.150 155.555560
1.92 1.930470 1.9250 46.4250 154.444440
1.91 1.917830 1.90 44.70 153.333330
1.90 1.905190 1.90 43.566670 145.0
1.89 1.898870 1.90 42.433330 136.666670
1.88 1.892550 1.90 41.30 128.333330
1.87 1.879910 1.90 43.5750 120.0
1.86 1.867270 1.90 45.850 128.333330
1.85 1.854630 1.90 48.1250 136.666670
1.84 1.848310 1.90 50.40 145.0
1.83 1.841990 1.850 52.1250 153.333330
1.82 1.829350 1.80 53.850 150.833330
1.81 1.81670 1.750 55.5750 148.333330
1.80 1.804060 1.70 57.30 145.833330
1.79 1.797740 1.70 53.50 143.333330
1.78 1.791420 1.70 49.70 144.166670
1.77 1.778780 1.70 45.90 145.0
1.76 1.766140 1.70 42.10 145.833330
1.75 1.75350 1.666670 41.933330 146.666670
1.74 1.747180 1.633330 41.766670 150.465950
1.73 1.740860 1.60 41.60 154.265230
1.72 1.728220 1.6250 41.250 158.064520
1.71 1.715580 1.650 40.90 160.215050
1.70 1.702930 1.6750 40.550 162.365590
1.69 1.696610 1.70 40.20 164.516130
1.68 1.690290 1.7250 39.450 166.666670
1.67 1.676750 1.750 38.70 156.250
1.66 1.664110 1.7750 37.950 145.833330
1.65 1.657790 1.80 37.20 135.416670
1.64 1.651470 1.70 41.5250 125.0
1.63 1.638830 1.60 45.850 100.0
1.62 1.626190 1.50 50.1750 75.0
1.61 1.613540 1.40 54.50 50.0
1.60 1.607220 1.4250 51.0 73.333330
1.59 1.60090 1.450 47.50 96.666670
1.58 1.588260 1.4750 44.0 120.0
1.57 1.575620 1.50 40.50 143.333330
1.56 1.562980 1.4750 42.750 143.333330
1.55 1.556660 1.450 45.0 143.333330
1.54 1.550340 1.4250 47.250 143.333330
1.53 1.53770 1.40 49.50 143.333330
1.52 1.525060 1.466670 44.666670 144.166670
1.51 1.518740 1.533330 39.833330 145.0
1.50 1.512420 1.60 35.0 145.833330
1.49 1.499770 1.6250 37.70 146.666670
1.48 1.487130 1.650 40.40 161.111110
1.47 1.474490 1.6750 43.10 175.555560
1.46 1.468170 1.70 45.80 190.0
1.45 1.461850 1.650 44.2250 177.50
1.44 1.449210 1.60 42.650 165.0
1.43 1.436570 1.550 41.0750 152.50
1.42 1.423930 1.50 39.50 140.0
1.41 1.417610 1.450 40.3750 141.666670
1.40 1.411290 1.40 41.250 143.333330
1.39 1.398650 1.350 42.1250 145.0
1.38 1.3860 1.30 43.0 146.666670
1.37 1.373360 1.3250 43.6250 151.111110
1.36 1.367040 1.350 44.250 155.555560
1.35 1.360720 1.3750 44.8750 160.0
1.34 1.348080 1.40 45.50 163.333330
1.33 1.335440 1.366670 44.90 166.666670
1.32 1.32280 1.333330 44.30 170.0
1.31 1.316480 1.30 43.70 173.333330
1.30 1.310160 1.30 44.5250 161.666670
1.29 1.297520 1.30 45.350 150.0
1.28 1.284880 1.30 46.1750 138.333330
1.27 1.278560 1.30 47.0 126.666670
1.26 1.272230 1.30 45.3250 131.666670
1.25 1.259590 1.30 43.650 136.666670
1.24 1.246950 1.30 41.9750 141.666670
1.23 1.235210 1.30 40.30 146.666670
1.22 1.228890 1.30 40.2750 154.444440
1.21 1.222570 1.30 40.250 162.222220
1.20 1.209930 1.30 40.2250 170.0
1.19 1.197290 1.30 40.20 164.166670
1.18 1.185550 1.2250 39.80 158.333330
1.17 1.172910 1.150 39.40 152.50
1.16 1.166590 1.0750 39.0 146.666670
1.15 1.160270 1.0 38.60 141.666670
1.14 1.147630 1.10 43.466670 136.666670
1.13 1.135890 1.20 48.333330 131.666670
1.12 1.123250 1.30 53.20 126.666670
1.11 1.116930 1.2750 50.0 134.166670
1.10 1.110610 1.250 46.80 141.666670
1.09 1.097970 1.2250 43.60 149.166670
1.08 1.085330 1.20 40.40 156.666670
1.07 1.072690 1.1750 37.550 157.50
1.06 1.066370 1.150 34.70 158.333330
1.05 1.060050 1.1250 31.850 159.166670
1.04 1.04740 1.10 29.0 160.0
1.03 1.034760 1.10 30.68750 157.20430
1.02 1.028440 1.10 32.3750 154.40860
1.01 1.022120 1.10 34.06250 151.61290
1.00 1.009480 1.10 35.750 155.376340
0.99 0.996840 1.10 37.43750 159.139780
0.98 0.98420 1.10 39.1250 162.903230
0.97 0.977880 1.10 40.81250 166.666670
0.96 0.971560 1.10 42.50 153.333330
0.95 0.958920 1.033330 40.90 140.0
0.94 0.946280 0.966670 39.30 126.666670
0.93 0.933630 0.90 37.70 113.333330
0.92 0.927310 0.88750 37.41250 115.0
0.91 0.920990 0.8750 37.1250 116.666670
0.90 0.908350 0.86250 36.83750 118.333330
0.89 0.894810 0.850 36.550 120.0
0.88 0.888940 0.83750 36.26250 113.333330
0.87 0.883070 0.8250 35.9750 106.666670
0.86 0.869530 0.81250 35.68750 100.0
0.85 0.856880 0.80 35.40 93.333330
0.84 0.844240 0.733330 135.50 112.222220
0.83 0.837920 0.666670 235.60 131.111110
0.82 0.83160 0.60 335.70 150.0
0.81 0.818960 0.5750 261.7750 150.0
