~VERSION INFORMATION SECTION
VERS. 2.0 : CWLS LAS-VERSION 2.0
WRAP. NO : One line per depth step
~WELL INFORMATION SECTION
# MNEM.UNIT VALUE/NAME DESCRIPTION
#-------- -------------- ---------------------
STRT.Metres 16 : Start
STOP.Metres 0.39 : Stop
STEP.Metres -0.01 : Step
NULL.  -999.25 :NULL VALUE
DATE. 2025-19-11 : DATE
~CURVE INFORMATION SECTION
DEPTH.Metres : 0 Depth
Depth. : 1 Depth
Incline.Deg : 2 Incline
Azimuth.Deg : 3 Azimuth
GR.CPS : 4 GR
~PARAMETER INFORMATION SECTION
~OTHER
#-------------------------------------------------
#Produced By: GeoVista Logger - Version 7.1.107.0
Natural Gamma Sonde - 6447
Verticality Sonde - 6292
#-------------------------------------------------
~ASCII LOG DATA
# ...
9.84 9.84560 4.833330 80.0 226.666670
9.83 9.840180 4.866670 76.70 231.666670
9.82 9.829350 4.90 73.40 236.666670
9.81 9.818510 4.90 74.70 230.0
9.80 9.807670 4.90 76.0 223.333330
9.79 9.797740 4.90 77.30 216.666670
9.78 9.786910 4.90 78.0 222.222220
9.77 9.776070 4.90 78.70 227.777780
9.76 9.765240 4.90 79.40 233.333330
9.75 9.75440 4.866670 77.433330 220.0
9.74 9.743570 4.833330 75.466670 206.666670
9.73 9.733630 4.80 73.50 193.333330
9.72 9.72280 4.833330 75.466670 202.222220
9.71 9.711960 4.866670 77.433330 211.111110
9.70 9.701130 4.90 79.40 220.0
9.69 9.695710 4.8750 80.2750 204.166670
9.68 9.690290 4.850 81.150 188.333330
9.67 9.679460 4.8250 82.0250 172.50
9.66 9.668620 4.80 82.90 156.666670
9.65 9.658690 4.80 79.966670 169.444440
9.64 9.647860 4.80 77.033330 182.222220
9.63 9.637020 4.80 74.10 195.0
9.62 9.626190 4.80 74.466670 193.333330
9.61 9.616250 4.80 74.833330 191.666670
9.60 9.605420 4.80 75.20 190.0
9.59 9.595490 4.80 77.20 197.777780
9.58 9.584650 4.80 79.20 205.555560
9.57 9.574720 4.80 81.20 213.333330
9.56 9.563880 4.80 79.850 208.888890
9.55 9.553050 4.80 78.50 204.444440
9.54 9.543120 4.80 77.150 200.0
9.53 9.532280 4.80 75.80 188.888890
9.52 9.521440 4.80 76.50 177.777780
9.51 9.511510 4.80 77.20 166.666670
9.50 9.500680 4.80 77.90 165.0
9.49 9.495710 4.80 78.866670 163.333330
9.48 9.490740 4.80 79.833330 161.666670
9.47 9.479910 4.80 80.80 160.0
9.46 9.469070 4.80 78.966670 166.666670
9.45 9.459140 4.80 77.133330 173.333330
9.44 9.448310 4.80 75.30 180.0
9.43 9.437470 4.80 75.60 187.777780
9.42 9.427540 4.80 75.90 195.555560
9.41 9.41670 4.80 76.20 203.333330
9.40 9.405870 4.80 77.50 190.0
9.39 9.395940 4.80 78.80 176.666670
9.38 9.38510 4.80 80.10 163.333330
9.37 9.375170 4.80 81.40 172.222220
9.36 9.364330 4.80 81.083330 181.111110
9.35 9.35350 4.80 80.766670 190.0
9.34 9.343570 4.80 80.450 181.111110
9.33 9.332730 4.80 80.133330 172.222220
9.32 9.32190 4.80 79.816670 163.333330
9.31 9.311960 4.80 79.50 173.333330
9.30 9.301130 4.80 79.30 183.333330
9.29 9.290290 4.80 79.10 193.333330
9.28 9.285330 4.80 78.90 185.0
9.27 9.280360 4.766670 79.033330 176.666670
9.26 9.269530 4.733330 79.166670 168.333330
9.25 9.258690 4.70 79.30 160.0
9.24 9.247860 4.733330 78.233330 158.888890
9.23 9.237920 4.766670 77.166670 157.777780
9.22 9.227090 4.80 76.10 156.666670
9.21 9.216250 4.80 77.533330 165.555560
9.20 9.206320 4.80 78.966670 174.444440
9.19 9.195490 4.80 80.40 183.333330
9.18 9.184650 4.80 80.0 180.0
9.17 9.174720 4.80 79.60 176.666670
9.16 9.163880 4.80 79.20 173.333330
9.15 9.153050 4.80 78.80 192.222220
9.14 9.142210 4.80 77.733330 211.111110
9.13 9.132280 4.80 76.666670 230.0
9.12 9.121440 4.80 75.60 215.833330
9.11 9.116030 4.80 76.266670 201.666670
9.10 9.110610 4.80 76.933330 187.50
9.09 9.099770 4.80 77.60 173.333330
9.08 9.088940 4.80 77.766670 164.76190
9.07 9.07810 4.80 77.933330 156.190480
9.06 9.067270 4.80 78.10 147.619050
9.05 9.057340 4.80 76.966670 175.079370
9.04 9.04650 4.80 75.833330 202.539680
9.03 9.035670 4.80 74.70 230.0
9.02 9.024830 4.80 76.433330 216.666670
9.01 9.0140 4.80 78.166670 203.333330
9.00 9.004060 4.80 79.90 190.0
8.99 8.993230 4.80 80.40 188.888890
8.98 8.982390 4.80 80.90 187.777780
8.97 8.976980 4.80 81.40 186.666670
8.96 8.971560 4.80 81.90 189.166670
8.95 8.959820 4.766670 80.0 191.666670
8.94 8.948980 4.733330 78.10 194.166670
8.93 8.938150 4.70 76.20 196.666670
8.92 8.926410 4.70 77.60 196.666670
8.91 8.914670 4.70 79.0 196.666670
8.90 8.902930 4.70 80.40 196.666670
8.89 8.897070 4.70 79.866670 185.555560
8.88 8.89120 4.70 79.333330 174.444440
8.87 8.879460 4.70 78.80 163.333330
8.86 8.867720 4.70 77.733330 174.444440
8.85 8.855080 4.70 76.666670 185.555560
8.84 8.842440 4.70 75.60 196.666670
8.83 8.836570 4.6750 77.1250 195.833330
8.82 8.83070 4.650 78.650 195.0
8.81 8.818060 4.6250 80.1750 194.166670
8.80 8.805420 4.60 81.70 193.333330
8.79 8.792780 4.633330 81.433330 192.222220
8.78 8.786460 4.666670 81.166670 191.111110
8.77 8.780140 4.70 80.90 190.0
8.76 8.767490 4.70 79.50 183.333330
8.75 8.754850 4.70 78.10 176.666670
8.74 8.743120 4.70 76.70 170.0
8.73 8.737250 4.666670 76.533330 186.060610
8.72 8.731380 4.633330 76.366670 202.121210
8.71 8.719640 4.60 76.20 218.181820
8.70 8.70790 4.60 78.466670 189.314190
8.69 8.695260 4.60 80.733330 160.446570
8.68 8.683520 4.60 83.0 131.578950
8.67 8.671780 4.5750 82.350 138.830410
8.66 8.665910 4.550 81.70 146.081870
8.65 8.660050 4.5250 81.050 153.333330
8.64 8.648310 4.50 80.40 157.777780
8.63 8.636570 4.433330 78.766670 162.222220
8.62 8.624830 4.366670 77.133330 166.666670
8.61 8.613090 4.30 75.50 170.833330
8.60 8.607220 4.3750 76.90 175.0
8.59 8.601350 4.450 78.30 179.166670
8.58 8.589620 4.5250 79.70 183.333330
8.57 8.577880 4.60 81.10 178.888890
8.56 8.566140 4.566670 79.233330 174.444440
8.55 8.55350 4.533330 77.366670 170.0
8.54 8.541760 4.50 75.50 175.555560
8.53 8.535890 4.50 75.1250 181.111110
8.52 8.530020 4.50 74.750 186.666670
8.51 8.517380 4.50 74.3750 202.222220
8.50 8.505640 4.50 74.0 217.777780
8.49 8.4930 4.50 76.0250 233.333330
8.48 8.487130 4.50 78.050 205.555560
8.47 8.481260 4.50 80.0750 177.777780
8.46 8.468620 4.50 82.10 150.0
8.45 8.456880 4.50 81.314290 158.064520
8.44 8.444240 4.50 80.528570 166.129030
8.43 8.432510 4.50 79.742860 174.193550
8.42 8.426640 4.50 78.957140 168.351250
8.41 8.420770 4.50 78.171430 162.508960
8.40 8.408130 4.50 77.385710 156.666670
8.39 8.395490 4.50 76.60 155.0
8.38 8.383750 4.50 77.3750 153.333330
8.37 8.377430 4.50 78.150 151.666670
8.36 8.371110 4.50 78.9250 150.0
8.35 8.359370 4.50 79.70 160.0
8.34 8.346730 4.50 79.033330 170.0
8.33 8.334990 4.50 78.366670 180.0
8.32 8.322350 4.50 77.70 185.555560
8.31 8.316480 4.50 77.80 191.111110
8.30 8.310610 4.50 77.90 196.666670
8.29 8.297970 4.50 78.0 204.444440
8.28 8.285330 4.50 78.10 212.222220
8.27 8.273590 4.533330 77.866670 220.0
8.26 8.267270 4.566670 77.633330 226.666670
8.25 8.260950 4.60 77.40 233.333330
8.24 8.249210 4.60 76.9750 240.0
8.23 8.236570 4.60 76.550 238.095240
8.22 8.224830 4.60 76.1250 236.190480
8.21 8.218510 4.60 75.70 234.285710
8.20 8.212190 4.5750 77.050 232.380950
8.19 8.199550 4.550 78.40 230.476190
8.18 8.186910 4.5250 79.750 228.571430
8.17 8.175170 4.50 81.10 226.666670
8.16 8.168850 4.50 80.066670 221.111110
8.15 8.162530 4.50 79.033330 215.555560
8.14 8.149890 4.50 78.0 210.0
8.13 8.138150 4.5250 77.1250 205.555560
8.12 8.125510 4.550 76.250 201.111110
8.11 8.112870 4.5750 75.3750 196.666670
8.10 8.1070 4.60 74.50 198.333330
8.09 8.101130 4.5750 75.7250 200.0
8.08 8.088490 4.550 76.950 201.666670
8.07 8.075850 4.5250 78.1750 203.333330
8.06 8.064110 4.50 79.40 201.111110
8.05 8.057790 4.50 77.70 198.888890
8.04 8.051470 4.50 76.0 196.666670
8.03 8.038830 4.50 74.30 195.0
8.02 8.026190 4.5250 74.4750 193.333330
8.01 8.014450 4.550 74.650 191.666670
8.00 8.008130 4.5750 74.8250 190.0
7.99 8.001810 4.60 75.0 201.111110
7.98 7.989160 4.5750 74.90 212.222220
7.97 7.976520 4.550 74.80 223.333330
7.96 7.964790 4.5250 74.70 228.333330
7.95 7.958470 4.50 74.60 233.333330
7.94 7.952140 4.533330 74.60 238.333330
7.93 7.93950 4.566670 74.60 243.333330
7.92 7.926860 4.60 74.60 235.0
7.91 7.915120 4.5750 74.2250 226.666670
7.90 7.90880 4.550 73.850 218.333330
7.89 7.902480 4.5250 73.4750 210.0
7.88 7.889840 4.50 73.10 200.0
7.87 7.87720 4.5250 73.50 190.0
7.86 7.865460 4.550 73.90 180.0
7.85 7.852820 4.5750 74.30 193.333330
7.84 7.846950 4.60 74.70 206.666670
7.83 7.841080 4.60 75.50 220.0
7.82 7.828440 4.60 76.30 233.333330
7.81 7.81670 4.60 77.10 221.146950
7.80 7.804060 4.60 76.750 208.960570
7.79 7.798190 4.60 76.40 196.774190
7.78 7.792330 4.60 76.050 185.080650
7.77 7.779680 4.60 75.70 173.38710
7.76 7.767950 4.6250 75.8250 161.693550
7.75 7.75530 4.650 75.950 150.0
7.74 7.743570 4.6750 76.0750 171.111110
7.73 7.737250 4.70 76.20 192.222220
7.72 7.730930 4.650 76.7750 213.333330
7.71 7.719190 4.60 77.350 199.166670
7.70 7.706550 4.550 77.9250 185.0
7.69 7.694810 4.50 78.50 170.833330
7.68 7.683070 4.533330 76.966670 156.666670
