~VERSION INFORMATION SECTION
VERS. 2.0 : CWLS LAS-VERSION 2.0
WRAP. NO : One line per depth step
~WELL INFORMATION SECTION
# MNEM.UNIT VALUE/NAME DESCRIPTION
#-------- -------------- ---------------------
STRT.Metres 16 : Start
STOP.Metres 0.39 : Stop
STEP.Metres -0.01 : Step
NULL.  -999.25 :NULL VALUE
DATE. 2025-19-11 : DATE
~CURVE INFORMATION SECTION
DEPTH.Metres : 0 Depth
Depth. : 1 Depth
Incline.Deg : 2 Incline
Azimuth.Deg : 3 Azimuth
GR.CPS : 4 GR
~PARAMETER INFORMATION SECTION
~OTHER
#-------------------------------------------------
#Produced By: GeoVista Logger - Version 7.1.107.0
Natural Gamma Sonde - 6447
Verticality Sonde - 6292
#-------------------------------------------------
~ASCII LOG DATA
# ...
7.67 7.676750 4.566670 75.433330 158.333330
7.66 7.670430 4.60 73.90 160.0
7.65 7.658690 4.60 74.0250 161.666670
7.64 7.646050 4.60 74.150 163.333330
7.63 7.634310 4.60 74.2750 163.333330
7.62 7.627990 4.60 74.40 163.333330
7.61 7.621670 4.60 74.80 163.333330
7.60 7.609930 4.60 75.20 163.333330
7.59 7.597290 4.60 75.60 163.333330
7.58 7.585550 4.60 76.0 163.333330
7.57 7.572910 4.60 75.533330 163.333330
7.56 7.567040 4.60 75.066670 175.0
7.55 7.561170 4.60 74.60 186.666670
7.54 7.549440 4.5750 74.9750 198.333330
7.53 7.536790 4.550 75.350 210.0
7.52 7.525060 4.5250 75.7250 214.444440
7.51 7.512420 4.50 76.10 218.888890
7.50 7.506550 4.5250 75.7250 223.333330
7.49 7.500680 4.550 75.350 216.666670
7.48 7.488040 4.5750 74.9750 210.0
7.47 7.47630 4.60 74.60 203.333330
7.46 7.463660 4.60 74.566670 196.666670
7.45 7.457790 4.60 74.533330 202.50
7.44 7.451920 4.60 74.50 208.333330
7.43 7.439280 4.60 74.950 214.166670
7.42 7.427540 4.60 75.40 220.0
7.41 7.41490 4.60 75.850 216.666670
7.40 7.403160 4.60 76.30 213.333330
7.39 7.396840 4.60 75.5250 210.0
7.38 7.390520 4.60 74.750 197.50
7.37 7.378780 4.60 73.9750 185.0
7.36 7.366140 4.60 73.20 172.50
7.35 7.35440 4.60 73.833330 160.0
7.34 7.341760 4.60 74.466670 174.166670
7.33 7.335890 4.60 75.10 188.333330
7.32 7.330020 4.5750 75.2750 202.50
7.31 7.317380 4.550 75.450 216.666670
7.30 7.305640 4.5250 75.6250 202.222220
7.29 7.2930 4.50 75.80 187.777780
7.28 7.286680 4.5250 74.9750 173.333330
7.27 7.280360 4.550 74.150 169.166670
7.26 7.267720 4.5750 73.3250 165.0
7.25 7.255980 4.60 72.50 160.833330
7.24 7.243340 4.60 74.0 156.666670
7.23 7.237470 4.60 75.50 164.166670
7.22 7.23160 4.60 77.0 171.666670
7.21 7.218960 4.5750 77.0250 179.166670
7.20 7.206320 4.550 77.050 186.666670
7.19 7.194580 4.5250 77.0750 195.0
7.18 7.188260 4.50 77.10 203.333330
7.17 7.181940 4.50 75.250 211.666670
7.16 7.16930 4.50 73.40 220.0
7.15 7.157560 4.50 71.550 211.111110
7.14 7.144920 4.50 69.70 202.222220
7.13 7.132280 4.50 71.166670 193.333330
7.12 7.126410 4.50 72.633330 193.38710
7.11 7.120540 4.50 74.10 193.440860
7.10 7.10790 4.4750 75.0 193.494620
7.09 7.095260 4.450 75.90 193.548390
7.08 7.083520 4.4250 76.80 183.494620
7.07 7.07720 4.40 77.70 173.440860
7.06 7.070880 4.433330 75.833330 163.38710
7.05 7.058240 4.466670 73.966670 153.333330
7.04 7.04560 4.50 72.10 163.333330
7.03 7.033860 4.50 73.0250 173.333330
7.02 7.027540 4.50 73.950 183.333330
7.01 7.021220 4.50 74.8750 181.250
7.00 7.008580 4.50 75.80 179.166670
6.99 6.995940 4.4750 76.60 177.083330
6.98 6.98420 4.450 77.40 175.0
6.97 6.977880 4.4250 78.20 181.250
6.96 6.971560 4.40 79.0 187.50
6.95 6.958920 4.40 76.50 193.750
6.94 6.947180 4.40 74.0 200.0
6.93 6.934540 4.40 71.50 197.777780
6.92 6.92280 4.40 69.0 195.555560
6.91 6.916480 4.433330 69.466670 193.333330
6.90 6.910160 4.466670 69.933330 190.0
6.89 6.897520 4.50 70.40 186.666670
6.88 6.885780 4.450 72.4750 183.333330
6.87 6.873140 4.40 74.550 180.0
6.86 6.867270 4.350 76.6250 186.666670
6.85 6.86140 4.30 78.70 193.333330
6.84 6.848760 4.3250 77.150 200.0
6.83 6.836120 4.350 75.60 206.666670
6.82 6.824380 4.3750 74.050 198.888890
6.81 6.818060 4.40 72.50 191.111110
6.80 6.811740 4.40 72.50 183.333330
6.79 6.80 4.40 72.50 175.833330
6.78 6.787360 4.40 72.50 168.333330
6.77 6.774720 4.40 73.8750 160.833330
6.76 6.762980 4.40 75.250 153.333330
6.75 6.756660 4.40 76.6250 164.166670
6.74 6.750340 4.40 78.0 175.0
6.73 6.73860 4.40 76.450 185.833330
6.72 6.725960 4.40 74.90 196.666670
6.71 6.714220 4.40 73.350 183.333330
6.70 6.703390 4.40 71.80 170.0
6.69 6.697520 4.40 71.50 156.666670
6.68 6.691650 4.40 71.20 169.166670
6.67 6.679910 4.40 70.90 181.666670
6.66 6.668170 4.40 70.60 194.166670
6.65 6.655530 4.40 72.733330 206.666670
6.64 6.643790 4.40 74.866670 197.50
6.63 6.637920 4.40 77.0 188.333330
6.62 6.632050 4.40 76.850 179.166670
6.61 6.619410 4.40 76.70 170.0
6.60 6.607670 4.40 76.550 175.555560
6.59 6.595030 4.40 76.40 181.111110
6.58 6.58330 4.40 75.2250 186.666670
6.57 6.576980 4.40 74.050 183.333330
6.56 6.570650 4.40 72.8750 180.0
6.55 6.558920 4.40 71.70 176.666670
6.54 6.546280 4.40 72.333330 173.333330
6.53 6.534540 4.40 72.966670 183.333330
6.52 6.52190 4.40 73.60 193.333330
6.51 6.516030 4.3750 74.2250 203.333330
6.50 6.510160 4.350 74.850 213.333330
6.49 6.497520 4.3250 75.4750 215.555560
6.48 6.485780 4.30 76.10 217.777780
6.47 6.473140 4.3250 75.450 220.0
6.46 6.467270 4.350 74.80 220.833330
6.45 6.46140 4.3750 74.150 221.666670
6.44 6.448760 4.40 73.50 222.50
6.43 6.437020 4.40 73.466670 223.333330
6.42 6.424380 4.40 73.433330 215.88710
6.41 6.418510 4.40 73.40 208.440860
6.40 6.412640 4.40 73.850 200.994620
6.39 6.40 4.40 74.30 193.548390
6.38 6.387360 4.40 74.750 190.698920
6.37 6.375620 4.40 75.20 187.849460
6.36 6.362980 4.366670 75.10 185.0
6.35 6.356660 4.333330 75.0 191.250
6.34 6.350340 4.30 74.90 197.50
6.33 6.33860 4.350 74.5250 203.750
6.32 6.325960 4.40 74.150 210.0
6.31 6.314220 4.450 73.7750 206.666670
6.30 6.30790 4.50 73.40 203.333330
6.29 6.301580 4.5250 73.050 200.0
6.28 6.288940 4.550 72.70 196.666670
6.27 6.27720 4.5750 72.350 193.333330
6.26 6.264560 4.60 72.0 190.0
6.25 6.252820 4.60 73.033330 186.666670
6.24 6.24650 4.60 74.066670 189.166670
6.23 6.240180 4.60 75.10 191.666670
6.22 6.227540 4.5750 74.6750 194.166670
6.21 6.21580 4.550 74.250 196.666670
6.20 6.203160 4.5250 73.8250 205.833330
6.19 6.196840 4.50 73.40 215.0
6.18 6.190520 4.50 73.3750 224.166670
6.17 6.178780 4.50 73.350 233.333330
6.16 6.166140 4.50 73.3250 227.50
6.15 6.15350 4.50 73.30 221.666670
6.14 6.147180 4.533330 73.733330 215.833330
6.13 6.140860 4.566670 74.166670 210.0
6.12 6.129120 4.60 74.60 218.888890
6.11 6.116480 4.5750 74.550 227.777780
6.10 6.103840 4.550 74.50 236.666670
6.09 6.097970 4.5250 74.450 226.666670
6.08 6.09210 4.50 74.40 216.666670
6.07 6.079460 4.5250 74.0750 206.666670
6.06 6.067720 4.550 73.750 196.666670
6.05 6.055080 4.5750 73.4250 199.166670
6.04 6.042440 4.60 73.10 201.666670
6.03 6.036570 4.566670 74.266670 204.166670
6.02 6.03070 4.533330 75.433330 206.666670
6.01 6.018060 4.50 76.60 198.888890
6.00 6.006320 4.50 74.950 191.111110
5.99 5.993680 4.50 73.30 183.333330
5.98 5.987810 4.50 71.650 181.666670
5.97 5.981940 4.50 70.0 180.0
5.96 5.96930 4.50 71.0750 178.333330
5.95 5.957560 4.50 72.150 176.666670
5.94 5.944920 4.50 73.2250 170.0
5.93 5.933180 4.50 74.30 163.333330
5.92 5.926860 4.50 74.566670 156.666670
5.91 5.920540 4.50 74.833330 150.0
5.90 5.90880 4.50 75.10 144.444440
5.89 5.896160 4.50 74.40 138.888890
5.88 5.884420 4.50 73.70 133.333330
5.87 5.87810 4.50 73.0 136.904760
5.86 5.871780 4.50 72.30 140.476190
5.85 5.859140 4.50 72.350 144.047620
5.84 5.84740 4.50 72.40 147.619050
5.83 5.834760 4.50 72.450 187.301590
5.82 5.823020 4.50 72.50 226.984130
5.81 5.81670 4.50 73.3750 266.666670
5.80 5.810380 4.50 74.250 245.0
5.79 5.798650 4.50 75.1250 223.333330
5.78 5.7860 4.50 76.0 201.666670
5.77 5.774270 4.50 74.333330 180.0
5.76 5.767950 4.50 72.666670 177.50
5.75 5.761630 4.50 71.0 175.0
5.74 5.749890 4.50 70.4250 172.50
5.73 5.737250 4.50 69.850 170.0
5.72 5.72460 4.50 69.2750 166.021510
5.71 5.712870 4.50 68.70 162.043010
5.70 5.706550 4.4750 70.9750 158.064520
5.69 5.700230 4.450 73.250 154.381720
5.68 5.687580 4.4250 75.5250 150.698920
5.67 5.675850 4.40 77.80 147.016130
5.66 5.664110 4.433330 76.566670 143.333330
5.65 5.657790 4.466670 75.333330 151.666670
5.64 5.651470 4.50 74.10 160.0
5.63 5.639730 4.50 73.650 168.333330
5.62 5.627090 4.50 73.20 176.666670
5.61 5.615350 4.50 72.750 177.777780
5.60 5.603610 4.50 72.30 178.888890
5.59 5.597740 4.50 73.150 180.0
5.58 5.591870 4.50 74.0 181.666670
5.57 5.579230 4.50 74.850 183.333330
5.56 5.567490 4.50 75.70 185.0
5.55 5.555760 4.50 74.433330 186.666670
5.54 5.544020 4.50 73.166670 191.666670
5.53 5.53770 4.50 71.90 196.666670
5.52 5.531380 4.50 71.8750 201.666670
5.51 5.519640 4.50 71.850 206.666670
5.50 5.5070 4.50 71.8250 192.222220
5.49 5.495260 4.50 71.80 177.777780
5.48 5.488940 4.466670 72.366670 163.333330
