~VERSION INFORMATION SECTION
VERS. 2.0 : CWLS LAS-VERSION 2.0
WRAP. NO : One line per depth step
~WELL INFORMATION SECTION
# MNEM.UNIT VALUE/NAME DESCRIPTION
#-------- -------------- ---------------------
STRT.Metres 16 : Start
STOP.Metres 0.39 : Stop
STEP.Metres -0.01 : Step
NULL.  -999.25 :NULL VALUE
DATE. 2025-19-11 : DATE
~CURVE INFORMATION SECTION
DEPTH.Metres : 0 Depth
Depth. : 1 Depth
Incline.Deg : 2 Incline
Azimuth.Deg : 3 Azimuth
GR.CPS : 4 GR
~PARAMETER INFORMATION SECTION
~OTHER
#-------------------------------------------------
#Produced By: GeoVista Logger - Version 7.1.107.0
Natural Gamma Sonde - 6447
Verticality Sonde - 6292
#-------------------------------------------------
~ASCII LOG DATA
# ...
13.95 13.951240 5.50 80.80 163.333330
13.94 13.941310 5.50 81.60 160.0
13.93 13.932280 5.50 82.40 156.666670
13.92 13.922350 5.50 83.20 168.888890
13.91 13.913320 5.50 83.266670 181.111110
13.90 13.904290 5.50 83.333330 193.333330
13.89 13.894360 5.50 83.40 168.888890
13.88 13.885330 5.50 83.20 144.444440
13.87 13.87540 5.50 83.0 120.0
13.86 13.865460 5.50 83.0 130.0
13.85 13.856430 5.50 83.0 140.0
13.84 13.84740 5.50 83.0 150.0
13.83 13.837470 5.533330 83.40 151.111110
13.82 13.827540 5.566670 83.80 152.222220
13.81 13.818510 5.60 84.20 153.333330
13.80 13.808580 5.566670 84.0 148.333330
13.79 13.799550 5.533330 83.80 143.333330
13.78 13.78510 5.50 83.60 142.222220
13.77 13.770650 5.50 82.733330 141.111110
13.76 13.760720 5.50 81.866670 140.0
13.75 13.750790 5.50 81.0 138.888890
13.74 13.741760 5.50 81.10 137.777780
13.73 13.731830 5.50 81.20 136.666670
13.72 13.72190 5.50 81.30 133.333330
13.71 13.711960 5.50 81.40 130.0
13.70 13.702030 5.50 81.50 126.666670
13.69 13.69120 5.50 81.60 138.41270
13.68 13.681260 5.450 81.20 150.158730
13.67 13.671330 5.40 80.80 161.904760
13.66 13.66140 5.433330 81.233330 141.269840
13.65 13.651470 5.466670 81.666670 120.634920
13.64 13.641530 5.50 82.10 100.0
13.63 13.63160 5.50 82.466670 112.903230
13.62 13.620770 5.50 82.833330 125.806450
13.61 13.610840 5.50 83.20 138.709680
13.60 13.60090 5.466670 83.033330 141.362010
13.59 13.590070 5.433330 82.866670 144.014340
13.58 13.580140 5.40 82.70 146.666670
13.57 13.57020 5.40 82.40 149.444440
13.56 13.565240 5.40 82.10 152.222220
13.55 13.560270 5.40 81.80 155.0
13.54 13.549440 5.40 81.666670 132.50
13.53 13.53950 5.40 81.533330 110.0
13.52 13.529570 5.40 81.40 120.0
13.51 13.519640 5.40 81.266670 130.0
13.50 13.50880 5.40 81.133330 140.0
13.49 13.498870 5.40 81.0 145.555560
13.48 13.488940 5.40 80.480 151.111110
13.47 13.479010 5.40 79.960 156.666670
13.46 13.468170 5.40 79.440 162.222220
13.45 13.458240 5.40 78.920 167.777780
13.44 13.448310 5.40 78.40 173.333330
13.43 13.437470 5.40 80.133330 162.222220
13.42 13.427540 5.40 81.866670 151.111110
13.41 13.417610 5.40 83.60 140.0
13.40 13.406770 5.40 82.433330 147.777780
13.39 13.396840 5.40 81.266670 155.555560
13.38 13.3860 5.40 80.10 163.333330
13.37 13.375170 5.433330 80.166670 167.619050
13.36 13.365240 5.466670 80.233330 171.904760
13.35 13.35440 5.50 80.30 176.190480
13.34 13.344470 5.50 79.633330 169.312170
13.33 13.334540 5.50 78.966670 162.433860
13.32 13.32460 5.50 78.30 155.555560
13.31 13.313770 5.466670 78.166670 149.444440
13.30 13.303840 5.433330 78.033330 143.333330
13.29 13.293910 5.40 77.90 151.111110
13.28 13.283970 5.4250 78.2750 158.888890
13.27 13.274940 5.450 78.650 166.666670
13.26 13.265010 5.4750 79.0250 161.111110
13.25 13.255080 5.50 79.40 155.555560
13.24 13.245150 5.466670 78.733330 150.0
13.23 13.235210 5.433330 78.066670 140.0
13.22 13.225280 5.40 77.40 130.0
13.21 13.215350 5.40 77.333330 120.0
13.20 13.205420 5.40 77.266670 130.0
13.19 13.195490 5.40 77.20 140.0
13.18 13.186460 5.40 78.466670 150.0
13.17 13.176520 5.40 79.733330 151.111110
13.16 13.166590 5.40 81.0 152.222220
13.15 13.156660 5.40 79.966670 153.333330
13.14 13.146730 5.40 78.933330 156.666670
13.13 13.136790 5.40 77.90 160.0
13.12 13.126860 5.40 79.166670 163.333330
13.11 13.116930 5.40 80.433330 163.484850
13.10 13.1070 5.40 81.70 163.636360
13.09 13.097970 5.40 81.0 170.757580
13.08 13.088040 5.40 80.30 177.878790
13.07 13.07810 5.40 79.60 185.0
13.06 13.068170 5.40 79.733330 184.444440
13.05 13.058240 5.40 79.866670 183.888890
13.04 13.048310 5.40 80.0 183.333330
13.03 13.038370 5.40 80.550 175.555560
13.02 13.028440 5.40 81.10 167.777780
13.01 13.018510 5.40 79.70 160.0
13.00 13.009480 5.40 78.30 174.444440
12.99 12.999550 5.40 76.90 188.888890
12.98 12.989620 5.40 77.433330 203.333330
12.97 12.979680 5.40 77.966670 210.0
12.96 12.969750 5.40 78.50 216.666670
12.95 12.959820 5.366670 80.10 223.333330
12.94 12.949890 5.333330 81.70 223.333330
12.93 12.934990 5.30 83.30 223.333330
12.92 12.920990 5.333330 82.50 242.222220
12.91 12.911060 5.366670 81.70 261.111110
12.90 12.901130 5.40 80.90 280.0
12.89 12.89120 5.40 80.466670 241.666670
12.88 12.881260 5.40 80.033330 203.333330
12.87 12.871330 5.40 79.60 165.0
12.86 12.86140 5.40 80.433330 149.393940
12.85 12.851470 5.40 81.266670 133.787880
12.84 12.841530 5.40 82.10 118.181820
12.83 12.83160 5.366670 81.566670 126.15630
12.82 12.821670 5.333330 81.033330 134.130780
12.81 12.811740 5.30 80.50 142.105260
12.80 12.801810 5.333330 80.0 151.403510
12.79 12.791870 5.366670 79.50 160.701750
12.78 12.781940 5.40 79.0 170.0
12.77 12.772010 5.366670 79.466670 163.333330
12.76 12.762080 5.333330 79.933330 156.666670
12.75 12.752140 5.30 80.40 150.0
12.74 12.742210 5.333330 79.966670 148.888890
12.73 12.732280 5.366670 79.533330 147.777780
12.72 12.722350 5.40 79.10 146.666670
12.71 12.712420 5.366670 78.533330 155.555560
12.70 12.701580 5.333330 77.966670 164.444440
12.69 12.691650 5.30 77.40 173.333330
12.68 12.681720 5.30 79.050 166.666670
12.67 12.671780 5.30 80.70 160.0
12.66 12.661850 5.30 80.333330 153.333330
12.65 12.651920 5.30 79.966670 158.333330
12.64 12.641990 5.30 79.60 163.333330
12.63 12.632050 5.30 79.633330 168.333330
12.62 12.622120 5.30 79.666670 173.333330
12.61 12.612190 5.30 79.70 174.444440
12.60 12.602260 5.30 79.433330 175.555560
12.59 12.592330 5.30 79.166670 176.666670
12.58 12.582390 5.30 78.90 177.777780
12.57 12.572460 5.333330 78.466670 178.888890
12.56 12.562530 5.366670 78.033330 180.0
12.55 12.551690 5.40 77.60 176.666670
12.54 12.541760 5.333330 79.0 173.333330
12.53 12.531830 5.266670 80.40 170.0
12.52 12.52190 5.20 81.80 175.698920
12.51 12.511960 5.20 81.533330 181.397850
12.50 12.502030 5.20 81.266670 187.096770
12.49 12.49210 5.20 81.0 171.397850
12.48 12.481260 5.20 80.733330 155.698920
12.47 12.471330 5.20 80.466670 140.0
12.46 12.46140 5.20 80.20 155.0
12.45 12.451470 5.20 79.666670 170.0
12.44 12.441530 5.20 79.133330 146.666670
12.43 12.43160 5.20 78.60 123.333330
12.42 12.421670 5.20 79.633330 100.0
12.41 12.411740 5.20 80.666670 110.0
12.40 12.401810 5.20 81.70 120.0
12.39 12.391870 5.20 80.766670 130.0
12.38 12.381940 5.20 79.833330 140.0
12.37 12.372010 5.20 78.90 150.0
12.36 12.362080 5.233330 78.40 160.0
12.35 12.352140 5.266670 77.90 146.666670
12.34 12.342210 5.30 77.40 133.333330
12.33 12.332280 5.266670 78.666670 120.0
12.32 12.322350 5.233330 79.933330 130.0
12.31 12.312420 5.20 81.20 140.0
12.30 12.302480 5.233330 81.266670 150.0
12.29 12.292550 5.266670 81.333330 162.222220
12.28 12.283520 5.30 81.40 174.444440
12.27 12.273590 5.30 80.666670 186.666670
12.26 12.263660 5.30 79.933330 168.888890
12.25 12.253720 5.30 79.20 151.111110
12.24 12.243790 5.30 78.366670 133.333330
12.23 12.233860 5.30 77.533330 140.0
12.22 12.223930 5.30 76.70 146.666670
12.21 12.2140 5.30 77.666670 153.333330
12.20 12.204970 5.30 78.633330 147.777780
12.19 12.195030 5.30 79.60 142.222220
12.18 12.18510 5.30 78.966670 136.666670
12.17 12.175170 5.30 78.333330 144.444440
12.16 12.165240 5.30 77.70 152.222220
12.15 12.15530 5.266670 76.966670 160.0
12.14 12.145370 5.233330 76.233330 150.0
12.13 12.135440 5.20 75.50 140.0
12.12 12.125510 5.233330 77.50 148.888890
12.11 12.115580 5.266670 79.50 157.777780
12.10 12.106550 5.30 81.50 166.666670
12.09 12.096610 5.266670 81.20 148.888890
12.08 12.086680 5.233330 80.90 131.111110
12.07 12.076750 5.20 80.60 113.333330
12.06 12.066820 5.20 79.40 116.666670
12.05 12.056880 5.20 78.20 120.0
12.04 12.046950 5.20 77.0 123.333330
12.03 12.037020 5.20 77.30 127.777780
12.02 12.027090 5.20 77.60 132.222220
12.01 12.016250 5.20 77.90 136.666670
12.00 12.006320 5.20 77.133330 134.444440
11.99 11.996390 5.20 76.366670 132.222220
11.98 11.986460 5.20 75.60 130.0
11.97 11.975620 5.166670 76.033330 123.225810
11.96 11.965690 5.133330 76.466670 116.451610
11.95 11.955760 5.10 76.90 109.677420
11.94 11.945820 5.166670 77.20 113.118280
11.93 11.934990 5.233330 77.50 116.559140
11.92 11.925060 5.30 77.80 120.0
11.91 11.915120 5.30 78.50 134.444440
