~VERSION INFORMATION SECTION
VERS. 2.0 : CWLS LAS-VERSION 2.0
WRAP. NO : One line per depth step
~WELL INFORMATION SECTION
# MNEM.UNIT VALUE/NAME DESCRIPTION
#-------- -------------- ---------------------
STRT.Metres 16 : Start
STOP.Metres 0.39 : Stop
STEP.Metres -0.01 : Step
NULL.  -999.25 :NULL VALUE
DATE. 2025-19-11 : DATE
~CURVE INFORMATION SECTION
DEPTH.Metres : 0 Depth
Depth. : 1 Depth
Incline.Deg : 2 Incline
Azimuth.Deg : 3 Azimuth
GR.CPS : 4 GR
~PARAMETER INFORMATION SECTION
~OTHER
#-------------------------------------------------
#Produced By: GeoVista Logger - Version 7.1.107.0
Natural Gamma Sonde - 6447
Verticality Sonde - 6292
#-------------------------------------------------
~ASCII LOG DATA
16.00 -999.25 -999.25 -999.25 -999.25
15.99 15.994580 1.320 16.360 155.0
15.98 15.981040 2.640 32.720 170.0
15.97 15.972910 3.960 49.080 150.0
15.96 15.963880 5.280 65.440 130.0
15.95 15.954850 6.60 81.80 143.333330
15.94 15.946730 6.566670 82.166670 156.666670
15.93 15.93770 6.533330 82.533330 138.333330
15.92 15.928670 6.50 82.90 120.0
15.91 15.915120 6.50 82.814290 130.0
15.90 15.902480 6.50 82.728570 140.0
15.89 15.893450 6.50 82.642860 140.0
15.88 15.885330 6.50 82.557140 140.0
15.87 15.87720 6.50 82.471430 120.0
15.86 15.864110 6.50 82.385710 100.0
15.85 15.851020 6.50 82.30 110.0
15.84 15.842890 6.50 82.166670 120.0
15.83 15.833860 6.50 82.033330 161.666670
15.82 15.824830 6.50 81.90 203.333330
15.81 15.81670 6.50 82.633330 158.333330
15.80 15.807670 6.50 83.366670 113.333330
15.79 15.795030 6.50 84.10 138.333330
15.78 15.782390 6.450 83.750 163.333330
15.77 15.773360 6.40 83.40 156.666670
15.76 15.764330 6.433330 83.466670 150.0
15.75 15.75530 6.466670 83.533330 128.333330
15.74 15.746280 6.50 83.60 106.666670
15.73 15.737250 6.466670 83.266670 115.0
15.72 15.724150 6.433330 82.933330 123.333330
15.71 15.711060 6.40 82.60 140.0
15.70 15.702030 6.40 82.150 156.666670
15.69 15.6930 6.40 81.70 133.333330
15.68 15.683970 6.40 81.766670 144.166670
15.67 15.675850 6.40 81.833330 155.0
15.66 15.666820 6.40 81.90 142.50
15.65 15.657790 6.366670 81.666670 130.0
15.64 15.648760 6.333330 81.433330 137.777780
15.63 15.635210 6.30 81.20 145.555560
15.62 15.621670 6.350 82.350 153.333330
15.61 15.612640 6.40 83.50 128.333330
15.60 15.602710 6.40 83.333330 103.333330
15.59 15.592780 6.40 83.166670 115.0
15.58 15.583750 6.40 83.0 126.666670
15.57 15.573810 6.350 81.550 123.333330
15.56 15.564790 6.30 80.10 120.0
15.55 15.556660 6.333330 81.566670 130.0
15.54 15.547630 6.366670 83.033330 140.0
15.53 15.534540 6.40 84.50 150.0
15.52 15.521440 6.40 83.80 138.333330
15.51 15.512420 6.40 83.10 126.666670
15.50 15.504290 6.40 82.40 121.111110
15.49 15.495260 6.40 80.40 115.555560
15.48 15.486230 6.40 78.40 110.0
15.47 15.47720 6.380 79.30 123.333330
15.46 15.464560 6.360 80.20 136.666670
15.45 15.451020 6.340 81.10 145.555560
15.44 15.441990 6.320 82.0 154.444440
15.43 15.432960 6.30 82.90 163.333330
15.42 15.423020 6.333330 81.366670 139.166670
15.41 15.4140 6.366670 79.833330 115.0
15.40 15.404060 6.40 78.30 120.0
15.39 15.395030 6.366670 78.80 125.0
15.38 15.38510 6.333330 79.30 130.0
15.37 15.376070 6.30 79.80 141.212120
15.36 15.366140 6.30 81.666670 152.424240
15.35 15.357110 6.30 83.533330 163.636360
15.34 15.347180 6.30 85.40 160.765550
15.33 15.337250 6.20 84.90 157.894740
15.32 15.328220 6.10 84.40 147.485380
15.31 15.318280 6.10 82.133330 137.076020
15.30 15.309260 6.10 79.866670 126.666670
15.29 15.299320 6.10 77.60 144.444440
15.28 15.284880 6.133330 80.733330 162.222220
15.27 15.270430 6.166670 83.866670 180.0
15.26 15.26140 6.20 87.0 180.909090
15.25 15.251470 6.20 85.750 181.818180
15.24 15.241530 6.20 84.50 158.054230
15.23 15.232510 6.20 83.40 134.290270
15.22 15.222570 6.20 82.30 110.526320
15.21 15.213540 6.20 81.20 113.469160
15.20 15.203610 6.166670 81.766670 116.4120
15.19 15.193680 6.133330 82.333330 119.354840
15.18 15.184650 6.10 82.90 136.344090
15.17 15.174720 6.10 82.0 153.333330
15.16 15.165690 6.10 81.10 156.666670
15.15 15.155760 6.066670 81.50 160.0
15.14 15.145820 6.033330 81.90 163.333330
15.13 15.136790 6.0 82.30 151.666670
15.12 15.126860 6.033330 82.166670 140.0
15.11 15.117830 6.066670 82.033330 145.555560
15.10 15.10790 6.10 81.90 151.111110
15.09 15.097970 6.10 82.266670 156.666670
15.08 15.088940 6.10 82.633330 142.222220
15.07 15.079010 6.10 83.0 127.777780
15.06 15.065010 6.10 82.966670 113.333330
15.05 15.050110 6.10 82.933330 148.333330
15.04 15.041080 6.10 82.90 183.333330
15.03 15.031150 6.10 83.066670 153.333330
15.02 15.021220 6.10 83.233330 123.333330
15.01 15.012190 6.10 83.40 93.333330
15.00 15.002260 6.10 83.50 125.0
14.99 14.993230 6.10 83.60 156.666670
14.98 14.98330 6.066670 83.0 151.111110
14.97 14.974270 6.033330 82.40 145.555560
14.96 14.964330 6.0 81.80 140.0
14.95 14.95530 6.033330 81.90 145.555560
14.94 14.945370 6.066670 82.0 151.111110
14.93 14.936340 6.10 82.10 156.666670
14.92 14.926410 6.10 81.933330 183.333330
14.91 14.917380 6.10 81.766670 210.0
14.90 14.907450 6.10 81.60 202.222220
14.89 14.897520 6.10 81.666670 194.444440
14.88 14.888490 6.10 81.733330 186.666670
14.87 14.878560 6.10 81.80 176.666670
14.86 14.869530 6.10 81.866670 166.666670
14.85 14.855080 6.10 81.933330 156.666670
14.84 14.840630 6.10 82.0 141.96970
14.83 14.83070 6.10 82.033330 127.272730
14.82 14.821670 6.10 82.066670 142.743220
14.81 14.811740 6.10 82.10 158.213720
14.80 14.802710 6.066670 81.966670 173.684210
14.79 14.792780 6.033330 81.833330 172.456140
14.78 14.783750 6.0 81.70 171.228070
14.77 14.773810 6.050 83.0 170.0
14.76 14.764790 6.10 84.30 175.0
14.75 14.754850 6.066670 83.833330 180.0
14.74 14.745820 6.033330 83.366670 170.0
14.73 14.735890 6.0 82.90 160.0
14.72 14.726860 6.0 81.80 150.0
14.71 14.716930 6.0 80.70 139.784950
14.70 14.70790 6.0 79.60 129.569890
14.69 14.697970 5.966670 81.933330 119.354840
14.68 14.688040 5.933330 84.266670 144.014340
14.67 14.679010 5.90 86.60 168.673840
14.66 14.665010 5.90 86.30 193.333330
14.65 14.650110 5.90 86.0 168.333330
14.64 14.641080 5.90 85.70 143.333330
14.63 14.631150 5.866670 85.0 134.444440
14.62 14.622120 5.833330 84.30 125.555560
14.61 14.612190 5.80 83.60 116.666670
14.60 14.603160 5.80 82.733330 128.333330
14.59 14.593230 5.80 81.866670 140.0
14.58 14.58330 5.80 81.0 141.111110
14.57 14.574270 5.850 83.90 142.222220
14.56 14.564330 5.90 86.80 143.333330
14.55 14.55440 5.90 86.466670 162.222220
14.54 14.544470 5.90 86.133330 181.111110
14.53 14.535440 5.90 85.80 200.0
14.52 14.525510 5.866670 84.10 186.666670
14.51 14.515580 5.833330 82.40 173.333330
14.50 14.505640 5.80 80.70 160.0
14.49 14.495710 5.80 82.866670 146.666670
14.48 14.485780 5.80 85.033330 133.333330
14.47 14.475850 5.80 87.20 120.0
14.46 14.466820 5.80 86.60 124.444440
14.45 14.456880 5.80 86.0 128.888890
14.44 14.446950 5.80 85.40 133.333330
14.43 14.437920 5.80 84.233330 126.666670
14.42 14.427990 5.80 83.066670 120.0
14.41 14.418960 5.80 81.90 113.333330
14.40 14.409030 5.766670 82.633330 138.333330
14.39 14.395030 5.733330 83.366670 163.333330
14.38 14.381040 5.70 84.10 152.222220
14.37 14.371110 5.70 86.550 141.111110
14.36 14.361170 5.70 89.0 130.0
14.35 14.352140 5.733330 86.366670 146.666670
14.34 14.342210 5.766670 83.733330 163.333330
14.33 14.332280 5.80 81.10 180.0
14.32 14.323250 5.766670 81.233330 172.222220
14.31 14.313320 5.733330 81.366670 164.444440
14.30 14.303390 5.70 81.50 156.666670
14.29 14.294360 5.633330 82.933330 175.555560
14.28 14.284420 5.566670 84.366670 194.444440
14.27 14.27540 5.50 85.80 213.333330
14.26 14.265460 5.533330 85.866670 217.97980
14.25 14.255530 5.566670 85.933330 222.626260
14.24 14.24650 5.60 86.0 227.272730
14.23 14.236570 5.60 86.066670 200.637960
14.22 14.227540 5.60 86.133330 174.003190
14.21 14.217610 5.60 86.20 147.368420
14.20 14.207670 5.60 86.10 168.684210
14.19 14.198650 5.60 86.0 190.0
14.18 14.188710 5.60 85.90 186.881720
14.17 14.179680 5.60 83.933330 183.763440
14.16 14.165240 5.60 81.966670 180.645160
14.15 14.150790 5.60 80.0 164.874550
14.14 14.140860 5.60 80.866670 149.103940
14.13 14.131830 5.60 81.733330 133.333330
14.12 14.12190 5.60 82.60 141.111110
14.11 14.112870 5.60 82.90 148.888890
14.10 14.103840 5.60 83.20 156.666670
14.09 14.093910 5.60 82.60 162.222220
14.08 14.084880 5.60 82.0 167.777780
14.07 14.074940 5.60 81.40 173.333330
14.06 14.065910 5.60 81.80 170.0
14.05 14.055980 5.60 82.20 166.666670
14.04 14.046950 5.60 82.60 163.333330
14.03 14.037020 5.60 81.966670 154.444440
14.02 14.027990 5.60 81.333330 145.555560
14.01 14.018060 5.60 80.70 136.666670
14.00 14.008130 5.60 81.666670 141.666670
13.99 13.99910 5.60 82.633330 146.666670
13.98 13.984650 5.60 83.60 153.333330
13.97 13.97020 5.566670 82.666670 160.0
13.96 13.961170 5.533330 81.733330 166.666670
