~VERSION INFORMATION SECTION
VERS. 2.0 : CWLS LAS-VERSION 2.0
WRAP. NO : One line per depth step
~WELL INFORMATION SECTION
# MNEM.UNIT VALUE/NAME DESCRIPTION
#-------- -------------- ---------------------
STRT.Metres 16 : Start
STOP.Metres 0.39 : Stop
STEP.Metres -0.01 : Step
NULL.  -999.25 :NULL VALUE
DATE. 2025-19-11 : DATE
~CURVE INFORMATION SECTION
DEPTH.Metres : 0 Depth
Depth. : 1 Depth
Incline.Deg : 2 Incline
Azimuth.Deg : 3 Azimuth
GR.CPS : 4 GR
~PARAMETER INFORMATION SECTION
~OTHER
#-------------------------------------------------
#Produced By: GeoVista Logger - Version 7.1.107.0
Natural Gamma Sonde - 6447
Verticality Sonde - 6292
#-------------------------------------------------
~ASCII LOG DATA
# ...
5.47 5.482620 4.433330 72.933330 160.0
5.46 5.469980 4.40 73.50 156.666670
5.45 5.458240 4.4250 73.6250 153.333330
5.44 5.44560 4.450 73.750 150.0
5.43 5.433860 4.4750 73.8750 154.166670
5.42 5.427540 4.50 74.0 158.333330
5.41 5.421220 4.50 74.0250 162.50
5.40 5.409480 4.50 74.050 166.666670
5.39 5.396840 4.50 74.0750 163.333330
5.38 5.38420 4.50 74.10 160.0
5.37 5.378330 4.50 73.40 156.666670
5.36 5.372460 4.50 72.70 165.833330
5.35 5.359820 4.50 72.0 175.0
5.34 5.348080 4.50 71.30 184.166670
5.33 5.335440 4.50 71.666670 193.333330
5.32 5.32280 4.50 72.033330 190.833330
5.31 5.316930 4.50 72.40 188.333330
5.30 5.311060 4.50 72.4250 185.833330
5.29 5.298420 4.50 72.450 183.333330
5.28 5.285780 4.50 72.4750 169.166670
5.27 5.274040 4.50 72.50 155.0
5.26 5.267720 4.466670 72.933330 140.833330
5.25 5.26140 4.433330 73.366670 126.666670
5.24 5.248760 4.40 73.80 144.444440
5.23 5.237020 4.40 73.0 162.222220
5.22 5.224380 4.40 72.20 180.0
5.21 5.218510 4.40 71.40 189.166670
5.20 5.212640 4.40 70.60 198.333330
5.19 5.20 4.40 71.150 207.50
5.18 5.187360 4.40 71.70 216.666670
5.17 5.175620 4.40 72.250 206.666670
5.16 5.162980 4.40 72.80 196.666670
5.15 5.157110 4.40 72.80 186.666670
5.14 5.151240 4.40 72.80 176.666670
5.13 5.13860 4.40 72.80 182.222220
5.12 5.125960 4.3750 72.30 187.777780
5.11 5.114220 4.350 71.80 193.333330
5.10 5.108350 4.3250 71.30 175.833330
5.09 5.102480 4.30 70.80 158.333330
5.08 5.089840 4.30 71.0750 140.833330
5.07 5.07810 4.30 71.350 123.333330
5.06 5.065460 4.30 71.6250 128.333330
5.05 5.053720 4.30 71.90 133.333330
5.04 5.04740 4.30 71.80 138.333330
5.03 5.041080 4.30 71.70 143.333330
5.02 5.029350 4.30 71.60 155.555560
5.01 5.01670 4.30 70.9250 167.777780
5.00 5.004970 4.30 70.250 180.0
4.99 4.992330 4.30 69.5750 180.0
4.98 4.986460 4.30 68.90 180.0
4.97 4.980590 4.2750 70.2250 180.0
4.96 4.967950 4.250 71.550 180.0
4.95 4.956210 4.2250 72.8750 175.0
4.94 4.943570 4.20 74.20 170.0
4.93 4.93770 4.20 73.033330 165.0
4.92 4.931830 4.20 71.866670 160.0
4.91 4.919190 4.20 70.70 153.333330
4.90 4.907450 4.20 71.2250 146.666670
4.89 4.894810 4.20 71.750 140.0
4.88 4.883070 4.20 72.2750 146.666670
4.87 4.876750 4.20 72.80 153.333330
4.86 4.870430 4.1750 73.5250 160.0
4.85 4.858690 4.150 74.250 166.666670
4.84 4.846950 4.1250 74.9750 160.0
4.83 4.834310 4.10 75.70 153.333330
4.82 4.828440 4.133330 74.433330 146.666670
4.81 4.822570 4.166670 73.166670 140.0
4.80 4.809930 4.20 71.90 150.0
4.79 4.797290 4.20 71.850 160.0
4.78 4.785550 4.20 71.80 170.0
4.77 4.772910 4.20 71.750 170.833330
4.76 4.767040 4.20 71.70 171.666670
4.75 4.761170 4.20 72.150 172.50
4.74 4.748530 4.20 72.60 173.333330
4.73 4.735890 4.20 73.050 177.50
4.72 4.724150 4.20 73.50 181.666670
4.71 4.717830 4.20 72.966670 185.833330
4.70 4.711510 4.20 72.433330 190.0
4.69 4.699770 4.20 71.90 161.58730
4.68 4.687130 4.20 72.1250 133.17460
4.67 4.674490 4.20 72.350 104.76190
4.66 4.662750 4.20 72.5750 117.460320
4.65 4.656430 4.20 72.80 130.158730
4.64 4.650110 4.20 72.850 142.857140
4.63 4.638370 4.20 72.90 155.555560
4.62 4.625730 4.20 72.950 147.037040
4.61 4.613090 4.20 73.0 138.518520
4.60 4.606770 4.20 71.833330 130.0
4.59 4.600450 4.20 70.666670 131.666670
4.58 4.587810 4.20 69.50 133.333330
4.57 4.576070 4.20 70.20 135.0
4.56 4.563430 4.20 70.90 136.666670
4.55 4.557110 4.20 71.60 145.833330
4.54 4.550790 4.20 72.30 155.0
4.53 4.538150 4.20 72.4250 164.166670
4.52 4.526410 4.20 72.550 173.333330
4.51 4.513770 4.20 72.6750 177.460320
4.50 4.50790 4.20 72.80 181.58730
4.49 4.502030 4.20 72.50 185.714290
4.48 4.489390 4.20 72.20 186.507940
4.47 4.477650 4.20 71.90 187.301590
4.46 4.465910 4.20 71.8250 188.095240
4.45 4.453270 4.20 71.750 188.888890
4.44 4.44740 4.20 71.6750 170.0
4.43 4.441530 4.20 71.60 151.111110
4.42 4.42980 4.1750 71.750 132.222220
4.41 4.417160 4.150 71.90 113.333330
4.40 4.405420 4.1250 72.050 120.0
4.39 4.393680 4.10 72.20 126.666670
4.38 4.387360 4.10 72.066670 133.333330
4.37 4.381040 4.10 71.933330 140.0
4.36 4.36840 4.10 71.80 150.0
4.35 4.356660 4.050 71.7250 160.0
4.34 4.344020 4.0 71.650 170.0
4.33 4.338150 3.950 71.5750 168.629030
4.32 4.332280 3.90 71.50 167.258060
4.31 4.319640 3.950 72.250 165.88710
4.30 4.3070 4.0 73.0 164.516130
4.29 4.295260 4.050 73.750 160.88710
4.28 4.282620 4.10 74.50 157.258060
4.27 4.276750 4.10 74.450 153.629030
4.26 4.270880 4.10 74.40 150.0
4.25 4.258240 4.10 74.350 154.444440
4.24 4.24560 4.10 74.30 158.888890
4.23 4.233860 4.10 73.466670 163.333330
4.22 4.227540 4.10 72.633330 157.50
4.21 4.221220 4.10 71.80 151.666670
4.20 4.209480 4.1250 72.0 145.833330
4.19 4.196840 4.150 72.20 140.0
4.18 4.18510 4.1750 72.40 142.50
4.17 4.172460 4.20 72.60 145.0
4.16 4.166590 4.166670 71.833330 147.50
4.15 4.160720 4.133330 71.066670 150.0
4.14 4.148980 4.10 70.30 135.555560
4.13 4.136340 4.10 70.80 121.111110
4.12 4.12460 4.10 71.30 106.666670
4.11 4.111960 4.10 71.80 120.0
4.10 4.106090 4.10 72.30 133.333330
4.09 4.100230 4.0750 72.2750 146.666670
4.08 4.087580 4.050 72.250 160.0
4.07 4.075850 4.0250 72.2250 161.666670
4.06 4.063210 4.0 72.20 163.333330
4.05 4.057340 4.0250 72.450 165.0
4.04 4.051470 4.050 72.70 166.666670
4.03 4.038830 4.0750 72.950 155.555560
4.02 4.027090 4.10 73.20 144.444440
4.01 4.015350 4.066670 73.20 133.333330
4.00 4.002710 4.033330 73.20 147.50
3.99 3.996840 4.0 73.20 161.666670
3.98 3.990970 4.0250 73.0 175.833330
3.97 3.978330 4.050 72.80 190.0
3.96 3.966590 4.0750 72.60 178.888890
3.95 3.953950 4.10 72.40 167.777780
3.94 3.948080 4.10 72.50 156.666670
3.93 3.942210 4.10 72.60 156.666670
3.92 3.929570 4.10 72.70 156.666670
3.91 3.917830 4.10 72.80 156.666670
3.90 3.905190 4.10 72.466670 156.666670
3.89 3.893450 4.10 72.133330 158.333330
3.88 3.887130 4.10 71.80 160.0
3.87 3.880810 4.10 72.1750 161.666670
3.86 3.869070 4.10 72.550 163.333330
3.85 3.856430 4.10 72.9250 166.666670
3.84 3.84470 4.10 73.30 170.0
3.83 3.832050 4.10 72.966670 173.333330
3.82 3.826190 4.10 72.633330 172.50
3.81 3.820320 4.10 72.30 171.666670
3.80 3.807670 4.10 72.0 170.833330
3.79 3.795940 4.10 71.70 170.0
3.78 3.78330 4.10 71.40 185.833330
3.77 3.777430 4.10 71.10 201.666670
3.76 3.771560 4.10 71.750 217.50
3.75 3.758920 4.10 72.40 233.333330
3.74 3.746280 4.10 73.050 216.666670
3.73 3.734540 4.10 73.70 200.0
3.72 3.72190 4.10 72.60 183.333330
3.71 3.716030 4.10 71.50 166.666670
3.70 3.710160 4.10 70.40 162.222220
3.69 3.697520 4.10 71.050 157.777780
3.68 3.684880 4.10 71.70 153.333330
3.67 3.678560 4.10 72.350 161.666670
3.66 3.672230 4.10 73.0 170.0
3.65 3.659590 4.0750 73.3250 178.333330
3.64 3.647860 4.050 73.650 186.666670
3.63 3.635210 4.0250 73.9750 184.354840
3.62 3.622570 4.0 74.30 182.043010
3.61 3.61670 3.966670 74.366670 179.731180
3.60 3.610840 3.933330 74.433330 177.419350
3.59 3.598190 3.90 74.50 186.057350
3.58 3.585550 3.9250 73.4750 194.695340
3.57 3.573810 3.950 72.450 203.333330
3.56 3.567490 3.9750 71.4250 199.166670
3.55 3.561170 4.0 70.40 195.0
3.54 3.548530 3.9750 70.3750 190.833330
3.53 3.536790 3.950 70.350 186.666670
3.52 3.524150 3.9250 70.3250 179.166670
3.51 3.517830 3.90 70.30 171.666670
3.50 3.511510 3.90 71.40 164.166670
3.49 3.498870 3.90 72.50 156.666670
3.48 3.487130 3.90 73.60 158.888890
3.47 3.474490 3.90 73.0250 161.111110
3.46 3.468170 3.90 72.450 163.333330
3.45 3.461850 3.90 71.8750 174.166670
3.44 3.449210 3.90 71.30 185.0
3.43 3.436570 3.90 71.7250 195.833330
3.42 3.423930 3.90 72.150 206.666670
3.41 3.417610 3.90 72.5750 216.666670
3.40 3.411290 3.90 73.0 226.666670
3.39 3.398650 3.8750 72.70 236.666670
3.38 3.3860 3.850 72.40 246.666670
3.37 3.373360 3.8250 72.10 221.111110
3.36 3.367490 3.80 71.80 195.555560
3.35 3.361630 3.833330 71.933330 170.0
3.34 3.348980 3.866670 72.066670 169.166670
3.33 3.336340 3.90 72.20 168.333330
3.32 3.32460 3.90 72.5250 167.50
3.31 3.311960 3.90 72.850 166.666670
3.30 3.306090 3.90 73.1750 165.0
3.29 3.300230 3.90 73.50 163.333330
3.28 3.287580 3.90 73.250 161.666670
3.27 3.275850 3.90 73.0 160.0
3.26 3.263210 3.90 72.750 176.507940
3.25 3.257340 3.90 72.50 193.015870
