~VERSION INFORMATION SECTION
VERS. 2.0 : CWLS LAS-VERSION 2.0
WRAP. NO : One line per depth step
~WELL INFORMATION SECTION
# MNEM.UNIT VALUE/NAME DESCRIPTION
#-------- -------------- ---------------------
STRT.Metres 16 : Start
STOP.Metres 0.39 : Stop
STEP.Metres -0.01 : Step
NULL.  -999.25 :NULL VALUE
DATE. 2025-19-11 : DATE
~CURVE INFORMATION SECTION
DEPTH.Metres : 0 Depth
Depth. : 1 Depth
Incline.Deg : 2 Incline
Azimuth.Deg : 3 Azimuth
GR.CPS : 4 GR
~PARAMETER INFORMATION SECTION
~OTHER
#-------------------------------------------------
#Produced By: GeoVista Logger - Version 7.1.107.0
Natural Gamma Sonde - 6447
Verticality Sonde - 6292
#-------------------------------------------------
~ASCII LOG DATA
# ...
11.90 11.905190 5.30 79.20 148.888890
11.89 11.894360 5.30 79.90 163.333330
11.88 11.884420 5.30 79.0 140.0
11.87 11.874490 5.30 78.10 116.666670
11.86 11.864560 5.30 77.20 93.333330
11.85 11.854630 5.333330 75.266670 112.222220
11.84 11.843790 5.366670 73.333330 131.111110
11.83 11.833860 5.40 71.40 150.0
11.82 11.823930 5.366670 72.80 144.444440
11.81 11.813090 5.333330 74.20 138.888890
11.80 11.803160 5.30 75.60 133.333330
11.79 11.793230 5.30 77.566670 131.111110
11.78 11.782390 5.30 79.533330 128.888890
11.77 11.772460 5.30 81.50 126.666670
11.76 11.762530 5.30 80.40 143.333330
11.75 11.751690 5.30 79.30 160.0
11.74 11.741760 5.30 78.20 176.666670
11.73 11.731830 5.333330 76.333330 174.444440
11.72 11.720990 5.366670 74.466670 172.222220
11.71 11.711060 5.40 72.60 170.0
11.70 11.701130 5.40 73.60 158.888890
11.69 11.690290 5.40 74.60 147.777780
11.68 11.680360 5.40 75.60 136.666670
11.67 11.67540 5.366670 77.20 131.111110
11.66 11.670430 5.333330 78.80 125.555560
11.65 11.659590 5.30 80.40 120.0
11.64 11.649660 5.30 79.433330 125.555560
11.63 11.638830 5.30 78.466670 131.111110
11.62 11.628890 5.30 77.50 136.666670
11.61 11.618060 5.30 76.366670 136.666670
11.60 11.608130 5.30 75.233330 136.666670
11.59 11.597290 5.30 74.10 136.666670
11.58 11.586460 5.30 74.30 134.444440
11.57 11.575620 5.30 74.50 132.222220
11.56 11.564790 5.30 74.70 130.0
11.55 11.554850 5.30 76.0 135.555560
11.54 11.544020 5.30 77.30 141.111110
11.53 11.533180 5.30 78.60 146.666670
11.52 11.522350 5.30 78.90 143.809520
11.51 11.511510 5.30 79.20 140.952380
11.50 11.501580 5.30 79.50 138.095240
11.49 11.496160 5.30 79.033330 166.137570
11.48 11.490740 5.30 78.566670 194.179890
11.47 11.479910 5.30 78.10 222.222220
11.46 11.469070 5.30 77.633330 197.037040
11.45 11.458240 5.30 77.166670 171.851850
11.44 11.44740 5.30 76.70 146.666670
11.43 11.436570 5.366670 76.833330 137.777780
11.42 11.426640 5.433330 76.966670 128.888890
11.41 11.41580 5.50 77.10 120.0
11.40 11.404970 5.466670 77.266670 136.989250
11.39 11.394130 5.433330 77.433330 153.978490
11.38 11.38330 5.40 77.60 170.967740
11.37 11.372460 5.450 76.90 145.089610
11.36 11.362530 5.50 76.20 119.211470
11.35 11.351690 5.550 75.50 93.333330
11.34 11.340860 5.60 74.80 96.666670
11.33 11.330020 5.566670 74.20 100.0
11.32 11.325060 5.533330 73.60 103.333330
11.31 11.320090 5.50 73.0 111.111110
11.30 11.309260 5.50 75.366670 118.888890
11.29 11.298420 5.50 77.733330 126.666670
11.28 11.288490 5.50 80.10 128.888890
11.27 11.277650 5.50 79.20 131.111110
11.26 11.266820 5.50 78.30 133.333330
11.25 11.256880 5.50 77.40 142.222220
11.24 11.246050 5.50 76.133330 151.111110
11.23 11.235210 5.50 74.866670 160.0
11.22 11.225280 5.50 73.60 150.0
11.21 11.214450 5.50 74.40 140.0
11.20 11.204510 5.50 75.20 130.0
11.19 11.193680 5.50 76.0 121.111110
11.18 11.182840 5.50 76.30 112.222220
11.17 11.172910 5.50 76.60 103.333330
11.16 11.162080 5.50 76.90 115.555560
11.15 11.152140 5.50 77.20 127.777780
11.14 11.141310 5.50 77.733330 140.0
11.13 11.131380 5.50 78.266670 141.111110
11.12 11.125960 5.50 78.80 142.222220
11.11 11.120540 5.466670 78.20 143.333330
11.10 11.109710 5.433330 77.60 150.0
11.09 11.099770 5.40 77.0 156.666670
11.08 11.088940 5.40 77.166670 163.333330
11.07 11.07810 5.40 77.333330 161.111110
11.06 11.068170 5.40 77.50 158.888890
11.05 11.057340 5.433330 77.733330 156.666670
11.04 11.04740 5.466670 77.966670 156.666670
11.03 11.036570 5.50 78.20 156.666670
11.02 11.025730 5.4750 78.60 156.666670
11.01 11.01580 5.450 79.0 148.888890
11.00 11.004970 5.4250 79.40 141.111110
10.99 10.994130 5.40 79.80 133.333330
10.98 10.98420 5.40 79.133330 135.555560
10.97 10.973360 5.40 78.466670 137.777780
10.96 10.963430 5.40 77.80 140.0
10.95 10.95260 5.40 77.733330 147.777780
10.94 10.941760 5.40 77.666670 155.555560
10.93 10.931830 5.40 77.60 163.333330
10.92 10.920990 5.40 79.10 178.888890
10.91 10.915580 5.40 80.60 194.444440
10.90 10.910160 5.40 82.10 210.0
10.89 10.899320 5.40 81.733330 192.222220
10.88 10.889390 5.40 81.366670 174.444440
10.87 10.878560 5.40 81.0 156.666670
10.86 10.867720 5.40 80.633330 157.777780
10.85 10.856880 5.40 80.266670 158.888890
10.84 10.846950 5.40 79.90 160.0
10.83 10.836120 5.40 80.10 163.333330
10.82 10.825280 5.40 80.30 166.666670
10.81 10.815350 5.40 80.50 170.0
10.80 10.804510 5.40 80.70 181.111110
10.79 10.793680 5.40 79.966670 192.222220
10.78 10.782840 5.40 79.233330 203.333330
10.77 10.772910 5.40 78.50 190.0
10.76 10.762080 5.366670 78.933330 176.666670
10.75 10.751240 5.333330 79.366670 163.333330
10.74 10.740410 5.30 79.80 150.0
10.73 10.735440 5.30 80.366670 147.777780
10.72 10.730470 5.30 80.933330 145.555560
10.71 10.719640 5.30 81.50 143.333330
10.70 10.70880 5.30 80.933330 152.222220
10.69 10.698870 5.30 80.366670 161.111110
10.68 10.688040 5.30 79.80 170.0
10.67 10.67720 5.266670 80.40 164.444440
10.66 10.666370 5.233330 81.0 158.888890
10.65 10.655530 5.20 81.60 153.333330
10.64 10.64560 5.233330 83.50 164.444440
10.63 10.634760 5.266670 85.40 175.555560
10.62 10.623930 5.30 87.30 186.666670
10.61 10.613090 5.2750 84.4750 188.333330
10.60 10.602260 5.250 81.650 190.0
10.59 10.592330 5.2250 78.8250 191.666670
10.58 10.581490 5.20 76.0 193.333330
10.57 10.576070 5.20 78.30 194.444440
10.56 10.570650 5.20 80.60 195.555560
10.55 10.559820 5.20 82.90 196.666670
10.54 10.549890 5.20 82.466670 174.444440
10.53 10.539050 5.20 82.033330 152.222220
10.52 10.528220 5.20 81.60 130.0
10.51 10.518280 5.166670 79.50 152.222220
10.50 10.507450 5.133330 77.40 174.444440
10.49 10.497520 5.10 75.30 196.666670
10.48 10.486680 5.10 78.50 188.888890
10.47 10.475850 5.10 81.70 181.111110
10.46 10.465910 5.10 84.90 173.333330
10.45 10.455080 5.0750 84.20 181.666670
10.44 10.444240 5.050 83.50 190.0
10.43 10.433410 5.0250 82.80 198.333330
10.42 10.423480 5.0 82.10 206.666670
10.41 10.412640 5.033330 81.70 214.444440
10.40 10.401810 5.066670 81.30 222.222220
10.39 10.391870 5.10 80.90 230.0
10.38 10.381040 5.066670 81.20 233.333330
10.37 10.371110 5.033330 81.50 236.666670
10.36 10.365690 5.0 81.80 240.0
10.35 10.360270 4.966670 80.30 238.888890
10.34 10.349440 4.933330 78.80 237.777780
10.33 10.33950 4.90 77.30 236.666670
10.32 10.328670 4.933330 78.70 235.555560
10.31 10.317830 4.966670 80.10 234.444440
10.30 10.30790 5.0 81.50 233.333330
10.29 10.297070 4.933330 81.633330 233.333330
10.28 10.286230 4.866670 81.766670 233.333330
10.27 10.27630 4.80 81.90 233.333330
10.26 10.265460 4.8250 81.250 232.222220
10.25 10.254630 4.850 80.60 231.111110
10.24 10.24470 4.8750 79.950 230.0
10.23 10.233860 4.90 79.30 218.750
10.22 10.223020 4.90 79.50 207.50
10.21 10.212190 4.90 79.70 196.250
10.20 10.202260 4.90 79.90 185.0
10.19 10.191420 4.866670 81.033330 200.0
10.18 10.180590 4.833330 82.166670 215.0
10.17 10.175620 4.80 83.30 230.0
10.16 10.170650 4.80 81.333330 218.888890
10.15 10.159820 4.80 79.366670 207.777780
10.14 10.148980 4.80 77.40 196.666670
10.13 10.139050 4.833330 76.533330 190.0
10.12 10.128220 4.866670 75.666670 183.333330
10.11 10.117380 4.90 74.80 176.666670
10.10 10.107450 4.866670 77.433330 190.0
10.09 10.096610 4.833330 80.066670 203.333330
10.08 10.085780 4.80 82.70 216.666670
10.07 10.075850 4.80 82.5750 218.888890
10.06 10.065010 4.80 82.450 221.111110
10.05 10.055080 4.80 82.3250 223.333330
10.04 10.044240 4.80 82.20 212.50
10.03 10.033410 4.80 81.766670 201.666670
10.02 10.022570 4.80 81.333330 190.833330
10.01 10.011740 4.80 80.90 180.0
10.00 10.00090 4.80 80.166670 195.555560
9.99 9.995490 4.80 79.433330 211.111110
9.98 9.990070 4.80 78.70 226.666670
9.97 9.979230 4.80 80.30 221.111110
9.96 9.96930 4.80 81.90 215.555560
9.95 9.958470 4.80 83.50 210.0
9.94 9.947630 4.80 81.833330 216.666670
9.93 9.936790 4.80 80.166670 223.333330
9.92 9.925960 4.80 78.50 230.0
9.91 9.915120 4.80 79.566670 234.444440
9.90 9.904290 4.80 80.633330 238.888890
9.89 9.893450 4.80 81.70 243.333330
9.88 9.882620 4.80 82.10 234.444440
9.87 9.872690 4.80 82.50 225.555560
9.86 9.861850 4.80 82.90 216.666670
9.85 9.851020 4.80 83.30 221.666670
