~VERSION INFORMATION SECTION
VERS. 2.0 : CWLS LAS-VERSION 2.0
WRAP. NO : One line per depth step
~WELL INFORMATION SECTION
# MNEM.UNIT VALUE/NAME DESCRIPTION
#-------- -------------- ---------------------
STRT.Metres 16 : Start
STOP.Metres 0.39 : Stop
STEP.Metres -0.01 : Step
NULL.  -999.25 :NULL VALUE
DATE. 2025-19-11 : DATE
~CURVE INFORMATION SECTION
DEPTH.Metres : 0 Depth
Depth. : 1 Depth
Incline.Deg : 2 Incline
Azimuth.Deg : 3 Azimuth
GR.CPS : 4 GR
~PARAMETER INFORMATION SECTION
~OTHER
#-------------------------------------------------
#Produced By: GeoVista Logger - Version 7.1.107.0
Natural Gamma Sonde - 6447
Verticality Sonde - 6292
#-------------------------------------------------
~ASCII LOG DATA
# ...
3.24 3.251470 3.90 72.40 209.523810
3.23 3.238830 3.90 72.30 218.253970
3.22 3.226190 3.90 72.20 226.984130
3.21 3.214450 3.90 72.4750 235.714290
3.20 3.208130 3.90 72.750 244.444440
3.19 3.201810 3.90 73.0250 218.333330
3.18 3.189160 3.90 73.30 192.222220
3.17 3.177430 3.90 73.10 166.111110
3.16 3.164790 3.90 72.90 140.0
3.15 3.158470 3.90 72.70 136.666670
3.14 3.152140 3.90 72.50 133.333330
3.13 3.13950 3.8750 72.750 130.0
3.12 3.126860 3.850 73.0 136.666670
3.11 3.115120 3.8250 73.250 143.333330
3.10 3.10880 3.80 73.50 150.0
3.09 3.102480 3.80 73.114290 156.666670
3.08 3.089840 3.80 72.728570 166.666670
3.07 3.07720 3.80 72.342860 176.666670
3.06 3.065460 3.80 71.957140 186.666670
3.05 3.052820 3.80 71.571430 180.0
3.04 3.04650 3.80 71.185710 173.333330
3.03 3.040180 3.80 70.80 166.666670
3.02 3.027540 3.80 71.650 160.0
3.01 3.01580 3.80 72.50 155.833330
3.00 3.003160 3.80 73.350 151.666670
2.99 2.996840 3.80 74.20 147.50
2.98 2.990520 3.771430 74.057140 143.333330
2.97 2.977880 3.742860 73.914290 151.111110
2.96 2.966140 3.714290 73.771430 158.888890
2.95 2.95350 3.685710 73.628570 166.666670
2.94 2.947180 3.657140 73.485710 150.806450
2.93 2.940860 3.628570 73.342860 134.946240
2.92 2.928220 3.60 73.20 119.086020
2.91 2.915580 3.60 73.40 103.225810
2.90 2.903840 3.60 73.60 108.252690
2.89 2.897520 3.60 73.80 113.279570
2.88 2.89120 3.60 74.0 118.306450
2.87 2.878560 3.60 74.30 123.333330
2.86 2.865910 3.60 74.60 142.222220
2.85 2.853270 3.60 74.90 161.111110
2.84 2.84740 3.60 75.20 180.0
2.83 2.841530 3.60 74.833330 171.666670
2.82 2.828890 3.60 74.466670 163.333330
2.81 2.816250 3.60 74.10 155.0
2.80 2.803610 3.550 74.150 146.666670
2.79 2.797290 3.50 74.20 145.0
2.78 2.790970 3.450 74.250 143.333330
2.77 2.778330 3.40 74.30 141.666670
2.76 2.765690 3.450 74.1750 140.0
2.75 2.753050 3.50 74.050 144.166670
2.74 2.746730 3.550 73.9250 148.333330
2.73 2.740410 3.60 73.80 152.50
2.72 2.727770 3.533330 74.333330 156.666670
2.71 2.715120 3.466670 74.866670 144.444440
2.70 2.703390 3.40 75.40 132.222220
2.69 2.697070 3.350 76.3250 120.0
2.68 2.690740 3.30 77.250 116.666670
2.67 2.67810 3.250 78.1750 113.333330
2.66 2.665460 3.20 79.10 110.0
2.65 2.652820 3.20 78.250 106.666670
2.64 2.64650 3.20 77.40 110.833330
2.63 2.640180 3.20 76.550 115.0
2.62 2.627540 3.20 75.70 119.166670
2.61 2.61490 3.1750 76.3750 123.333330
2.60 2.608580 3.150 77.050 127.50
2.59 2.602260 3.1250 77.7250 131.666670
2.58 2.589620 3.10 78.40 135.833330
2.57 2.576980 3.133330 77.133330 140.0
2.56 2.564330 3.166670 75.866670 170.0
2.55 2.558010 3.20 74.60 200.0
2.54 2.551690 3.1750 75.7750 230.0
2.53 2.539050 3.150 76.950 207.023810
2.52 2.526410 3.1250 78.1250 184.047620
2.51 2.513770 3.10 79.30 161.071430
2.50 2.507450 3.10 77.8750 138.095240
2.49 2.501130 3.10 76.450 148.015870
2.48 2.488490 3.10 75.0250 157.936510
2.47 2.475850 3.10 73.60 167.857140
2.46 2.463210 3.10 74.450 177.777780
2.45 2.456880 3.10 75.30 154.882150
2.44 2.450560 3.10 76.150 131.986530
2.43 2.437920 3.10 77.0 109.090910
2.42 2.425280 3.10 76.30 118.660290
2.41 2.418960 3.10 75.60 128.229670
2.40 2.412640 3.10 74.90 137.799040
2.39 2.40 3.10 75.20 147.368420
2.38 2.388260 3.10 75.50 146.359650
2.37 2.375620 3.10 75.80 145.350880
2.36 2.362980 3.10 76.10 144.342110
2.35 2.356660 3.10 76.250 143.333330
2.34 2.350340 3.10 76.40 137.045450
2.33 2.33770 3.10 76.550 130.757580
2.32 2.325060 3.10 76.70 124.46970
2.31 2.318740 3.10 76.4250 118.181820
2.30 2.312420 3.10 76.150 117.384370
2.29 2.299770 3.10 75.8750 116.586920
2.28 2.287130 3.10 75.60 115.789470
2.27 2.274490 3.10 76.20 124.342110
2.26 2.268170 3.10 76.80 132.894740
2.25 2.261850 3.10 77.40 141.447370
2.24 2.249210 3.10 78.0 150.0
2.23 2.237470 3.033330 77.40 164.11290
2.22 2.224830 2.966670 76.80 178.225810
2.21 2.212190 2.90 76.20 192.338710
2.20 2.206320 2.9250 75.250 206.451610
2.19 2.200450 2.950 74.30 176.52330
2.18 2.187810 2.9750 73.350 146.594980
2.17 2.176070 3.0 72.40 116.666670
2.16 2.164330 2.9750 74.650 120.833330
2.15 2.158010 2.950 76.90 125.0
2.14 2.151690 2.9250 79.150 129.166670
2.13 2.139950 2.90 81.40 133.333330
2.12 2.127310 2.90 79.0750 134.166670
2.11 2.115580 2.90 76.750 135.0
2.10 2.102930 2.90 74.4250 135.833330
2.09 2.097070 2.90 72.10 136.666670
2.08 2.09120 2.866670 72.70 134.166670
2.07 2.078560 2.833330 73.30 131.666670
2.06 2.065910 2.80 73.90 129.166670
2.05 2.053270 2.8250 74.50 126.666670
2.04 2.04740 2.850 75.10 123.333330
2.03 2.041530 2.8750 75.70 120.0
2.02 2.028890 2.90 76.30 116.666670
2.01 2.016250 2.850 76.050 128.409090
2.00 2.003610 2.80 75.80 140.151520
1.99 1.997290 2.750 75.550 151.893940
1.98 1.990970 2.70 75.30 163.636360
1.97 1.979230 2.70 74.1250 156.93780
1.96 1.966590 2.70 72.950 150.239230
1.95 1.953950 2.70 71.7750 143.540670
1.94 1.947630 2.70 70.60 136.842110
1.93 1.941310 2.60 75.10 141.798250
1.92 1.928670 2.50 79.60 146.754390
1.91 1.916930 2.40 84.10 151.710530
1.90 1.904290 2.4250 82.650 156.666670
1.89 1.897970 2.450 81.20 152.222220
1.88 1.891650 2.4750 79.750 147.777780
1.87 1.879010 2.50 78.30 143.333330
1.86 1.866370 2.514290 78.70 144.166670
1.85 1.853720 2.528570 79.10 145.0
1.84 1.84740 2.542860 79.50 145.833330
1.83 1.841080 2.557140 79.90 146.666670
1.82 1.828440 2.571430 80.30 155.0
1.81 1.81580 2.585710 80.70 163.333330
1.80 1.804060 2.60 81.10 171.666670
1.79 1.797740 2.5250 81.30 180.0
1.78 1.791420 2.450 81.50 173.333330
1.77 1.778780 2.3750 81.70 166.666670
1.76 1.766140 2.30 81.90 160.0
1.75 1.75350 2.30 81.8250 153.333330
1.74 1.747180 2.30 81.750 148.888890
1.73 1.740860 2.30 81.6750 144.444440
1.72 1.728220 2.30 81.60 140.0
1.71 1.715580 2.30 80.550 140.0
1.70 1.702930 2.30 79.50 140.0
1.69 1.697070 2.30 78.450 140.0
1.68 1.69120 2.30 77.40 140.0
1.67 1.678560 2.30 80.266670 146.666670
1.66 1.665910 2.30 83.133330 153.333330
1.65 1.653270 2.30 86.0 160.0
1.64 1.646950 2.2750 81.150 166.666670
1.63 1.640630 2.250 76.30 163.333330
1.62 1.627990 2.2250 71.450 160.0
1.61 1.615350 2.20 66.60 156.666670
1.60 1.602710 2.2250 70.5250 153.333330
1.59 1.596390 2.250 74.450 151.666670
1.58 1.590070 2.2750 78.3750 150.0
1.57 1.577430 2.30 82.30 148.333330
1.56 1.564790 2.285710 82.40 146.666670
1.55 1.558470 2.271430 82.50 139.713260
1.54 1.552140 2.257140 82.60 132.759860
1.53 1.53950 2.242860 82.70 125.806450
1.52 1.527770 2.228570 82.80 138.521510
1.51 1.516030 2.214290 82.90 151.236560
1.50 1.504290 2.20 83.0 163.951610
1.49 1.492550 2.20 83.30 176.666670
1.48 1.487130 2.20 83.60 171.666670
1.47 1.481720 2.20 83.90 166.666670
1.46 1.469980 2.20 84.20 161.666670
1.45 1.459140 2.20 83.250 156.666670
1.44 1.448310 2.20 82.30 154.166670
1.43 1.437470 2.20 81.350 151.666670
1.42 1.426640 2.20 80.40 149.166670
1.41 1.41580 2.20 82.9250 146.666670
1.40 1.404970 2.20 85.450 148.333330
1.39 1.394130 2.20 87.9750 150.0
1.38 1.38330 2.20 90.50 151.666670
1.37 1.372460 2.133330 88.866670 153.333330
1.36 1.361630 2.066670 87.233330 145.555560
1.35 1.351690 2.0 85.60 137.777780
1.34 1.340860 2.0 87.1750 130.0
1.33 1.330930 2.0 88.750 130.833330
1.32 1.32190 2.0 90.3250 131.666670
1.31 1.313770 2.0 91.90 132.50
1.30 1.305640 2.0250 92.850 133.333330
1.29 1.294360 2.050 93.80 142.222220
1.28 1.284880 2.0750 94.750 151.111110
1.27 1.275550 2.10 95.70 160.0
1.26 -999.25 2.050 93.6250 157.50
1.25 -999.25 2.0 91.550 155.0
1.24 -999.25 1.950 89.4750 152.50
1.23 -999.25 1.90 87.40 150.0
1.22 -999.25 2.033330 89.30 151.136360
1.21 -999.25 2.166670 91.20 152.272730
1.20 -999.25 2.30 93.10 153.409090
1.19 -999.25 2.250 93.0750 154.545450
1.18 -999.25 2.20 93.050 154.066990
1.17 -999.25 2.150 93.0250 153.588520
1.16 -999.25 2.10 93.0 153.110050
1.15 -999.25 2.033330 94.90 152.631580
1.14 -999.25 1.966670 96.80 146.198830
1.13 -999.25 1.90 98.70 139.766080
1.12 -999.25 1.933330 96.133330 133.333330
1.11 -999.25 1.966670 93.566670 131.666670
1.10 -999.25 2.0 91.0 130.0
1.09 -999.25 1.966670 95.466670 128.333330
1.08 -999.25 1.933330 99.933330 126.666670
1.07 -999.25 1.90 104.40 129.166670
1.06 -999.25 1.90 102.50 131.666670
