~VERSION INFORMATION SECTION
VERS. 2.0 : CWLS LAS-VERSION 2.0
WRAP. NO : One line per depth step
~WELL INFORMATION SECTION
# MNEM.UNIT VALUE/NAME DESCRIPTION
#-------- -------------- ---------------------
STRT.Metres 16 : Start
STOP.Metres 0.38 : Stop
STEP.Metres -0.01 : Step
NULL.  -999.25 :NULL VALUE
DATE. 2025-26-11 : DATE
~CURVE INFORMATION SECTION
DEPTH.Metres : 0 Depth
Depth. : 1 Depth
Incline.Deg : 2 Incline
Azimuth.Deg : 3 Azimuth
GR.CPS : 4 GR
~PARAMETER INFORMATION SECTION
~OTHER
#-------------------------------------------------
#Produced By: GeoVista Logger - Version 7.1.107.0
Natural Gamma Sonde - 6447
Verticality Sonde - 6292
#-------------------------------------------------
~ASCII LOG DATA
16.00 -999.25 -999.25 -999.25 -999.25
15.99 7.996840 -999.25 -999.25 -999.25
15.98 15.993680 -999.25 -999.25 -999.25
15.97 15.986460 -999.25 -999.25 -999.25
15.96 15.979230 0.828570 10.442860 -999.25
15.95 15.972010 1.657140 20.885710 -999.25
15.94 15.960720 2.485710 31.328570 -999.25
15.93 15.949440 3.314290 41.771430 -999.25
15.92 15.938150 4.142860 52.214290 -999.25
15.91 15.926860 4.971430 62.657140 -999.25
15.90 15.915580 5.80 73.10 -999.25
15.89 15.904290 5.785710 73.614290 -999.25
15.88 15.893450 5.771430 74.128570 -999.25
15.87 15.882620 5.757140 74.642860 134.530890
15.86 15.875090 5.742860 75.157140 133.333330
15.85 15.867570 5.728570 75.671430 147.777780
15.84 15.860050 5.714290 76.185710 162.222220
15.83 15.848760 5.70 76.70 176.666670
15.82 15.837470 5.70 75.983330 167.777780
15.81 15.826640 5.70 75.266670 158.888890
15.80 15.81580 5.70 74.550 150.0
15.79 15.808280 5.70 73.833330 138.333330
15.78 15.800750 5.70 73.116670 126.666670
15.77 15.793230 5.70 72.40 115.0
15.76 15.781490 5.671430 72.171430 103.333330
15.75 15.769750 5.642860 71.942860 109.166670
15.74 15.758470 5.614290 71.714290 115.0
15.73 15.747180 5.585710 71.485710 120.833330
15.72 15.735890 5.557140 71.257140 126.666670
15.71 15.72460 5.528570 71.028570 118.666670
15.70 15.717080 5.50 70.80 110.666670
15.69 15.709560 5.514290 71.0 102.666670
15.68 15.702030 5.528570 71.20 94.666670
15.67 15.690740 5.542860 71.40 86.666670
15.66 15.679460 5.557140 71.60 96.111110
15.65 15.668620 5.571430 71.80 105.555560
15.64 15.657790 5.585710 72.0 115.0
15.63 15.646950 5.60 72.20 124.444440
15.62 15.636120 5.633330 73.016670 133.888890
15.61 15.625280 5.666670 73.833330 143.333330
15.60 15.614450 5.70 74.650 137.619050
15.59 15.603610 5.733330 75.466670 131.904760
15.58 15.592780 5.766670 76.283330 126.190480
15.57 15.585550 5.80 77.10 120.476190
15.56 15.578330 5.757140 76.485710 114.76190
15.55 15.571110 5.714290 75.871430 109.047620
15.54 15.560270 5.671430 75.257140 103.333330
15.53 15.549440 5.628570 74.642860 114.444440
15.52 15.538150 5.585710 74.028570 125.555560
15.51 15.526860 5.542860 73.414290 136.666670
15.50 15.516030 5.50 72.80 147.777780
15.49 15.505190 5.457140 72.171430 158.888890
15.48 15.494360 5.414290 71.542860 170.0
15.47 15.483520 5.371430 70.914290 159.523810
15.46 15.472690 5.328570 70.285710 149.047620
15.45 15.461850 5.285710 69.657140 138.571430
15.44 15.451470 5.242860 69.028570 128.095240
15.43 15.441080 5.20 68.40 117.619050
15.42 15.431150 5.228570 68.057140 107.142860
15.41 15.421220 5.257140 67.714290 96.666670
15.40 15.41430 5.285710 67.371430 104.285710
15.39 15.407370 5.314290 67.028570 111.904760
15.38 15.400450 5.342860 66.685710 119.523810
15.37 15.390070 5.371430 66.342860 127.142860
15.36 15.379680 5.40 66.0 134.76190
15.35 15.369750 5.433330 67.750 142.380950
15.34 15.359820 5.466670 69.50 150.0
15.33 15.339050 5.50 71.250 142.20430
15.32 15.329570 5.533330 73.0 134.40860
15.31 15.320090 5.566670 74.750 126.61290
15.30 15.310160 5.60 76.50 118.81720
15.29 15.300230 5.614290 75.257140 111.021510
15.28 15.290290 5.628570 74.014290 103.225810
15.27 15.280360 5.642860 72.771430 105.622120
15.26 15.270880 5.657140 71.528570 108.018430
15.25 15.26140 5.671430 70.285710 110.414750
15.24 15.251920 5.685710 69.042860 112.811060
15.23 15.242440 5.70 67.80 115.207370
15.22 15.232510 5.683330 67.266670 117.603690
15.21 15.222570 5.666670 66.733330 120.0
15.20 15.213090 5.650 66.20 114.285710
15.19 15.203610 5.633330 65.666670 108.571430
15.18 15.194130 5.616670 65.133330 102.857140
15.17 15.184650 5.60 64.60 97.142860
15.16 15.174720 5.583330 66.466670 91.428570
15.15 15.164790 5.566670 68.333330 85.714290
15.14 15.15530 5.550 70.20 80.0
15.13 15.145820 5.533330 72.066670 93.333330
15.12 15.135890 5.516670 73.933330 106.666670
15.11 15.125960 5.50 75.80 120.0
15.10 15.116480 5.528570 75.628570 133.333330
15.09 15.1070 5.557140 75.457140 146.666670
15.08 15.097520 5.585710 75.285710 160.0
15.07 15.088040 5.614290 75.114290 173.333330
15.06 15.078560 5.642860 74.942860 157.222220
15.05 15.069070 5.671430 74.771430 141.111110
15.04 15.049210 5.70 74.60 125.0
15.03 15.039730 5.680 73.460 108.888890
15.02 15.030250 5.660 72.320 92.777780
15.01 15.020770 5.640 71.180 76.666670
15.00 15.011290 5.620 70.040 81.428570
14.99 15.001810 5.60 68.90 86.190480
14.98 14.992330 5.583330 69.10 90.952380
14.97 14.982840 5.566670 69.30 95.714290
14.96 14.973360 5.550 69.50 100.476190
14.95 14.963880 5.533330 69.70 105.23810
14.94 14.95440 5.516670 69.90 110.0
14.93 14.944920 5.50 70.10 112.857140
14.92 14.935440 5.50 71.016670 115.714290
14.91 14.925960 5.50 71.933330 118.571430
14.90 14.916480 5.50 72.850 121.428570
14.89 14.9070 5.50 73.766670 124.285710
14.88 14.897520 5.50 74.683330 127.142860
14.87 14.878560 5.50 75.60 130.0
14.86 14.869530 5.516670 74.60 130.476190
14.85 14.86050 5.533330 73.60 130.952380
14.84 14.851020 5.550 72.60 131.428570
14.83 14.841530 5.566670 71.60 131.904760
14.82 14.832050 5.583330 70.60 132.380950
14.81 14.822570 5.60 69.60 132.857140
14.80 14.813540 5.566670 69.566670 133.333330
14.79 14.804510 5.533330 69.533330 132.222220
14.78 14.795030 5.50 69.50 131.111110
14.77 14.785550 5.466670 69.466670 130.0
14.76 14.776070 5.433330 69.433330 128.888890
14.75 14.766590 5.40 69.40 127.777780
14.74 14.757110 5.380 70.920 126.666670
14.73 14.747630 5.360 72.440 125.23810
14.72 14.729570 5.340 73.960 123.809520
14.71 14.720090 5.320 75.480 122.380950
14.70 14.710610 5.30 77.0 120.952380
14.69 14.701130 5.316670 76.933330 119.523810
14.68 14.691650 5.333330 76.866670 118.095240
14.67 14.682170 5.350 76.80 116.666670
14.66 14.672690 5.366670 76.733330 120.0
14.65 14.663210 5.383330 76.666670 123.333330
14.64 14.653720 5.40 76.60 126.666670
14.63 14.643790 5.40 76.066670 130.0
14.62 14.633860 5.40 75.533330 133.333330
14.61 14.624380 5.40 75.0 136.666670
14.60 14.61490 5.40 74.466670 130.0
14.59 14.604970 5.40 73.933330 123.333330
14.58 14.595030 5.40 73.40 116.666670
14.57 14.5860 5.40 73.70 110.0
14.56 14.576980 5.40 74.0 103.333330
14.55 14.567040 5.40 74.30 96.666670
14.54 14.557110 5.40 74.60 105.555560
14.53 14.539050 5.40 74.90 114.444440
14.52 14.529570 5.383330 74.850 123.333330
14.51 14.520090 5.366670 74.80 132.222220
14.50 14.510610 5.350 74.750 141.111110
14.49 14.501130 5.333330 74.70 150.0
14.48 14.491650 5.316670 74.650 148.888890
14.47 14.482170 5.30 74.60 147.777780
14.46 14.472690 5.260 74.920 146.666670
14.45 14.463210 5.220 75.240 145.555560
14.44 14.453720 5.180 75.560 144.444440
14.43 14.444240 5.140 75.880 143.333330
14.42 14.434760 5.10 76.20 140.555560
14.41 14.425280 5.116670 76.133330 137.777780
14.40 14.41580 5.133330 76.066670 135.0
14.39 14.406320 5.150 76.0 132.222220
14.38 14.396840 5.166670 75.933330 129.444440
14.37 14.387360 5.183330 75.866670 126.666670
14.36 14.377880 5.20 75.80 130.555560
14.35 14.36840 5.20 75.550 134.444440
14.34 14.349440 5.20 75.30 138.333330
14.33 14.339950 5.20 75.050 142.222220
14.32 14.330470 5.20 74.80 146.111110
14.31 14.321440 5.20 74.550 150.0
14.30 14.312420 5.20 74.30 148.333330
14.29 14.302930 5.150 74.366670 146.666670
14.28 14.293450 5.10 74.433330 145.0
14.27 14.283970 5.050 74.50 143.333330
14.26 14.274490 5.0 74.566670 141.666670
14.25 14.265010 4.950 74.633330 140.0
14.24 14.255530 4.90 74.70 143.333330
14.23 14.246050 4.940 75.340 146.666670
14.22 14.236570 4.980 75.980 150.0
14.21 14.227540 5.020 76.620 153.333330
14.20 14.218510 5.060 77.260 156.666670
14.19 14.199550 5.10 77.90 160.0
14.18 14.190520 5.016670 77.716670 162.666670
14.17 14.181490 4.933330 77.533330 165.333330
14.16 14.172460 4.850 77.350 168.0
14.15 14.163430 4.766670 77.166670 170.666670
14.14 14.153950 4.683330 76.983330 173.333330
14.13 14.144470 4.60 76.80 170.788530
14.12 14.135440 4.650 76.350 168.243730
14.11 14.126410 4.70 75.90 165.698920
14.10 14.108350 4.750 75.450 163.154120
14.09 14.099770 4.80 75.0 160.609320
14.08 14.09120 4.850 74.550 158.064520
14.07 14.082170 4.90 74.10 148.38710
14.06 14.073140 4.90 75.080 138.709680
