~VERSION INFORMATION SECTION
VERS. 2.0 : CWLS LAS-VERSION 2.0
WRAP. NO : One line per depth step
~WELL INFORMATION SECTION
# MNEM.UNIT VALUE/NAME DESCRIPTION
#-------- -------------- ---------------------
STRT.Metres 16 : Start
STOP.Metres 0.38 : Stop
STEP.Metres -0.01 : Step
NULL.  -999.25 :NULL VALUE
DATE. 2025-26-11 : DATE
~CURVE INFORMATION SECTION
DEPTH.Metres : 0 Depth
Depth. : 1 Depth
Incline.Deg : 2 Incline
Azimuth.Deg : 3 Azimuth
GR.CPS : 4 GR
~PARAMETER INFORMATION SECTION
~OTHER
#-------------------------------------------------
#Produced By: GeoVista Logger - Version 7.1.107.0
Natural Gamma Sonde - 6447
Verticality Sonde - 6292
#-------------------------------------------------
~ASCII LOG DATA
# ...
11.95 11.958470 4.70 69.80 171.090910
11.94 11.944920 4.70 70.1250 171.636360
11.93 11.93770 4.70 70.450 172.181820
11.92 11.930470 4.70 70.7750 172.727270
11.91 11.916930 4.70 71.10 163.755980
11.90 11.909710 4.70 71.40 154.784690
11.89 11.902480 4.70 71.70 145.81340
11.88 11.888940 4.70 72.0 136.842110
11.87 11.87540 4.70 72.30 127.631580
11.86 11.868620 4.70 71.950 118.421050
11.85 11.861850 4.70 71.60 109.210530
11.84 11.84740 4.70 71.250 100.0
11.83 11.833860 4.70 70.90 114.166670
11.82 11.827090 4.70 70.950 128.333330
11.81 11.820320 4.70 71.0 142.50
11.80 11.805870 4.70 71.050 156.666670
11.79 11.79910 4.70 71.10 153.333330
11.78 11.792330 4.70 71.050 150.0
11.77 11.778780 4.70 71.0 146.666670
11.76 11.764330 4.70 70.950 143.333330
11.75 11.757560 4.70 70.90 150.0
11.74 11.750790 4.680 71.340 156.666670
11.73 11.737250 4.660 71.780 163.333330
11.72 11.730020 4.640 72.220 170.0
11.71 11.72280 4.620 72.660 166.0
11.70 11.709260 4.60 73.10 162.0
11.69 11.694810 4.60 72.60 158.0
11.68 11.688040 4.60 72.10 154.0
11.67 11.681260 4.60 71.60 150.0
11.66 11.666820 4.60 71.10 155.0
11.65 11.660050 4.60 70.90 160.0
11.64 11.653270 4.60 70.70 165.0
11.63 11.639730 4.60 70.50 170.0
11.62 11.625280 4.60 70.30 165.833330
11.61 11.618510 4.60 70.80 161.666670
11.60 11.611740 4.60 71.30 157.50
11.59 11.598190 4.60 71.80 153.333330
11.58 11.583750 4.60 72.30 154.166670
11.57 11.576980 4.5750 72.70 155.0
11.56 11.57020 4.550 73.10 155.833330
11.55 11.556660 4.5250 73.50 156.666670
11.54 11.549440 4.50 73.90 143.333330
11.53 11.542210 4.5250 73.0 130.0
11.52 11.528670 4.550 72.10 116.666670
11.51 11.515120 4.5750 71.20 103.333330
11.50 11.508350 4.60 70.30 108.333330
11.49 11.501580 4.60 69.850 113.333330
11.48 11.487130 4.60 69.40 118.333330
11.47 11.473590 4.60 68.950 123.333330
11.46 11.466820 4.60 68.50 117.50
11.45 11.460050 4.60 69.140 111.666670
11.44 11.44650 4.60 69.780 105.833330
11.43 11.439730 4.60 70.420 100.0
11.42 11.432960 4.60 71.060 106.666670
11.41 11.418510 4.60 71.70 113.333330
11.40 11.404970 4.60 72.2250 120.0
11.39 11.398190 4.60 72.750 126.666670
11.38 11.391420 4.60 73.2750 133.333330
11.37 11.377880 4.60 73.80 136.666670
11.36 11.364330 4.5750 72.40 140.0
11.35 11.357560 4.550 71.0 143.333330
11.34 11.350790 4.5250 69.60 146.666670
11.33 11.337250 4.50 68.20 147.50
11.32 11.32370 4.50 67.9750 148.333330
11.31 11.316930 4.50 67.750 149.166670
11.30 11.310160 4.50 67.5250 150.0
11.29 11.296610 4.50 67.30 152.50
11.28 11.289390 4.50 68.90 155.0
11.27 11.282170 4.50 70.50 157.50
11.26 11.268620 4.50 72.10 160.0
11.25 11.255080 4.50 73.70 160.0
11.24 11.248310 4.50 74.250 160.0
11.23 11.241530 4.50 74.80 160.0
11.22 11.227990 4.50 75.350 160.0
11.21 11.214450 4.50 75.90 155.0
11.20 11.207670 4.450 74.250 150.0
11.19 11.20090 4.40 72.60 145.0
11.18 11.187360 4.350 70.950 140.0
11.17 11.180590 4.30 69.30 130.833330
11.16 11.173810 4.340 69.740 121.666670
11.15 11.159370 4.380 70.180 112.50
11.14 11.145820 4.420 70.620 103.333330
11.13 11.139050 4.460 71.060 111.666670
11.12 11.132280 4.50 71.50 120.0
11.11 11.118740 4.5250 71.70 128.333330
11.10 11.105190 4.550 71.90 136.666670
11.09 11.098420 4.5750 72.10 135.0
11.08 11.091650 4.60 72.30 133.333330
11.07 11.07810 4.5750 72.050 131.666670
11.06 11.064560 4.550 71.80 130.0
11.05 11.057340 4.5250 71.550 124.666670
11.04 11.050110 4.50 71.30 119.333330
11.03 11.036570 4.4750 71.050 114.0
11.02 11.02980 4.450 70.80 108.666670
11.01 11.023020 4.4250 70.550 103.333330
11.00 11.009480 4.40 70.30 112.50
10.99 10.995030 4.450 70.9250 121.666670
10.98 10.988260 4.50 71.550 130.833330
10.97 10.981490 4.550 72.1750 140.0
10.96 10.967950 4.60 72.80 143.333330
10.95 10.961170 4.60 72.250 146.666670
10.94 10.95440 4.60 71.70 150.0
10.93 10.939950 4.60 71.150 153.333330
10.92 10.926410 4.60 70.60 154.166670
10.91 10.919640 4.60 71.40 155.0
10.90 10.912870 4.60 72.20 155.833330
10.89 10.899320 4.60 73.0 156.666670
10.88 10.884880 4.60 73.80 156.666670
10.87 10.87810 4.60 72.60 156.666670
10.86 10.871330 4.60 71.40 156.666670
10.85 10.857790 4.60 70.20 156.666670
10.84 10.851020 4.60 69.0 160.833330
10.83 10.844240 4.60 69.750 165.0
10.82 10.82980 4.60 70.50 169.166670
10.81 10.816250 4.60 71.250 173.333330
10.80 10.809480 4.60 72.0 180.833330
10.79 10.802710 4.5750 71.8750 188.333330
10.78 10.788260 4.550 71.750 195.833330
10.77 10.774720 4.5250 71.6250 203.333330
10.76 10.767950 4.50 71.50 196.0
10.75 10.761170 4.50 71.80 188.666670
10.74 10.746730 4.50 72.10 181.333330
10.73 10.739950 4.50 72.40 174.0
10.72 10.733180 4.50 72.70 166.666670
10.71 10.719640 4.50 73.0 167.50
10.70 10.706090 4.50 72.5250 168.333330
10.69 10.698870 4.50 72.050 169.166670
10.68 10.691650 4.50 71.5750 170.0
10.67 10.67810 4.50 71.10 172.661290
10.66 10.664560 4.50 71.30 175.322580
10.65 10.657340 4.50 71.50 177.983870
10.64 10.650110 4.50 71.70 180.645160
10.63 10.636570 4.50 71.90 173.81720
10.62 10.62980 4.50 72.10 166.989250
10.61 10.623020 4.50 72.30 160.161290
10.60 10.609480 4.50 72.50 153.333330
10.59 10.595940 4.50 72.70 160.833330
10.58 10.589160 4.50 71.70 168.333330
10.57 10.582390 4.50 70.70 175.833330
10.56 10.568850 4.50 69.70 183.333330
10.55 10.55440 4.50 68.70 169.166670
10.54 10.547630 4.50 69.9750 155.0
10.53 10.540860 4.50 71.250 140.833330
10.52 10.527310 4.50 72.5250 126.666670
10.51 10.513770 4.50 73.80 120.833330
10.50 10.5070 4.50 73.80 115.0
10.49 10.500230 4.50 73.80 109.166670
10.48 10.485780 4.50 73.80 103.333330
10.47 10.479010 4.50 73.80 118.333330
10.46 10.472230 4.480 73.0 133.333330
10.45 10.458690 4.460 72.20 148.333330
10.44 10.445150 4.440 71.40 163.333330
10.43 10.438370 4.420 70.60 168.848480
10.42 10.43160 4.40 69.80 174.363640
10.41 10.417160 4.40 69.850 179.878790
10.40 10.403610 4.40 69.90 185.393940
10.39 10.396840 4.40 69.950 190.909090
10.38 10.390070 4.40 70.0 189.234450
10.37 10.376520 4.40 71.1750 187.559810
10.36 10.369750 4.40 72.350 185.885170
10.35 10.362980 4.40 73.5250 184.210530
10.34 10.349440 4.40 74.70 177.324560
10.33 10.334990 4.350 74.350 170.43860
10.32 10.328220 4.30 74.0 163.552630
10.31 10.321440 4.250 73.650 156.666670
10.30 10.30790 4.20 73.30 156.666670
10.29 10.301130 4.250 72.850 156.666670
10.28 10.294360 4.30 72.40 156.666670
10.27 10.279910 4.350 71.950 156.666670
10.26 10.266370 4.40 71.50 164.166670
10.25 10.259590 4.3750 71.60 171.666670
10.24 10.252820 4.350 71.70 179.166670
10.23 10.239280 4.3250 71.80 186.666670
10.22 10.224830 4.30 71.90 185.833330
10.21 10.218060 4.30 72.5250 185.0
10.20 10.211290 4.30 73.150 184.166670
10.19 10.197740 4.30 73.7750 183.333330
10.18 10.190520 4.30 74.40 179.166670
10.17 10.18330 4.30 74.2250 175.0
10.16 10.169750 4.30 74.050 170.833330
10.15 10.156210 4.30 73.8750 166.666670
10.14 10.148980 4.30 73.70 156.666670
10.13 10.141760 4.30 73.5750 146.666670
10.12 10.128220 4.30 73.450 136.666670
10.11 10.113770 4.30 73.3250 126.666670
10.10 10.1070 4.30 73.20 155.714290
10.09 10.100230 4.30 73.380 184.76190
10.08 10.085780 4.30 73.560 213.809520
10.07 10.079010 4.30 73.740 242.857140
10.06 10.072230 4.30 73.920 223.17460
10.05 10.057790 4.30 74.10 203.492060
10.04 10.051020 4.30 73.550 183.809520
10.03 10.044240 4.30 73.0 164.126980
10.02 10.02980 4.30 72.450 144.444440
10.01 10.016250 4.30 71.90 145.0
10.00 10.009030 4.30 72.0250 145.555560
9.99 10.001810 4.30 72.150 146.111110
9.98 9.988260 4.30 72.2750 146.666670
9.97 9.973810 4.30 72.40 163.333330
9.96 9.967040 4.30 72.90 180.0
9.95 9.960270 4.30 73.40 196.666670
9.94 9.945820 4.30 73.90 213.333330
9.93 9.939050 4.30 74.40 208.333330
9.92 9.932280 4.30 74.050 203.333330
9.91 9.917830 4.30 73.70 198.333330
9.90 9.911060 4.30 73.350 193.333330
9.89 9.904290 4.30 73.0 190.161290
9.88 9.889840 4.30 72.7750 186.989250
9.87 9.87630 4.30 72.550 183.81720
9.86 9.869070 4.30 72.3250 180.645160
9.85 9.861850 4.30 72.10 188.81720
9.84 9.848310 4.30 72.3250 196.989250
9.83 9.833860 4.30 72.550 205.161290
9.82 9.827090 4.30 72.7750 213.333330
9.81 9.820320 4.30 73.0 221.666670
9.80 9.805870 4.30 72.920 230.0
