~VERSION INFORMATION SECTION
VERS. 2.0 : CWLS LAS-VERSION 2.0
WRAP. NO : One line per depth step
~WELL INFORMATION SECTION
# MNEM.UNIT VALUE/NAME DESCRIPTION
#-------- -------------- ---------------------
STRT.Metres 16 : Start
STOP.Metres 0.38 : Stop
STEP.Metres -0.01 : Step
NULL.  -999.25 :NULL VALUE
DATE. 2025-26-11 : DATE
~CURVE INFORMATION SECTION
DEPTH.Metres : 0 Depth
Depth. : 1 Depth
Incline.Deg : 2 Incline
Azimuth.Deg : 3 Azimuth
GR.CPS : 4 GR
~PARAMETER INFORMATION SECTION
~OTHER
#-------------------------------------------------
#Produced By: GeoVista Logger - Version 7.1.107.0
Natural Gamma Sonde - 6447
Verticality Sonde - 6292
#-------------------------------------------------
~ASCII LOG DATA
# ...
14.05 14.064560 4.90 76.060 129.032260
14.04 14.055980 4.90 77.040 119.354840
14.03 14.038830 4.90 78.020 109.677420
14.02 14.030250 4.90 79.0 100.0
14.01 14.021670 4.866670 79.016670 110.666670
14.00 14.013090 4.833330 79.033330 121.333330
13.99 14.004510 4.80 79.050 132.0
13.98 13.988260 4.766670 79.066670 142.666670
13.97 13.980140 4.733330 79.083330 153.333330
13.96 13.972010 4.70 79.10 154.444440
13.95 13.963430 4.716670 78.50 155.555560
13.94 13.954850 4.733330 77.90 156.666670
13.93 13.93950 4.750 77.30 157.777780
13.92 13.931830 4.766670 76.70 158.888890
13.91 13.924150 4.783330 76.10 160.0
13.90 13.90790 4.80 75.50 162.0
13.89 13.900230 4.80 75.980 164.0
13.88 13.892550 4.80 76.460 166.0
13.87 13.87810 4.80 76.940 168.0
13.86 13.870430 4.80 77.420 170.0
13.85 13.862750 4.80 77.90 165.0
13.84 13.84740 4.780 77.20 160.0
13.83 13.840180 4.760 76.50 155.0
13.82 13.832960 4.740 75.80 150.0
13.81 13.817610 4.720 75.10 145.0
13.80 13.809930 4.70 74.40 140.0
13.79 13.802260 4.716670 74.533330 147.222220
13.78 13.787810 4.733330 74.666670 154.444440
13.77 13.780140 4.750 74.80 161.666670
13.76 13.772460 4.766670 74.933330 168.888890
13.75 13.758010 4.783330 75.066670 176.111110
13.74 13.750790 4.80 75.20 183.333330
13.73 13.743570 4.80 75.30 182.777780
13.72 13.729120 4.80 75.40 182.222220
13.71 13.721440 4.80 75.50 181.666670
13.70 13.713770 4.80 75.60 181.111110
13.69 13.699320 4.80 75.70 180.555560
13.68 13.684880 4.780 75.30 180.0
13.67 13.677650 4.760 74.90 178.0
13.66 13.670430 4.740 74.50 176.0
13.65 13.655980 4.720 74.10 174.0
13.64 13.648760 4.70 73.70 172.0
13.63 13.641530 4.750 74.150 170.0
13.62 13.627090 4.80 74.60 176.666670
13.61 13.619860 4.850 75.050 183.333330
13.60 13.612640 4.90 75.50 190.0
13.59 13.598190 4.880 75.460 196.666670
13.58 13.590970 4.860 75.420 203.333330
13.57 13.583750 4.840 75.380 210.0
13.56 13.56930 4.820 75.340 208.888890
13.55 13.561630 4.80 75.30 207.777780
13.54 13.553950 4.80 74.1250 206.666670
13.53 13.53950 4.80 72.950 205.555560
13.52 13.532280 4.80 71.7750 204.444440
13.51 13.525060 4.80 70.60 203.333330
13.50 13.509710 4.80 70.70 204.666670
13.49 13.502030 4.80 70.80 206.0
13.48 13.494360 4.80 70.90 207.333330
13.47 13.479910 4.80 71.0 208.666670
13.46 13.465460 4.80 71.10 210.0
13.45 13.457340 4.80 71.650 197.222220
13.44 13.44650 4.80 72.20 184.444440
13.43 13.439280 4.80 72.750 171.666670
13.42 13.432050 4.80 73.30 158.888890
13.41 13.417610 4.80 73.050 146.111110
13.40 13.410380 4.80 72.80 133.333330
13.39 13.403160 4.80 72.550 134.444440
13.38 13.389620 4.80 72.30 135.555560
13.37 13.375170 4.80 72.188890 136.666670
13.36 13.367950 4.80 72.077780 137.777780
13.35 13.360720 4.80 71.966670 138.888890
13.34 13.347180 4.80 71.855560 140.0
13.33 13.339950 4.80 71.744440 142.0
13.32 13.332730 4.80 71.633330 144.0
13.31 13.318280 4.80 71.522220 146.0
13.30 13.304740 4.80 71.411110 148.0
13.29 13.297970 4.80 71.30 150.0
13.28 13.29120 4.80 71.40 152.222220
13.27 13.276750 4.80 71.50 154.444440
13.26 13.269530 4.80 71.60 156.666670
13.25 13.26230 4.80 71.70 158.888890
13.24 13.248760 4.80 71.80 161.111110
13.23 13.234310 4.80 71.6250 163.333330
13.22 13.227540 4.80 71.450 160.0
13.21 13.220770 4.80 71.2750 156.666670
13.20 13.206320 4.80 71.10 153.333330
13.19 13.19910 4.80 71.250 150.0
13.18 13.191870 4.80 71.40 146.666670
13.17 13.178330 4.80 71.550 148.666670
13.16 13.163880 4.80 71.70 150.666670
13.15 13.157110 4.80 71.950 152.666670
13.14 13.150340 4.80 72.20 154.666670
13.13 13.135890 4.80 72.450 156.666670
13.12 13.129120 4.80 72.70 162.0
13.11 13.122350 4.80 72.7250 167.333330
13.10 13.10790 4.80 72.750 172.666670
13.09 13.100680 4.80 72.7750 178.0
13.08 13.093450 4.80 72.80 183.333330
13.07 13.079910 4.8250 72.70 178.279570
13.06 13.065460 4.850 72.60 173.225810
13.05 13.058690 4.8750 72.50 168.172040
13.04 13.051920 4.90 72.40 163.118280
13.03 13.037470 4.8750 72.4750 158.064520
13.02 13.03070 4.850 72.550 154.381720
13.01 13.023930 4.8250 72.6250 150.698920
13.00 13.009480 4.80 72.70 147.016130
12.99 12.995030 4.80 72.520 143.333330
12.98 12.988260 4.80 72.340 136.666670
12.97 12.981490 4.80 72.160 130.0
12.96 12.967040 4.80 71.980 123.333330
12.95 12.959820 4.80 71.80 116.666670
12.94 12.95260 4.80 71.650 110.0
12.93 12.939050 4.80 71.50 119.166670
12.92 12.92460 4.80 71.350 128.333330
12.91 12.917380 4.80 71.20 137.50
12.90 12.910160 4.80 71.5250 146.666670
12.89 12.896610 4.80 71.850 147.333330
12.88 12.889390 4.80 72.1750 148.0
12.87 12.882170 4.80 72.50 148.666670
12.86 12.868620 4.80 72.6250 149.333330
12.85 12.854180 4.80 72.750 150.0
12.84 12.84740 4.80 72.8750 143.333330
12.83 12.840630 4.80 73.0 136.666670
12.82 12.826190 4.80 72.4250 130.0
12.81 12.819410 4.80 71.850 123.333330
12.80 12.812640 4.80 71.2750 125.833330
12.79 12.798190 4.80 70.70 128.333330
12.78 12.784650 4.80 70.70 130.833330
12.77 12.777430 4.80 70.70 133.333330
12.76 12.77020 4.80 70.70 130.666670
12.75 12.756660 4.80 70.70 128.0
12.74 12.749890 4.80 70.70 125.333330
12.73 12.743120 4.80 71.1250 122.666670
12.72 12.728670 4.80 71.550 120.0
12.71 12.715120 4.80 71.9750 133.181820
12.70 12.70790 4.80 72.40 146.363640
12.69 12.700680 4.80 72.3250 159.545450
12.68 12.687130 4.80 72.250 172.727270
12.67 12.680360 4.80 72.1750 157.177030
12.66 12.673590 4.80 72.10 141.626790
12.65 12.659140 4.80 71.8750 126.076560
12.64 12.64560 4.80 71.650 110.526320
12.63 12.638370 4.80 71.4250 120.421050
12.62 12.631150 4.80 71.20 130.315790
12.61 12.617610 4.811110 71.244440 140.210530
12.60 12.610380 4.822220 71.288890 150.105260
12.59 12.603160 4.833330 71.333330 160.0
12.58 12.589620 4.844440 71.377780 147.777780
12.57 12.575170 4.855560 71.422220 135.555560
12.56 12.56840 4.866670 71.466670 123.333330
12.55 12.561630 4.877780 71.511110 122.50
12.54 12.547180 4.888890 71.555560 121.666670
12.53 12.540410 4.90 71.60 120.833330
12.52 12.533630 4.8750 71.40 120.0
12.51 12.519190 4.850 71.20 127.333330
12.50 12.505640 4.8250 71.0 134.666670
12.49 12.498870 4.80 70.80 142.0
12.48 12.49210 4.8250 70.80 149.333330
12.47 12.477650 4.850 70.80 156.666670
12.46 12.464110 4.8750 70.80 147.50
12.45 12.457340 4.90 70.80 138.333330
12.44 12.450560 4.8750 70.950 129.166670
12.43 12.437020 4.850 71.10 120.0
12.42 12.430250 4.8250 71.250 129.166670
12.41 12.423480 4.80 71.40 138.333330
12.40 12.409030 4.780 70.840 147.50
12.39 12.395490 4.760 70.280 156.666670
12.38 12.388710 4.740 69.720 150.833330
12.37 12.381940 4.720 69.160 145.0
12.36 12.36840 4.70 68.60 139.166670
12.35 12.354850 4.70 68.7750 133.333330
12.34 12.348080 4.70 68.950 133.333330
12.33 12.341310 4.70 69.1250 133.333330
12.32 12.327770 4.70 69.30 133.333330
12.31 12.320540 4.7250 69.40 133.333330
12.30 12.313320 4.750 69.50 133.333330
12.29 12.299770 4.7750 69.60 154.166670
12.28 12.286230 4.80 69.70 175.0
12.27 12.279460 4.80 70.2250 195.833330
12.26 12.272690 4.80 70.750 216.666670
12.25 12.259140 4.80 71.2750 190.725810
12.24 12.24560 4.80 71.80 164.784950
12.23 12.238370 4.80 71.80 138.844090
12.22 12.231150 4.80 71.80 112.903230
12.21 12.218510 4.80 71.80 116.344090
12.20 12.204060 4.80 71.80 119.784950
12.19 12.197290 4.80 71.4250 123.225810
12.18 12.190520 4.80 71.050 126.666670
12.17 12.176980 4.80 70.6750 131.666670
12.16 12.17020 4.80 70.30 136.666670
12.15 12.163430 4.80 70.30 141.666670
12.14 12.149890 4.80 70.30 146.666670
12.13 12.136340 4.80 70.30 144.666670
12.12 12.129570 4.80 70.30 142.666670
12.11 12.12280 4.80 70.30 140.666670
12.10 12.109260 4.80 70.750 138.666670
12.09 12.095710 4.80 71.20 136.666670
12.08 12.088490 4.80 71.650 135.833330
12.07 12.081260 4.80 72.10 135.0
12.06 12.067720 4.7750 72.350 134.166670
12.05 12.054180 4.750 72.60 133.333330
12.04 12.04740 4.7250 72.850 140.0
12.03 12.040630 4.70 73.10 146.666670
12.02 12.027090 4.70 72.40 153.333330
12.01 12.020320 4.70 71.70 160.0
12.00 12.013540 4.70 71.0 162.50
11.99 11.99910 4.70 70.30 165.0
11.98 11.985550 4.70 70.1750 167.50
11.97 11.978780 4.70 70.050 170.0
11.96 11.972010 4.70 69.9250 170.545450
