~VERSION INFORMATION SECTION
VERS. 2.0 : CWLS LAS-VERSION 2.0
WRAP. NO : One line per depth step
~WELL INFORMATION SECTION
# MNEM.UNIT VALUE/NAME DESCRIPTION
#-------- -------------- ---------------------
STRT.Metres 16 : Start
STOP.Metres 0.38 : Stop
STEP.Metres -0.01 : Step
NULL.  -999.25 :NULL VALUE
DATE. 2025-26-11 : DATE
~CURVE INFORMATION SECTION
DEPTH.Metres : 0 Depth
Depth. : 1 Depth
Incline.Deg : 2 Incline
Azimuth.Deg : 3 Azimuth
GR.CPS : 4 GR
~PARAMETER INFORMATION SECTION
~OTHER
#-------------------------------------------------
#Produced By: GeoVista Logger - Version 7.1.107.0
Natural Gamma Sonde - 6447
Verticality Sonde - 6292
#-------------------------------------------------
~ASCII LOG DATA
# ...
7.55 7.554850 3.80 69.30 161.666670
7.54 7.547630 3.850 69.7750 164.166670
7.53 7.540410 3.90 70.250 166.666670
7.52 7.526860 3.950 70.7250 168.548390
7.51 7.519640 4.0 71.20 170.430110
7.50 7.512420 3.9250 70.7250 172.311830
7.49 7.498870 3.850 70.250 174.193550
7.48 7.485330 3.7750 69.7750 163.145160
7.47 7.47810 3.70 69.30 152.096770
7.46 7.470880 3.740 69.20 141.048390
7.45 7.457340 3.780 69.10 130.0
7.44 7.450560 3.820 69.0 144.666670
7.43 7.443790 3.860 68.90 159.333330
7.42 7.429350 3.90 68.80 174.0
7.41 7.41580 3.90 69.2750 188.666670
7.40 7.408580 3.90 69.750 203.333330
7.39 7.401350 3.90 70.2250 205.0
7.38 7.387810 3.90 70.70 206.666670
7.37 7.380590 3.90 70.60 208.333330
7.36 7.373360 3.90 70.50 210.0
7.35 7.359820 3.90 70.40 205.833330
7.34 7.346280 3.90 70.30 201.666670
7.33 7.339050 3.90 70.20 197.50
7.32 7.331830 3.90 70.10 193.333330
7.31 7.318280 3.90 70.0 194.166670
7.30 7.303840 3.90 69.90 195.0
7.29 7.297070 3.90 70.4250 195.833330
7.28 7.290290 3.90 70.950 196.666670
7.27 7.275850 3.90 71.4750 202.666670
7.26 7.269070 3.90 72.0 208.666670
7.25 7.26230 3.90 72.2250 214.666670
7.24 7.247860 3.90 72.450 220.666670
7.23 7.241080 3.90 72.6750 226.666670
7.22 7.234310 3.90 72.90 222.50
7.21 7.219860 3.90 71.8750 218.333330
7.20 7.206320 3.90 70.850 214.166670
7.19 7.19910 3.90 69.8250 210.0
7.18 7.191870 3.90 68.80 195.0
7.17 7.178330 3.90 68.940 180.0
7.16 7.171110 3.90 69.080 165.0
7.15 7.163880 3.90 69.220 150.0
7.14 7.149440 3.90 69.360 162.50
7.13 7.134990 3.90 69.50 175.0
7.12 7.128220 3.90 69.950 187.50
7.11 7.121440 3.90 70.40 200.0
7.10 7.1070 3.90 70.850 186.666670
7.09 7.100230 3.90 71.30 173.333330
7.08 7.093450 3.90 70.650 160.0
7.07 7.079910 3.90 70.0 146.666670
7.06 7.065460 3.90 69.350 142.666670
7.05 7.058240 3.90 68.70 138.666670
7.04 7.051020 3.90 69.40 134.666670
7.03 7.037470 3.90 70.10 130.666670
7.02 7.03070 3.90 70.80 126.666670
7.01 7.023930 3.90 71.50 141.666670
7.00 7.009480 3.90 71.6750 156.666670
6.99 6.995940 3.90 71.850 171.666670
6.98 6.988710 3.90 72.0250 186.666670
6.97 6.981490 3.90 72.20 182.50
6.96 6.967950 3.90 71.10 178.333330
6.95 6.961170 3.90 70.0 174.166670
6.94 6.95440 3.90 68.90 170.0
6.93 6.939950 3.90 67.80 163.333330
6.92 6.926410 3.90 68.460 156.666670
6.91 6.919190 3.90 69.120 150.0
6.90 6.911960 3.90 69.780 143.333330
6.89 6.898420 3.90 70.440 146.666670
6.88 6.883970 3.90 71.10 150.0
6.87 6.87720 3.90 71.250 153.333330
6.86 6.870430 3.90 71.40 156.666670
6.85 6.856880 3.90 71.550 162.50
6.84 6.843340 3.90 71.70 168.333330
6.83 6.837020 3.90 71.1250 174.166670
6.82 6.83070 3.90 70.550 180.0
6.81 6.817160 3.90 69.9750 185.833330
6.80 6.803610 3.90 69.40 191.666670
6.79 6.796840 3.90 69.688890 197.50
6.78 6.790070 3.90 69.977780 203.333330
6.77 6.776520 3.90 70.266670 189.166670
6.76 6.769750 3.90 70.555560 175.0
6.75 6.762980 3.90 70.844440 160.833330
6.74 6.749440 3.90 71.133330 146.666670
6.73 6.735890 3.90 71.422220 147.333330
6.72 6.729120 3.90 71.711110 148.0
6.71 6.722350 3.90 72.0 148.666670
6.70 6.70790 3.90 71.750 149.333330
6.69 6.694360 3.90 71.50 150.0
6.68 6.687580 3.90 71.250 162.50
6.67 6.680810 3.90 71.0 175.0
6.66 6.666370 3.90 71.20 187.50
6.65 6.659590 3.90 71.40 200.0
6.64 6.652820 3.90 71.60 185.833330
6.63 6.639280 3.90 71.80 171.666670
6.62 6.625730 3.8750 71.650 157.50
6.61 6.618510 3.850 71.50 143.333330
6.60 6.611290 3.8250 71.350 138.333330
6.59 6.597740 3.80 71.20 133.333330
6.58 6.590520 3.80 71.350 128.333330
6.57 6.58330 3.80 71.50 123.333330
6.56 6.569750 3.80 71.650 130.833330
6.55 6.556210 3.80 71.80 138.333330
6.54 6.548980 3.80 71.550 145.833330
6.53 6.541760 3.80 71.30 153.333330
6.52 6.528220 3.80 71.050 147.50
6.51 6.514670 3.80 70.80 141.666670
6.50 6.507450 3.80 70.550 135.833330
6.49 6.500230 3.80 70.30 130.0
6.48 6.486680 3.80 70.050 133.333330
6.47 6.479460 3.80 69.80 136.666670
6.46 6.472230 3.80 69.550 140.0
6.45 6.458690 3.80 69.30 143.333330
6.44 6.445150 3.80 69.050 146.666670
6.43 6.437920 3.80 68.80 147.50
6.42 6.43070 3.7750 68.850 148.333330
6.41 6.417160 3.750 68.90 149.166670
6.40 6.409930 3.7250 68.950 150.0
6.39 6.402710 3.70 69.0 148.333330
6.38 6.389160 3.70 69.020 146.666670
6.37 6.375620 3.70 69.040 145.0
6.36 6.36840 3.70 69.060 143.333330
6.35 6.361170 3.70 69.080 145.833330
6.34 6.347630 3.70 69.10 148.333330
6.33 6.340410 3.70 68.80 150.833330
6.32 6.333180 3.70 68.50 153.333330
6.31 6.318740 3.70 68.20 162.0
6.30 6.305190 3.70 67.90 170.666670
6.29 6.297970 3.70 68.1250 179.333330
6.28 6.290740 3.70 68.350 188.0
6.27 6.27720 3.70 68.5750 196.666670
6.26 6.269980 3.70 68.80 179.166670
6.25 6.262750 3.70 68.68750 161.666670
6.24 6.249210 3.70 68.5750 144.166670
6.23 6.234760 3.70 68.46250 126.666670
6.22 6.227990 3.70 68.350 130.0
6.21 6.221220 3.70 68.23750 133.333330
6.20 6.206770 3.70 68.1250 136.666670
6.19 6.20 3.70 68.01250 140.0
6.18 6.193230 3.70 67.90 152.50
6.17 6.178780 3.70 68.050 165.0
6.16 6.165240 3.70 68.20 177.50
6.15 6.158010 3.70 68.350 190.0
6.14 6.150790 3.70 68.50 181.136360
6.13 6.137250 3.70 68.340 172.272730
6.12 6.130020 3.70 68.180 163.409090
6.11 6.12280 3.70 68.020 154.545450
6.10 6.109260 3.70 67.860 155.382780
6.09 6.095710 3.70 67.70 156.22010
6.08 6.088940 3.70 67.4750 157.057420
6.07 6.082170 3.70 67.250 157.894740
6.06 6.068620 3.70 67.0250 149.649120
6.05 6.054180 3.70 66.80 141.403510
6.04 6.04740 3.70 66.90 133.157890
6.03 6.040630 3.70 67.0 124.912280
6.02 6.026190 3.70 67.10 116.666670
6.01 6.019410 3.70 67.20 129.166670
6.00 6.012640 3.70 67.250 141.666670
5.99 5.99910 3.70 67.30 154.166670
5.98 5.984650 3.70 67.350 166.666670
5.97 5.977880 3.70 67.40 164.166670
5.96 5.971110 3.70 67.0250 161.666670
5.95 5.957560 3.70 66.650 159.166670
5.94 5.950340 3.70 66.2750 156.666670
5.93 5.943120 3.70 65.90 151.370970
5.92 5.929570 3.720 66.040 146.075270
5.91 5.916030 3.740 66.180 140.779570
5.90 5.90880 3.760 66.320 135.483870
5.89 5.901580 3.780 66.460 129.11290
5.88 5.888040 3.80 66.60 122.741940
5.87 5.874490 3.80 67.3250 116.370970
5.86 5.867270 3.80 68.050 110.0
5.85 5.860050 3.80 68.7750 112.50
5.84 5.84650 3.80 69.50 115.0
5.83 5.839280 3.7750 68.6250 117.50
5.82 5.832050 3.750 67.750 120.0
5.81 5.818510 3.7250 66.8750 115.0
5.80 5.804060 3.70 66.0 110.0
5.79 5.797290 3.750 66.3750 105.0
5.78 5.790520 3.80 66.750 100.0
5.77 5.776980 3.850 67.1250 111.666670
5.76 5.77020 3.90 67.50 123.333330
5.75 5.763430 3.90 67.650 135.0
5.74 5.748980 3.90 67.80 146.666670
5.73 5.735440 3.90 67.950 151.666670
5.72 5.728670 3.90 68.10 156.666670
5.71 5.72190 3.90 67.80 161.666670
5.70 5.708350 3.90 67.50 166.666670
5.69 5.694810 3.90 67.20 167.333330
5.68 5.688040 3.90 66.90 168.0
5.67 5.681260 3.90 67.460 168.666670
5.66 5.667720 3.90 68.020 169.333330
5.65 5.654180 3.90 68.580 170.0
5.64 5.64740 3.90 69.140 159.166670
5.63 5.640630 3.90 69.70 148.333330
5.62 5.627090 3.850 68.4250 137.50
5.61 5.619860 3.80 67.150 126.666670
5.60 5.612640 3.750 65.8750 124.545450
5.59 5.59910 3.70 64.60 122.424240
5.58 5.585550 3.750 64.50 120.303030
5.57 5.578330 3.80 64.40 118.181820
5.56 5.571110 3.850 64.30 129.425840
5.55 5.557560 3.90 64.20 140.669860
5.54 5.550790 3.90 65.1750 151.913880
5.53 5.544020 3.90 66.150 163.157890
5.52 5.529570 3.90 67.1250 170.701750
5.51 5.516030 3.90 68.10 178.245610
5.50 5.50880 3.8750 67.60 185.789470
5.49 5.501580 3.850 67.10 193.333330
5.48 5.488040 3.8250 66.60 182.666670
5.47 5.473590 3.80 66.10 172.0
5.46 5.466820 3.8250 66.1250 161.333330
5.45 5.460050 3.850 66.150 150.666670
5.44 5.44650 3.8750 66.1750 140.0
5.43 5.439280 3.90 66.20 140.0
5.42 5.432050 3.90 66.3750 140.0
5.41 5.418510 3.90 66.550 140.0
5.40 5.411290 3.90 66.7250 140.0
5.39 5.404060 3.90 66.90 138.333330
5.38 5.389620 3.90 66.850 136.666670
5.37 5.376070 3.90 66.80 135.0
5.36 5.36930 3.90 66.750 133.333330
5.35 5.362530 3.90 66.70 142.50
5.34 5.348080 3.90 66.660 151.666670
5.33 5.334540 3.90 66.620 160.833330
5.32 5.327310 3.90 66.580 170.0
5.31 5.320090 3.90 66.540 157.50
5.30 5.306550 3.90 66.50 145.0
