~VERSION INFORMATION SECTION
VERS. 2.0 : CWLS LAS-VERSION 2.0
WRAP. NO : One line per depth step
~WELL INFORMATION SECTION
# MNEM.UNIT VALUE/NAME DESCRIPTION
#-------- -------------- ---------------------
STRT.Metres 16 : Start
STOP.Metres 0.38 : Stop
STEP.Metres -0.01 : Step
NULL.  -999.25 :NULL VALUE
DATE. 2025-26-11 : DATE
~CURVE INFORMATION SECTION
DEPTH.Metres : 0 Depth
Depth. : 1 Depth
Incline.Deg : 2 Incline
Azimuth.Deg : 3 Azimuth
GR.CPS : 4 GR
~PARAMETER INFORMATION SECTION
~OTHER
#-------------------------------------------------
#Produced By: GeoVista Logger - Version 7.1.107.0
Natural Gamma Sonde - 6447
Verticality Sonde - 6292
#-------------------------------------------------
~ASCII LOG DATA
# ...
2.99 2.995030 3.050 65.950 140.0
2.98 2.988260 3.0750 65.1250 135.0
2.97 2.981490 3.10 64.30 130.0
2.96 2.967040 3.0750 64.6750 125.0
2.95 2.959820 3.050 65.050 120.0
2.94 2.95260 3.0250 65.4250 126.666670
2.93 2.939050 3.0 65.80 133.333330
2.92 2.92460 3.0 65.640 140.0
2.91 2.917380 3.0 65.480 146.666670
2.90 2.910160 3.0 65.320 147.50
2.89 2.895710 3.0 65.160 148.333330
2.88 2.888490 3.0 65.0 149.166670
2.87 2.881260 3.0 65.3750 150.0
2.86 2.866820 3.0 65.750 140.0
2.85 2.859590 3.0 66.1250 130.0
2.84 2.852370 3.0 66.50 120.0
2.83 2.838830 3.0 66.3750 110.0
2.82 2.83160 3.0 66.250 100.0
2.81 2.824380 3.0 66.1250 106.451610
2.80 2.809930 3.0 66.0 112.903230
2.79 2.795490 3.0 65.8750 119.354840
2.78 2.788260 3.0 65.750 125.806450
2.77 2.781040 3.0 65.6250 136.854840
2.76 2.767490 3.0 65.50 147.903230
2.75 2.760270 2.980 65.680 158.951610
2.74 2.753050 2.960 65.860 170.0
2.73 2.73860 2.940 66.040 167.50
2.72 2.724150 2.920 66.220 165.0
2.71 2.717380 2.90 66.40 162.50
2.70 2.710610 2.8750 67.50 160.0
2.69 2.696160 2.850 68.60 159.333330
2.68 2.688940 2.8250 69.70 158.666670
2.67 2.681720 2.80 70.80 158.0
2.66 2.667270 2.8250 69.650 157.333330
2.65 2.660050 2.850 68.50 156.666670
2.64 2.652820 2.8750 67.350 150.833330
2.63 2.638370 2.90 66.20 145.0
2.62 2.631150 2.8750 66.4750 139.166670
2.61 2.623930 2.850 66.750 133.333330
2.60 2.609480 2.8250 67.0250 140.833330
2.59 2.595030 2.80 67.30 148.333330
2.58 2.587810 2.80 67.740 155.833330
2.57 2.580590 2.80 68.180 163.333330
2.56 2.567040 2.80 68.620 155.833330
2.55 2.559820 2.80 69.060 148.333330
2.54 2.55260 2.80 69.50 140.833330
2.53 2.538150 2.80 69.2250 133.333330
2.52 2.52370 2.80 68.950 134.166670
2.51 2.516930 2.80 68.6750 135.0
2.50 2.510160 2.80 68.40 135.833330
2.49 2.495710 2.80 68.450 136.666670
2.48 2.488490 2.80 68.50 133.333330
2.47 2.481260 2.80 68.550 130.0
2.46 2.466820 2.80 68.60 126.666670
2.45 2.459590 2.80 68.50 123.333330
2.44 2.452370 2.80 68.40 120.0
2.43 2.438830 2.80 68.30 119.166670
2.42 2.43160 2.80 68.20 118.333330
2.41 2.424380 2.80 68.520 117.50
2.40 2.409930 2.80 68.840 116.666670
2.39 2.395490 2.80 69.160 122.50
2.38 2.388260 2.80 69.480 128.333330
2.37 2.381040 2.80 69.80 134.166670
2.36 2.366590 2.80 69.53750 140.0
2.35 2.359820 2.80 69.2750 143.750
2.34 2.353050 2.80 69.01250 147.50
2.33 2.33860 2.80 68.750 151.250
2.32 2.325060 2.80 68.48750 155.0
2.31 2.318280 2.80 68.2250 158.750
2.30 2.311510 2.80 67.96250 162.50
2.29 2.297070 2.80 67.70 166.250
2.28 2.290290 2.780 68.440 170.0
2.27 2.283520 2.760 69.180 166.0
2.26 2.269980 2.740 69.920 162.0
2.25 2.256430 2.720 70.660 158.0
2.24 2.249210 2.70 71.40 154.0
2.23 2.241990 2.70 71.1250 150.0
2.22 2.228440 2.70 70.850 145.833330
2.21 2.21490 2.70 70.5750 141.666670
2.20 2.207670 2.70 70.30 137.50
2.19 2.200450 2.70 70.0250 133.333330
2.18 2.186910 2.70 69.750 143.181820
2.17 2.179680 2.70 69.4750 153.03030
2.16 2.172460 2.70 69.20 162.878790
2.15 2.158920 2.6750 69.750 172.727270
2.14 2.144470 2.650 70.30 179.545450
2.13 2.137250 2.6250 70.850 186.363640
2.12 2.130020 2.60 71.40 193.181820
2.11 2.116480 2.580 70.820 200.0
2.10 2.109260 2.560 70.240 185.333330
2.09 2.102030 2.540 69.660 170.666670
2.08 2.087580 2.520 69.080 156.0
2.07 2.080810 2.50 68.50 141.333330
2.06 2.074040 2.5250 69.850 126.666670
2.05 2.059590 2.550 71.20 141.666670
2.04 2.045150 2.5750 72.550 156.666670
2.03 2.037920 2.60 73.90 171.666670
2.02 2.03070 2.566670 74.1750 186.666670
2.01 2.017160 2.533330 74.450 184.354840
2.00 2.009930 2.50 74.7250 182.043010
1.99 2.002710 2.466670 75.0 179.731180
1.98 1.988260 2.433330 75.2750 177.419350
1.97 1.981040 2.40 75.550 175.564520
1.96 1.973810 2.366670 75.8250 173.709680
1.95 1.959370 2.333330 76.10 171.854840
1.94 1.945820 2.30 76.3750 170.0
1.93 1.93860 2.266670 76.650 167.333330
1.92 1.931380 2.233330 76.9250 164.666670
1.91 1.916930 2.20 77.20 162.0
1.90 1.910160 2.20 76.780 159.333330
1.89 1.903390 2.20 76.360 156.666670
1.88 1.888940 2.20 75.940 164.166670
1.87 1.874490 2.20 75.520 171.666670
1.86 1.867270 2.20 75.10 179.166670
1.85 1.860050 2.20 73.5250 186.666670
1.84 1.84650 2.20 71.950 181.666670
1.83 1.839280 2.20 70.3750 176.666670
1.82 1.832050 2.20 68.80 171.666670
1.81 1.817610 2.18750 69.28750 166.666670
1.80 1.810380 2.1750 69.7750 164.0
1.79 1.803160 2.16250 70.26250 161.333330
1.78 1.788710 2.150 70.750 158.666670
1.77 1.775170 2.13750 71.23750 156.0
1.76 1.767950 2.1250 71.7250 153.333330
1.75 1.760720 2.11250 72.21250 155.833330
1.74 1.746280 2.10 72.70 158.333330
1.73 1.739050 2.10 72.20 160.833330
1.72 1.731830 2.10 71.70 163.333330
1.71 1.718280 2.10 71.20 180.0
1.70 1.711060 2.10 70.70 196.666670
1.69 1.703840 2.10 70.20 213.333330
1.68 1.689390 2.0750 72.0 230.0
1.67 1.674940 2.050 73.80 218.750
1.66 1.668170 2.0250 75.60 207.50
1.65 1.66140 2.0 77.40 196.250
1.64 1.646950 2.0 77.0 185.0
1.63 1.639730 2.0 76.60 184.363640
1.62 1.632510 2.0 76.20 183.727270
1.61 1.618060 2.0 75.80 183.090910
1.60 1.604510 1.950 75.9250 182.454550
1.59 1.597290 1.90 76.050 181.818180
1.58 1.590070 1.850 76.1750 181.363640
1.57 1.575620 1.80 76.30 180.909090
1.56 1.568850 1.840 76.0 180.454550
1.55 1.562080 1.880 75.70 180.0
1.54 1.547630 1.920 75.40 162.50
1.53 1.540860 1.960 75.10 145.0
1.52 1.534090 2.0 74.80 127.50
1.51 1.519640 1.9750 73.80 110.0
1.50 1.505190 1.950 72.80 127.333330
1.49 1.498420 1.9250 71.80 144.666670
1.48 1.491650 1.90 70.80 162.0
1.47 1.47720 1.8750 71.250 179.333330
1.46 1.469980 1.850 71.70 196.666670
1.45 1.462750 1.8250 72.150 186.666670
1.44 1.449210 1.80 72.60 176.666670
1.43 1.434760 1.820 74.20 166.666670
1.42 1.427540 1.840 75.80 156.666670
1.41 1.420320 1.860 77.40 144.166670
1.40 1.406770 1.880 79.0 131.666670
1.39 1.399550 1.90 80.60 119.166670
1.38 1.392330 1.90 78.2750 106.666670
1.37 1.378780 1.90 75.950 109.545450
1.36 1.371560 1.90 73.6250 112.424240
1.35 1.364330 1.90 71.30 115.303030
1.34 1.349890 1.90 72.950 118.181820
1.33 1.336340 1.90 74.60 127.272730
1.32 1.329120 1.90 76.250 136.363640
1.31 1.32190 1.90 77.90 145.454550
1.30 1.307450 1.8750 77.9750 154.545450
1.29 1.293910 1.850 78.050 147.488040
1.28 1.283970 1.8250 78.1250 140.430620
1.27 1.275850 1.80 78.20 133.373210
1.26 1.265310 1.80 77.60 126.315790
1.25 1.253390 1.80 77.0 135.71930
1.24 -999.25 1.80 76.40 145.122810
1.23 -999.25 1.80 75.80 154.526320
1.22 -999.25 1.80 75.20 163.929820
1.21 -999.25 1.80 77.350 173.333330
1.20 -999.25 1.80 79.50 161.451610
1.19 -999.25 1.80 81.650 149.569890
1.18 -999.25 1.80 83.80 137.688170
1.17 -999.25 1.8250 82.4750 125.806450
1.16 -999.25 1.850 81.150 119.354840
1.15 -999.25 1.8750 79.8250 112.903230
1.14 -999.25 1.90 78.50 106.451610
1.13 -999.25 1.8750 78.70 100.0
1.12 -999.25 1.850 78.90 103.0
1.11 -999.25 1.8250 79.10 106.0
1.10 -999.25 1.80 79.30 109.0
1.09 -999.25 1.750 82.450 112.0
1.08 -999.25 1.70 85.60 115.0
1.07 -999.25 1.650 88.750 121.250
1.06 -999.25 1.60 91.90 127.50
1.05 -999.25 1.660 88.80 133.750
1.04 -999.25 1.720 85.70 140.0
1.03 -999.25 1.780 82.60 132.50
1.02 -999.25 1.840 79.50 125.0
1.01 -999.25 1.90 76.40 117.50
1.00 -999.25 1.80 79.433330 110.0
0.99 -999.25 1.70 82.466670 119.166670
0.98 -999.25 1.60 85.50 128.333330
0.97 -999.25 1.50 67.0 137.50
0.96 -999.25 1.40 79.60 146.666670
0.95 -999.25 1.450 83.60 149.333330
0.94 -999.25 -999.25 -999.25 152.0
0.93 -999.25 -999.25 -999.25 154.666670
0.92 -999.25 -999.25 -999.25 157.333330
0.91 -999.25 -999.25 -999.25 160.0
0.90 -999.25 -999.25 -999.25 144.166670
0.89 -999.25 -999.25 -999.25 128.333330
0.88 -999.25 -999.25 -999.25 112.50
0.87 -999.25 -999.25 -999.25 96.666670
0.86 -999.25 -999.25 -999.25 104.166670
0.85 -999.25 -999.25 -999.25 111.666670
0.84 -999.25 -999.25 -999.25 119.166670
0.83 -999.25 -999.25 -999.25 126.666670
0.82 -999.25 -999.25 -999.25 125.833330
0.81 -999.25 -999.25 -999.25 125.0
0.80 -999.25 -999.25 -999.25 124.166670
0.79 -999.25 -999.25 -999.25 123.333330
0.78 -999.25 -999.25 -999.25 128.666670
0.77 -999.25 -999.25 -999.25 134.0
0.76 -999.25 -999.25 -999.25 139.333330
