~VERSION INFORMATION SECTION
VERS. 2.0 : CWLS LAS-VERSION 2.0
WRAP. NO : One line per depth step
~WELL INFORMATION SECTION
# MNEM.UNIT VALUE/NAME DESCRIPTION
#-------- -------------- ---------------------
STRT.Metres 16 : Start
STOP.Metres 0.38 : Stop
STEP.Metres -0.01 : Step
NULL.  -999.25 :NULL VALUE
DATE. 2025-26-11 : DATE
~CURVE INFORMATION SECTION
DEPTH.Metres : 0 Depth
Depth. : 1 Depth
Incline.Deg : 2 Incline
Azimuth.Deg : 3 Azimuth
GR.CPS : 4 GR
~PARAMETER INFORMATION SECTION
~OTHER
#-------------------------------------------------
#Produced By: GeoVista Logger - Version 7.1.107.0
Natural Gamma Sonde - 6447
Verticality Sonde - 6292
#-------------------------------------------------
~ASCII LOG DATA
# ...
9.79 9.79910 4.30 72.840 238.333330
9.78 9.792330 4.30 72.760 246.666670
9.77 9.777880 4.30 72.680 232.50
9.76 9.771110 4.30 72.60 218.333330
9.75 9.764330 4.2750 72.5250 204.166670
9.74 9.749890 4.250 72.450 190.0
9.73 9.736340 4.2250 72.3750 192.0
9.72 9.729570 4.20 72.30 194.0
9.71 9.72280 4.20 72.40 196.0
9.70 9.709260 4.20 72.50 198.0
9.69 9.694810 4.20 72.60 200.0
9.68 9.688040 4.20 72.70 190.833330
9.67 9.681260 4.2250 72.9250 181.666670
9.66 9.667720 4.250 73.150 172.50
9.65 9.660950 4.2750 73.3750 163.333330
9.64 9.654180 4.30 73.60 168.333330
9.63 9.639730 4.288890 73.311110 173.333330
9.62 9.626190 4.277780 73.022220 178.333330
9.61 9.619410 4.266670 72.733330 183.333330
9.60 9.612640 4.255560 72.444440 164.166670
9.59 9.598190 4.244440 72.155560 145.0
9.58 9.584650 4.233330 71.866670 125.833330
9.57 9.577880 4.222220 71.577780 106.666670
9.56 9.571110 4.211110 71.288890 117.50
9.55 9.556660 4.20 71.0 128.333330
9.54 9.549890 4.250 71.10 139.166670
9.53 9.543120 4.30 71.20 150.0
9.52 9.529570 4.350 71.30 154.166670
9.51 9.515120 4.40 71.40 158.333330
9.50 9.508350 4.4250 71.8750 162.50
9.49 9.501580 4.450 72.350 166.666670
9.48 9.488040 4.4750 72.8250 175.0
9.47 9.473590 4.50 73.30 183.333330
9.46 9.466820 4.450 72.7250 191.666670
9.45 9.460050 4.40 72.150 200.0
9.44 9.44650 4.350 71.5750 191.666670
9.43 9.439280 4.30 71.0 183.333330
9.42 9.432050 4.30 70.8750 175.0
9.41 9.418510 4.30 70.750 166.666670
9.40 9.404060 4.30 70.6250 179.333330
9.39 9.397290 4.30 70.50 192.0
9.38 9.390520 4.30 70.660 204.666670
9.37 9.376070 4.30 70.820 217.333330
9.36 9.36930 4.30 70.980 230.0
9.35 9.362530 4.30 71.140 220.0
9.34 9.348980 4.30 71.30 210.0
9.33 9.334540 4.30 71.3250 200.0
9.32 9.327770 4.30 71.350 190.0
9.31 9.320990 4.30 71.3750 186.666670
9.30 9.306550 4.30 71.40 183.333330
9.29 9.299770 4.3250 71.30 180.0
9.28 9.2930 4.350 71.20 176.666670
9.27 9.278560 4.3750 71.10 182.50
9.26 9.265010 4.40 71.0 188.333330
9.25 9.258240 4.40 71.150 194.166670
9.24 9.251470 4.40 71.30 200.0
9.23 9.237020 4.40 71.450 183.333330
9.22 9.22980 4.40 71.60 166.666670
9.21 9.222570 4.40 71.3750 150.0
9.20 9.209030 4.40 71.150 133.333330
9.19 9.194580 4.40 70.9250 147.222220
9.18 9.187360 4.40 70.70 161.111110
9.17 9.180140 4.40 70.7750 175.0
9.16 9.166590 4.40 70.850 188.888890
9.15 9.159370 4.40 70.9250 191.111110
9.14 9.152140 4.40 71.0 193.333330
9.13 9.13860 4.3750 70.9250 195.555560
9.12 9.124150 4.350 70.850 197.777780
9.11 9.117380 4.3250 70.7750 200.0
9.10 9.110610 4.30 70.70 185.483870
9.09 9.096160 4.30 70.860 170.967740
9.08 9.089390 4.30 71.020 156.451610
9.07 9.082620 4.30 71.180 141.935480
9.06 9.068170 4.30 71.340 143.118280
9.05 9.054630 4.30 71.50 144.301080
9.04 9.047860 4.30 71.40 145.483870
9.03 9.041080 4.30 71.30 146.666670
9.02 9.026640 4.30 71.20 163.333330
9.01 9.019860 4.30 71.10 180.0
9.00 9.013090 4.30 70.9250 196.666670
8.99 8.998650 4.30 70.750 213.333330
8.98 8.98510 4.30 70.5750 193.333330
8.97 8.977880 4.30 70.40 173.333330
8.96 8.970650 4.30 70.6750 153.333330
8.95 8.956210 4.30 70.950 133.333330
8.94 8.949440 4.30 71.2250 139.333330
8.93 8.942660 4.30 71.50 145.333330
8.92 8.929120 4.30 71.7250 151.333330
8.91 8.914670 4.30 71.950 157.333330
8.90 8.90790 4.30 72.1750 163.333330
8.89 8.901130 4.30 72.40 160.0
8.88 8.886680 4.30 71.680 156.666670
8.87 8.879910 4.30 70.960 153.333330
8.86 8.873140 4.30 70.240 150.0
8.85 8.858690 4.30 69.520 150.0
8.84 8.845150 4.30 68.80 150.0
8.83 8.838370 4.3250 70.4250 150.0
8.82 8.83160 4.350 72.050 150.0
8.81 8.817160 4.3750 73.6750 138.333330
8.80 8.803610 4.40 75.30 126.666670
8.79 8.796840 4.3750 73.40 115.0
8.78 8.790070 4.350 71.50 103.333330
8.77 8.776520 4.3250 69.60 124.166670
8.76 8.769750 4.30 67.70 145.0
8.75 8.762980 4.30 67.5250 165.833330
8.74 8.748530 4.30 67.350 186.666670
8.73 8.734990 4.30 67.1750 188.333330
8.72 8.728220 4.30 67.0 190.0
8.71 8.721440 4.2750 69.250 191.666670
8.70 8.70790 4.250 71.50 193.333330
8.69 8.700680 4.2250 73.750 185.833330
8.68 8.693450 4.20 76.0 178.333330
8.67 8.679910 4.220 75.040 170.833330
8.66 8.665460 4.240 74.080 163.333330
8.65 8.658690 4.260 73.120 166.666670
8.64 8.651920 4.280 72.160 170.0
8.63 8.638370 4.30 71.20 173.333330
8.62 8.624830 4.2750 70.7750 176.666670
8.61 8.617610 4.250 70.350 180.0
8.60 8.610380 4.2250 69.9250 171.666670
8.59 8.596840 4.20 69.50 163.333330
8.58 8.590070 4.20 70.4250 155.0
8.57 8.58330 4.20 71.350 146.666670
8.56 8.568850 4.20 72.2750 149.166670
8.55 8.55530 4.20 73.20 151.666670
8.54 8.548530 4.20 72.5750 154.166670
8.53 8.541760 4.20 71.950 156.666670
8.52 8.527310 4.20 71.3250 165.0
8.51 8.513770 4.20 70.70 173.333330
8.50 8.5070 4.20 70.550 181.666670
8.49 8.500230 4.20 70.40 190.0
8.48 8.486680 4.20 70.250 187.50
8.47 8.479460 4.20 70.10 185.0
8.46 8.472230 4.20 70.40 182.50
8.45 8.458690 4.20 70.70 180.0
8.44 8.444240 4.20 71.0 179.333330
8.43 8.437470 4.20 71.30 178.666670
8.42 8.43070 4.20 70.90 178.0
8.41 8.417160 4.20 70.50 177.333330
8.40 8.409930 4.20 70.10 176.666670
8.39 8.402710 4.20 69.70 181.666670
8.38 8.389160 4.180 70.240 186.666670
8.37 8.375620 4.160 70.780 191.666670
8.36 8.36840 4.140 71.320 196.666670
8.35 8.361170 4.120 71.860 195.0
8.34 8.347630 4.10 72.40 193.333330
8.33 8.340410 4.10 72.20 191.666670
8.32 8.333180 4.10 72.0 190.0
8.31 8.319640 4.10 71.80 189.274190
8.30 8.305190 4.10 71.60 188.548390
8.29 8.297970 4.10 71.250 187.822580
8.28 8.290740 4.10 70.90 187.096770
8.27 8.27720 4.10 70.550 187.822580
8.26 8.269980 4.10 70.20 188.548390
8.25 8.262750 4.0750 70.6750 189.274190
8.24 8.249210 4.050 71.150 190.0
8.23 8.234760 4.0250 71.6250 184.666670
8.22 8.227990 4.0 72.10 179.333330
8.21 8.221220 4.0250 72.0250 174.0
8.20 8.206770 4.050 71.950 168.666670
8.19 8.20 4.0750 71.8750 163.333330
8.18 8.193230 4.10 71.80 162.50
8.17 8.178780 4.0750 71.3750 161.666670
8.16 8.165240 4.050 70.950 160.833330
8.15 8.158010 4.0250 70.5250 160.0
8.14 8.150790 4.0 70.10 163.333330
8.13 8.137250 3.980 70.240 166.666670
8.12 8.130020 3.960 70.380 170.0
8.11 8.12280 3.940 70.520 173.333330
8.10 8.108350 3.920 70.660 171.666670
8.09 8.094810 3.90 70.80 170.0
8.08 8.087580 3.9250 71.9750 168.333330
8.07 8.080360 3.950 73.150 166.666670
8.06 8.065910 3.9750 74.3250 174.166670
8.05 8.059140 4.0 75.50 181.666670
8.04 8.052370 4.0 73.70 189.166670
8.03 8.037920 4.0 71.90 196.666670
8.02 8.031150 4.0 70.10 195.333330
8.01 8.024380 4.0 68.30 194.0
8.00 8.009930 3.9750 69.1250 192.666670
7.99 7.996390 3.950 69.950 191.333330
7.98 7.989160 3.9250 70.7750 190.0
7.97 7.981940 3.90 71.60 196.666670
7.96 7.96840 3.90 71.60 203.333330
7.95 7.953950 3.90 71.60 210.0
7.94 7.947180 3.90 71.60 216.666670
7.93 7.940410 3.90 71.60 220.833330
7.92 7.926860 3.90 71.060 225.0
7.91 7.919640 3.90 70.520 229.166670
7.90 7.912420 3.90 69.980 233.333330
7.89 7.898870 3.90 69.440 222.50
7.88 7.885330 3.90 68.90 211.666670
7.87 7.878560 3.9250 69.150 200.833330
7.86 7.871780 3.950 69.40 190.0
7.85 7.857340 3.9750 69.650 185.833330
7.84 7.843790 4.0 69.90 181.666670
7.83 7.837020 3.9750 70.60 177.50
7.82 7.830250 3.950 71.30 173.333330
7.81 7.81580 3.9250 72.0 180.833330
7.80 7.809030 3.90 72.70 188.333330
7.79 7.802260 3.90 72.0 195.833330
7.78 7.788710 3.90 71.30 203.333330
7.77 7.775170 3.90 70.60 201.666670
7.76 7.767950 3.90 69.90 200.0
7.75 7.760720 3.90 69.8750 198.333330
7.74 7.747180 3.90 69.850 196.666670
7.73 7.740410 3.90 69.8250 195.333330
7.72 7.733630 3.90 69.80 194.0
7.71 7.719190 3.90 69.980 192.666670
7.70 7.705640 3.90 70.160 191.333330
7.69 7.698870 3.90 70.340 190.0
7.68 7.69210 3.90 70.520 185.833330
7.67 7.678560 3.90 70.70 181.666670
7.66 7.664110 3.8750 70.6750 177.50
7.65 7.657340 3.850 70.650 173.333330
7.64 7.650560 3.8250 70.6250 168.333330
7.63 7.637020 3.80 70.60 163.333330
7.62 7.630250 3.80 70.20 158.333330
7.61 7.623480 3.80 69.80 153.333330
7.60 7.609930 3.80 69.40 154.166670
7.59 7.595490 3.80 69.0 155.0
7.58 7.588710 3.80 69.0750 155.833330
7.57 7.581940 3.80 69.150 156.666670
7.56 7.56840 3.80 69.2250 159.166670
