~VERSION INFORMATION SECTION
VERS. 2.0 : CWLS LAS-VERSION 2.0
WRAP. NO : One line per depth step
~WELL INFORMATION SECTION
# MNEM.UNIT VALUE/NAME DESCRIPTION
#-------- -------------- ---------------------
STRT.Metres 16 : Start
STOP.Metres 0.38 : Stop
STEP.Metres -0.01 : Step
NULL.  -999.25 :NULL VALUE
DATE. 2025-26-11 : DATE
~CURVE INFORMATION SECTION
DEPTH.Metres : 0 Depth
Depth. : 1 Depth
Incline.Deg : 2 Incline
Azimuth.Deg : 3 Azimuth
GR.CPS : 4 GR
~PARAMETER INFORMATION SECTION
~OTHER
#-------------------------------------------------
#Produced By: GeoVista Logger - Version 7.1.107.0
Natural Gamma Sonde - 6447
Verticality Sonde - 6292
#-------------------------------------------------
~ASCII LOG DATA
# ...
5.29 5.299320 3.90 66.350 132.50
5.28 5.29210 3.90 66.20 120.0
5.27 5.278560 3.90 66.050 128.666670
5.26 5.264110 3.90 65.90 137.333330
5.25 5.257340 3.90 65.850 146.0
5.24 5.250560 3.90 65.80 154.666670
5.23 5.237020 3.90 65.750 163.333330
5.22 5.22980 3.90 65.70 152.50
5.21 5.222570 3.90 65.6750 141.666670
5.20 5.209030 3.90 65.650 130.833330
5.19 5.195490 3.90 65.6250 120.0
5.18 5.188710 3.90 65.60 125.833330
5.17 5.181940 3.90 65.4750 131.666670
5.16 5.167490 3.90 65.350 137.50
5.15 5.153950 3.90 65.2250 143.333330
5.14 5.147180 3.90 65.10 146.209680
5.13 5.140410 3.90 65.520 149.086020
5.12 5.126860 3.90 65.940 151.962370
5.11 5.119640 3.90 66.360 154.838710
5.10 5.112420 3.90 66.780 155.29570
5.09 5.098870 3.90 67.20 155.752690
5.08 5.085330 3.90 66.7250 156.209680
5.07 5.078560 3.90 66.250 156.666670
5.06 5.071780 3.90 65.7750 159.166670
5.05 5.057340 3.90 65.30 161.666670
5.04 5.043790 3.90 66.0 164.166670
5.03 5.037020 3.90 66.70 166.666670
5.02 5.030250 3.90 67.40 163.333330
5.01 5.01580 3.90 68.10 160.0
5.00 5.009030 3.8750 67.650 156.666670
4.99 5.002260 3.850 67.20 153.333330
4.98 4.987810 3.8250 66.750 151.333330
4.97 4.974270 3.80 66.30 149.333330
4.96 4.967490 3.80 65.90 147.333330
4.95 4.960720 3.80 65.50 145.333330
4.94 4.947180 3.80 65.10 143.333330
4.93 4.939950 3.80 64.70 144.166670
4.92 4.932730 3.80 66.0250 145.0
4.91 4.919190 3.80 67.350 145.833330
4.90 4.905640 3.80 68.6750 146.666670
4.89 4.898420 3.80 70.0 147.50
4.88 4.89120 3.80 68.60 148.333330
4.87 4.877650 3.80 67.20 149.166670
4.86 4.870430 3.80 65.80 150.0
4.85 4.863210 3.80 64.40 162.50
4.84 4.849660 3.80 64.20 175.0
4.83 4.836120 3.80 64.0 187.50
4.82 4.828890 3.80 63.80 200.0
4.81 4.821670 3.80 63.60 192.50
4.80 4.808130 3.80 63.40 185.0
4.79 4.794580 3.7750 64.450 177.50
4.78 4.787360 3.750 65.50 170.0
4.77 4.780140 3.7250 66.550 177.50
4.76 4.766590 3.70 67.60 185.0
4.75 4.759370 3.70 66.350 192.50
4.74 4.752140 3.70 65.10 200.0
4.73 4.73860 3.70 63.850 222.50
4.72 4.724150 3.70 62.60 245.0
4.71 4.717380 3.70 63.30 267.50
4.70 4.710610 3.70 64.0 290.0
4.69 4.696160 3.70 64.70 260.0
4.68 4.688940 3.70 65.40 230.0
4.67 4.681720 3.70 65.60 200.0
4.66 4.667270 3.70 65.80 170.0
4.65 4.653720 3.70 66.0 169.333330
4.64 4.646950 3.70 66.20 168.666670
4.63 4.640180 3.70 65.750 168.0
4.62 4.625730 3.70 65.30 167.333330
4.61 4.618960 3.70 64.850 166.666670
4.60 4.612190 3.70 64.40 162.50
4.59 4.598650 3.70 64.50 158.333330
4.58 4.58510 3.70 64.60 154.166670
4.57 4.578330 3.70 64.70 150.0
4.56 4.571560 3.70 64.80 150.0
4.55 4.558010 3.70 64.90 150.0
4.54 4.544470 3.7250 65.2250 150.0
4.53 4.53770 3.750 65.550 150.0
4.52 4.530930 3.7750 65.8750 155.0
4.51 4.516480 3.80 66.20 160.0
4.50 4.509710 3.80 66.4750 165.0
4.49 4.502930 3.80 66.750 170.0
4.48 4.489390 3.80 67.0250 160.833330
4.47 4.474940 3.80 67.30 151.666670
4.46 4.468170 3.80 66.10 142.50
4.45 4.46140 3.80 64.90 133.333330
4.44 4.447860 3.80 63.70 136.0
4.43 4.440630 3.80 62.50 138.666670
4.42 4.433410 3.80 63.70 141.333330
4.41 4.419860 3.80 64.90 144.0
4.40 4.406320 3.80 66.10 146.666670
4.39 4.39910 3.80 67.30 145.0
4.38 4.391870 3.80 66.450 143.333330
4.37 4.377430 3.80 65.60 141.666670
4.36 4.370650 3.80 64.750 140.0
4.35 4.363880 3.80 63.90 157.50
4.34 4.349440 3.80 63.640 175.0
4.33 4.335890 3.80 63.380 192.50
4.32 4.329120 3.80 63.120 210.0
4.31 4.322350 3.80 62.860 182.50
4.30 4.30790 3.80 62.60 155.0
4.29 4.294360 3.80 63.90 127.50
4.28 4.287580 3.80 65.20 100.0
4.27 4.280810 3.80 66.50 102.50
4.26 4.267270 3.80 67.80 105.0
4.25 4.253720 3.80 67.1250 107.50
4.24 4.246950 3.80 66.450 110.0
4.23 4.240180 3.80 65.7750 132.50
4.22 4.225730 3.80 65.10 155.0
4.21 4.218960 3.750 67.0750 177.50
4.20 4.212190 3.70 69.050 200.0
4.19 4.198650 3.650 71.0250 188.333330
4.18 4.18510 3.60 73.0 176.666670
4.17 4.177880 3.60 72.050 165.0
4.16 4.170650 3.60 71.10 153.333330
4.15 4.157110 3.60 70.150 150.0
4.14 4.150340 3.60 69.20 146.666670
4.13 4.143570 3.60 68.30 143.333330
4.12 4.129120 3.60 67.40 140.0
4.11 4.115580 3.60 66.50 136.666670
4.10 4.10880 3.60 65.60 141.666670
4.09 4.102030 3.60 65.80 146.666670
4.08 4.087580 3.60 66.0 151.666670
4.07 4.074040 3.60 66.20 156.666670
4.06 4.067270 3.60 66.40 164.166670
4.05 4.06050 3.60 66.60 171.666670
4.04 4.046050 3.60 66.250 179.166670
4.03 4.039280 3.60 65.90 186.666670
4.02 4.032510 3.60 65.550 177.50
4.01 4.018960 3.60 65.20 168.333330
4.00 4.005420 3.60 64.850 159.166670
3.99 3.998190 3.60 64.50 150.0
3.98 3.990970 3.60 64.150 162.50
3.97 3.977430 3.60 63.80 175.0
3.96 3.970650 3.5750 63.9250 187.50
3.95 3.963880 3.550 64.050 200.0
3.94 3.949440 3.5250 64.1750 192.857140
3.93 3.935890 3.50 64.30 185.714290
3.92 3.928670 3.50 64.1750 178.571430
3.91 3.921440 3.50 64.050 171.428570
3.90 3.90790 3.50 63.9250 174.920630
3.89 3.901130 3.50 63.80 178.41270
3.88 3.894360 3.50 63.70 181.904760
3.87 3.879910 3.50 63.60 185.396830
3.86 3.866370 3.50 63.50 188.888890
3.85 3.859590 3.50 63.40 188.333330
3.84 3.852820 3.5250 63.9250 187.777780
3.83 3.838370 3.550 64.450 187.222220
3.82 3.824830 3.5750 64.9750 186.666670
3.81 3.817610 3.60 65.50 199.090910
3.80 3.810380 3.5750 66.050 211.515150
3.79 3.796840 3.550 66.60 223.939390
3.78 3.789620 3.5250 67.150 236.363640
3.77 3.782390 3.50 67.70 229.904310
3.76 3.767950 3.50 66.780 223.444980
3.75 3.761170 3.50 65.860 216.985650
3.74 3.75440 3.50 64.940 210.526320
3.73 3.739950 3.50 64.020 207.894740
3.72 3.726410 3.50 63.10 205.263160
3.71 3.719640 3.50 63.950 202.631580
3.70 3.712870 3.50 64.80 200.0
3.69 3.698420 3.50 65.650 195.833330
3.68 3.684880 3.50 66.50 191.666670
3.67 3.677650 3.50 66.20 187.50
3.66 3.670430 3.50 65.90 183.333330
3.65 3.656880 3.50 65.60 182.0
3.64 3.649660 3.50 65.30 180.666670
3.63 3.642440 3.4750 65.350 179.333330
3.62 3.628890 3.450 65.40 178.0
3.61 3.621670 3.4250 65.450 176.666670
3.60 3.614450 3.40 65.50 190.564520
3.59 3.60 3.40 65.850 204.462370
3.58 3.585550 3.40 66.20 218.360220
3.57 3.578780 3.40 66.550 232.258060
3.56 3.572010 3.40 66.90 226.693550
3.55 3.557560 3.40 66.0750 221.129030
3.54 3.550340 3.40 65.250 215.564520
3.53 3.543120 3.40 64.4250 210.0
3.52 3.528670 3.40 63.60 200.0
3.51 3.515120 3.40 64.0 190.0
3.50 3.50790 3.40 64.40 180.0
3.49 3.500680 3.40 64.80 170.0
3.48 3.486230 3.40 65.20 171.666670
3.47 3.479460 3.40 65.60 173.333330
3.46 3.472690 3.3750 65.4750 175.0
3.45 3.458240 3.350 65.350 176.666670
3.44 3.44470 3.3250 65.2250 177.50
3.43 3.437470 3.30 65.10 178.333330
3.42 3.430250 3.3250 65.1750 179.166670
3.41 3.41670 3.350 65.250 180.0
3.40 3.409480 3.3750 65.3250 184.166670
3.39 3.402260 3.40 65.40 188.333330
3.38 3.388710 3.3750 65.9250 192.50
3.37 3.375170 3.350 66.450 196.666670
3.36 3.367950 3.3250 66.9750 192.666670
3.35 3.360720 3.30 67.50 188.666670
3.34 3.347180 3.30 66.4750 184.666670
3.33 3.339950 3.30 65.450 180.666670
3.32 3.332730 3.30 64.4250 176.666670
3.31 3.319190 3.30 63.40 182.50
3.30 3.304740 3.30 64.260 188.333330
3.29 3.297970 3.30 65.120 194.166670
3.28 3.29120 3.30 65.980 200.0
3.27 3.276750 3.30 66.840 179.166670
3.26 3.269530 3.30 67.70 158.333330
3.25 3.26230 3.30 67.150 137.50
3.24 3.248760 3.30 66.60 116.666670
3.23 3.234310 3.30 66.050 122.50
3.22 3.227540 3.30 65.50 128.333330
3.21 3.220770 3.2750 65.4250 134.166670
3.20 3.206320 3.250 65.350 140.0
3.19 3.19910 3.2250 65.2750 141.666670
3.18 3.191870 3.20 65.20 143.333330
3.17 3.178330 3.1750 65.80 145.0
3.16 3.163880 3.150 66.40 146.666670
3.15 3.157110 3.1250 67.0 137.50
3.14 3.150340 3.10 67.60 128.333330
3.13 3.135890 3.10 67.080 119.166670
3.12 3.128670 3.10 66.560 110.0
3.11 3.121440 3.10 66.040 127.333330
3.10 3.10790 3.10 65.520 144.666670
3.09 3.100680 3.10 65.0 162.0
3.08 3.093450 3.0750 65.30 179.333330
3.07 3.079910 3.050 65.60 196.666670
3.06 3.065460 3.0250 65.90 175.833330
3.05 3.058690 3.0 66.20 155.0
3.04 3.051920 3.0 66.550 134.166670
3.03 3.037470 3.0 66.90 113.333330
3.02 3.030250 3.0 67.250 120.0
3.01 3.023020 3.0 67.60 126.666670
3.00 3.009480 3.0250 66.7750 133.333330
