~VERSION INFORMATION SECTION
VERS. 2.0 : CWLS LAS-VERSION 2.0
WRAP. NO : One line per depth step
~WELL INFORMATION SECTION
# MNEM.UNIT VALUE/NAME DESCRIPTION
#-------- -------------- ---------------------
STRT.Metres 17 : Start
STOP.Metres 0.36 : Stop
STEP.Metres -0.01 : Step
NULL.  -999.25 :NULL VALUE
DATE. 2025-31-11 : DATE
~CURVE INFORMATION SECTION
DEPTH.Metres : 0 Depth
Depth. : 1 Depth
Incline.Deg : 2 Incline
Azimuth.Deg : 3 Azimuth
GR.CPS : 4 GR
~PARAMETER INFORMATION SECTION
~OTHER
#-------------------------------------------------
#Produced By: GeoVista Logger - Version 7.1.107.0
Natural Gamma Sonde - 6447
Verticality Sonde - 6292
#-------------------------------------------------
~ASCII LOG DATA
# ...
14.91 14.911060 5.0 86.233330 125.555560
14.90 14.901130 5.0 85.666670 116.666670
14.89 14.890290 5.0 85.10 115.555560
14.88 14.880360 5.0 85.0250 114.444440
14.87 14.87540 5.0 84.950 113.333330
14.86 14.870430 5.0 84.8750 115.0
14.85 14.859590 5.0 84.80 116.666670
14.84 14.849660 5.0 84.80 118.333330
14.83 14.839730 5.0 84.80 120.0
14.82 14.828890 5.0 84.80 121.111110
14.81 14.818960 5.0 84.90 122.222220
14.80 14.809030 5.0 85.0 123.333330
14.79 14.798190 5.0 85.10 132.222220
14.78 14.788260 4.966670 84.90 141.111110
14.77 14.777430 4.933330 84.70 150.0
14.76 14.767490 4.90 84.50 151.111110
14.75 14.757560 4.90 85.233330 152.222220
14.74 14.746730 4.90 85.966670 153.333330
14.73 14.735890 4.90 86.70 150.609320
14.72 14.725960 4.90 85.933330 147.88530
14.71 14.716030 4.90 85.166670 145.161290
14.70 14.705190 4.90 84.40 136.774190
14.69 14.695260 4.90 85.166670 128.38710
14.68 14.685330 4.90 85.933330 120.0
14.67 14.674490 4.90 86.70 124.444440
14.66 14.664560 4.90 86.266670 128.888890
14.65 14.653720 4.90 85.833330 133.333330
14.64 14.642890 4.90 85.40 138.888890
14.63 14.632960 4.90 85.133330 144.444440
14.62 14.622120 4.90 84.866670 150.0
14.61 14.611290 4.90 84.60 132.222220
14.60 14.605870 4.90 85.0 114.444440
14.59 14.600450 4.90 85.40 96.666670
14.58 14.589620 4.90 85.80 118.888890
14.57 14.578780 4.90 85.850 141.111110
14.56 14.568850 4.90 85.90 163.333330
14.55 14.558010 4.90 85.950 157.777780
14.54 14.548080 4.90 86.0 152.222220
14.53 14.537250 4.866670 86.0 146.666670
14.52 14.527310 4.833330 86.0 146.666670
14.51 14.516480 4.80 86.0 146.666670
14.50 14.505640 4.80 85.833330 146.666670
14.49 14.495710 4.80 85.666670 151.111110
14.48 14.485780 4.80 85.50 155.555560
14.47 14.474940 4.80 86.166670 160.0
14.46 14.465010 4.80 86.833330 155.555560
14.45 14.454180 4.80 87.50 151.111110
14.44 14.444240 4.80 87.40 146.666670
14.43 14.433410 4.80 87.30 154.444440
14.42 14.422570 4.80 87.20 162.222220
14.41 14.412640 4.733330 87.10 170.0
14.40 14.401810 4.666670 87.0 156.666670
14.39 14.391870 4.60 86.90 143.333330
14.38 14.381040 4.60 86.333330 130.0
14.37 14.371110 4.60 85.766670 140.0
14.36 14.360270 4.60 85.20 150.0
14.35 14.35530 4.633330 85.733330 160.0
14.34 14.350340 4.666670 86.266670 164.444440
14.33 14.33950 4.70 86.80 168.888890
14.32 14.329570 4.70 86.80 173.333330
14.31 14.318740 4.70 86.80 170.0
14.30 14.30880 4.70 86.80 166.666670
14.29 14.298870 4.70 86.80 163.333330
14.28 14.288040 4.70 86.20 160.0
14.27 14.27810 4.70 85.60 150.0
14.26 14.267270 4.70 85.0 140.0
14.25 14.257340 4.70 85.30 130.0
14.24 14.24650 4.70 85.60 155.555560
14.23 14.236570 4.70 85.90 181.111110
14.22 14.226640 4.70 86.20 206.666670
14.21 14.21580 4.70 86.50 202.222220
14.20 14.205870 4.70 86.80 197.777780
14.19 14.195940 4.666670 86.633330 193.333330
14.18 14.18510 4.633330 86.466670 175.555560
14.17 14.175170 4.60 86.30 157.777780
14.16 14.165240 4.60 86.30 140.0
14.15 14.15440 4.60 86.30 155.698920
14.14 14.144470 4.60 86.30 171.397850
14.13 14.134540 4.566670 86.266670 187.096770
14.12 14.12370 4.533330 86.233330 172.508960
14.11 14.113770 4.50 86.20 157.921150
14.10 14.102930 4.50 86.40 143.333330
14.09 14.0930 4.50 86.60 136.666670
14.08 14.083070 4.50 86.80 130.0
14.07 14.072230 4.50 87.0250 123.333330
14.06 14.06230 4.50 87.250 132.222220
14.05 14.051470 4.50 87.4750 141.111110
14.04 14.041530 4.50 87.70 150.0
14.03 14.03160 4.50 87.60 152.222220
14.02 14.020770 4.50 87.50 154.444440
14.01 14.01580 4.50 87.40 156.666670
14.00 14.010840 4.50 87.666670 158.888890
13.99 13.995030 4.50 87.933330 161.111110
13.98 13.987580 4.50 88.20 163.333330
13.97 13.980140 4.466670 87.633330 168.333330
13.96 13.96930 4.433330 87.066670 173.333330
13.95 13.959370 4.40 86.50 178.333330
13.94 13.948530 4.433330 86.766670 183.333330
13.93 13.93860 4.466670 87.033330 161.111110
13.92 13.927770 4.50 87.30 138.888890
13.91 13.917830 4.466670 87.433330 116.666670
13.90 13.90790 4.433330 87.566670 115.555560
13.89 13.897070 4.40 87.70 114.444440
13.88 13.887130 4.433330 87.866670 113.333330
13.87 13.87630 4.466670 88.033330 113.333330
13.86 13.866370 4.50 88.20 113.333330
13.85 13.855530 4.466670 88.566670 113.333330
13.84 13.84560 4.433330 88.933330 120.0
13.83 13.835670 4.40 89.30 126.666670
13.82 13.824830 4.40 89.433330 133.333330
13.81 13.81490 4.40 89.566670 140.0
13.80 13.804060 4.40 89.70 146.666670
13.79 13.793230 4.366670 89.433330 153.333330
13.78 13.78330 4.333330 89.166670 137.777780
13.77 13.772460 4.30 88.90 122.222220
13.76 13.762530 4.266670 89.366670 106.666670
13.75 13.751690 4.233330 89.833330 118.888890
13.74 13.741760 4.20 90.30 131.111110
13.73 13.730930 4.233330 90.233330 143.333330
13.72 13.720990 4.266670 90.166670 150.0
13.71 13.715580 4.30 90.10 156.666670
13.70 13.710160 4.30 89.80 163.333330
13.69 13.699320 4.30 89.50 170.0
13.68 13.689390 4.30 89.20 147.777780
13.67 13.678560 4.30 88.90 125.555560
13.66 13.668620 4.266670 88.30 103.333330
13.65 13.657790 4.233330 87.70 112.222220
13.64 13.647860 4.20 87.10 121.111110
13.63 13.637020 4.20 87.233330 130.0
13.62 13.627090 4.20 87.366670 135.151520
13.61 13.616250 4.20 87.50 140.303030
13.60 13.606320 4.166670 88.133330 145.454550
13.59 13.596390 4.133330 88.766670 153.110050
13.58 13.585550 4.10 89.40 160.765550
13.57 13.575620 4.10 89.533330 168.421050
13.56 13.564790 4.10 89.666670 167.119410
13.55 13.554850 4.10 89.80 165.817770
13.54 13.544020 4.10 89.333330 164.516130
13.53 13.534090 4.10 88.866670 156.344090
13.52 13.523250 4.10 88.40 148.172040
13.51 13.512420 4.10 87.933330 140.0
13.50 13.502480 4.10 87.466670 144.444440
13.49 13.491650 4.10 87.0 148.888890
13.48 13.486230 4.10 87.033330 153.333330
13.47 13.480810 4.10 87.066670 155.0
13.46 13.469980 4.10 87.10 156.666670
13.45 13.459140 4.066670 88.266670 158.333330
13.44 13.449210 4.033330 89.433330 160.0
13.43 13.438370 4.0 90.60 167.777780
13.42 13.427540 3.9750 90.350 175.555560
13.41 13.417610 3.950 90.10 183.333330
13.40 13.407670 3.9250 89.850 172.222220
13.39 13.396840 3.90 89.60 161.111110
13.38 13.386910 3.90 88.20 150.0
13.37 13.376980 3.90 86.80 148.888890
13.36 13.367040 3.90 85.40 147.777780
13.35 13.357110 3.933330 85.666670 146.666670
13.34 13.346280 3.966670 85.933330 150.0
13.33 13.336340 4.0 86.20 153.333330
13.32 13.326410 3.966670 86.90 156.666670
13.31 13.316480 3.933330 87.60 147.777780
13.30 13.306550 3.90 88.30 138.888890
13.29 13.296610 3.90 88.266670 130.0
13.28 13.286680 3.90 88.233330 144.444440
13.27 13.276750 3.90 88.20 158.888890
13.26 13.266820 3.933330 87.933330 173.333330
13.25 13.256880 3.966670 87.666670 160.0
13.24 13.246050 4.0 87.40 146.666670
13.23 13.236120 3.966670 87.233330 133.333330
13.22 13.226190 3.933330 87.066670 134.444440
13.21 13.216250 3.90 86.90 135.555560
13.20 13.206320 3.933330 85.566670 136.666670
13.19 13.196390 3.966670 84.233330 144.444440
13.18 13.186460 4.0 82.90 152.222220
13.17 13.175620 4.0250 83.4250 160.0
13.16 13.165690 4.050 83.950 160.0
13.15 13.155760 4.0750 84.4750 160.0
13.14 13.145820 4.10 85.0 160.0
13.13 13.135890 4.050 87.30 152.222220
13.12 13.125960 4.0 89.60 144.444440
13.11 13.116030 4.0 88.933330 136.666670
13.10 13.106090 4.0 88.266670 138.333330
13.09 13.096160 4.0 87.60 140.0
13.08 13.085330 4.0 85.90 141.666670
13.07 13.07540 4.0 84.20 143.333330
13.06 13.065460 4.0 82.50 140.0
13.05 13.055530 3.966670 83.333330 136.666670
13.04 13.04560 3.933330 84.166670 133.333330
13.03 13.035670 3.90 85.0 143.333330
13.02 13.025730 3.933330 86.20 153.333330
13.01 13.01580 3.966670 87.40 163.333330
13.00 13.004970 4.0 88.60 165.555560
12.99 12.995030 3.966670 88.533330 167.777780
12.98 12.98510 3.933330 88.466670 170.0
12.97 12.975170 3.90 88.40 170.322580
12.96 12.965240 3.90 86.033330 170.645160
12.95 12.95440 3.90 83.666670 170.967740
12.94 12.944470 3.90 81.30 178.422940
12.93 12.934540 3.90 82.10 185.878140
12.92 12.92460 3.90 82.90 193.333330
12.91 12.914670 3.90 83.70 195.555560
12.90 12.903840 3.90 84.866670 197.777780
12.89 12.893910 3.90 86.033330 200.0
12.88 12.883970 3.90 87.20 190.0
