~VERSION INFORMATION SECTION
VERS. 2.0 : CWLS LAS-VERSION 2.0
WRAP. NO : One line per depth step
~WELL INFORMATION SECTION
# MNEM.UNIT VALUE/NAME DESCRIPTION
#-------- -------------- ---------------------
STRT.Metres 17 : Start
STOP.Metres 0.36 : Stop
STEP.Metres -0.01 : Step
NULL.  -999.25 :NULL VALUE
DATE. 2025-31-11 : DATE
~CURVE INFORMATION SECTION
DEPTH.Metres : 0 Depth
Depth. : 1 Depth
Incline.Deg : 2 Incline
Azimuth.Deg : 3 Azimuth
GR.CPS : 4 GR
~PARAMETER INFORMATION SECTION
~OTHER
#-------------------------------------------------
#Produced By: GeoVista Logger - Version 7.1.107.0
Natural Gamma Sonde - 6447
Verticality Sonde - 6292
#-------------------------------------------------
~ASCII LOG DATA
# ...
10.83 10.834310 3.90 84.033330 156.666670
10.82 10.824380 3.90 85.50 160.0
10.81 10.814450 3.90 85.133330 163.333330
10.80 10.803610 3.90 84.766670 166.666670
10.79 10.793680 3.90 84.40 158.333330
10.78 10.783750 3.90 83.833330 150.0
10.77 10.773810 3.90 83.266670 141.666670
10.76 10.762980 3.90 82.70 133.333330
10.75 10.753050 3.90 83.466670 134.444440
10.74 10.743120 3.90 84.233330 135.555560
10.73 10.733180 3.90 85.0 136.666670
10.72 10.722350 3.90 84.366670 152.222220
10.71 10.712420 3.90 83.733330 167.777780
10.70 10.702480 3.90 83.10 183.333330
10.69 10.692550 3.933330 82.766670 171.684590
10.68 10.682620 3.966670 82.433330 160.035840
10.67 10.671780 4.0 82.10 148.38710
10.66 10.661850 3.966670 82.766670 152.258060
10.65 10.651920 3.933330 83.433330 156.129030
10.64 10.641990 3.90 84.10 160.0
10.63 10.632050 3.90 83.733330 177.777780
10.62 10.622120 3.90 83.366670 195.555560
10.61 10.612190 3.90 83.0 213.333330
10.60 10.601350 3.90 83.333330 207.777780
10.59 10.591420 3.90 83.666670 202.222220
10.58 10.581490 3.90 84.0 196.666670
10.57 10.571560 3.90 84.333330 185.555560
10.56 10.561630 3.90 84.666670 174.444440
10.55 10.551690 3.90 85.0 163.333330
10.54 10.540860 3.90 83.70 162.222220
10.53 10.530930 3.90 82.40 161.111110
10.52 10.520990 3.90 81.10 160.0
10.51 10.511060 3.90 82.233330 174.444440
10.50 10.501130 3.90 83.366670 188.888890
10.49 10.49120 3.90 84.50 203.333330
10.48 10.481260 3.90 84.166670 191.111110
10.47 10.471330 3.90 83.833330 178.888890
10.46 10.46050 3.90 83.50 166.666670
10.45 10.450560 3.90 83.70 167.777780
10.44 10.440630 3.90 83.90 168.888890
10.43 10.43070 3.90 84.10 170.0
10.42 10.420770 3.90 83.366670 165.555560
10.41 10.410840 3.90 82.633330 161.111110
10.40 10.40090 3.90 81.90 156.666670
10.39 10.390070 3.90 82.30 148.888890
10.38 10.380140 3.90 82.70 141.111110
10.37 10.37020 3.90 83.10 133.333330
10.36 10.360270 3.90 83.0 142.222220
10.35 10.350340 3.90 82.90 151.111110
10.34 10.340410 3.90 82.80 160.0
10.33 10.335440 3.933330 82.50 160.0
10.32 10.330470 3.966670 82.20 160.0
10.31 10.319640 4.0 81.90 160.0
10.30 10.309710 4.0 82.366670 153.333330
10.29 10.299770 4.0 82.833330 146.666670
10.28 10.289840 4.0 83.30 140.0
10.27 10.279010 4.0 83.40 151.111110
10.26 10.269070 4.0 83.50 162.222220
10.25 10.259140 4.0 83.60 173.333330
10.24 10.249210 4.0 83.233330 166.666670
10.23 10.239280 4.0 82.866670 160.0
10.22 10.229350 4.0 82.50 153.333330
10.21 10.219410 4.0 82.166670 147.777780
10.20 10.208580 4.0 81.833330 142.222220
10.19 10.198650 4.0 81.50 136.666670
10.18 10.188710 4.033330 81.70 150.0
10.17 10.178780 4.066670 81.90 163.333330
10.16 10.168850 4.10 82.10 176.666670
10.15 10.158920 4.066670 82.10 166.666670
10.14 10.148980 4.033330 82.10 156.666670
10.13 10.139050 4.0 82.10 146.666670
10.12 10.129120 3.966670 82.466670 150.465950
10.11 10.118280 3.933330 82.833330 154.265230
10.10 10.108350 3.90 83.20 158.064520
10.09 10.098420 3.966670 83.233330 162.043010
10.08 10.087580 4.033330 83.266670 166.021510
10.07 10.077650 4.10 83.30 170.0
10.06 10.067720 4.066670 83.266670 172.222220
10.05 10.057790 4.033330 83.233330 174.444440
10.04 10.047860 4.0 83.20 176.666670
10.03 10.037920 4.0 83.350 186.666670
10.02 10.027090 4.0 83.50 196.666670
10.01 10.017160 4.0 83.650 206.666670
10.00 10.007220 4.0 83.80 201.111110
9.99 9.997290 4.066670 83.933330 195.555560
9.98 9.987360 4.133330 84.066670 190.0
9.97 9.977430 4.20 84.20 173.333330
9.96 9.966590 4.133330 83.433330 156.666670
9.95 9.956660 4.066670 82.666670 140.0
9.94 9.946730 4.0 81.90 143.333330
9.93 9.936790 4.033330 82.466670 146.666670
9.92 9.926860 4.066670 83.033330 150.0
9.91 9.916930 4.10 83.60 161.111110
9.90 9.906090 4.166670 83.033330 172.222220
9.89 9.896160 4.233330 82.466670 183.333330
9.88 9.886230 4.30 81.90 175.555560
9.87 9.87630 4.266670 81.933330 167.777780
9.86 9.865460 4.233330 81.966670 160.0
9.85 9.855530 4.20 82.0 165.555560
9.84 9.84560 4.20 82.133330 171.111110
9.83 9.835670 4.20 82.266670 176.666670
9.82 9.825730 4.20 82.40 162.222220
9.81 9.81490 4.20 82.866670 147.777780
9.80 9.804970 4.20 83.333330 133.333330
9.79 9.795030 4.20 83.80 144.444440
9.78 9.78510 4.166670 83.40 155.555560
9.77 9.775170 4.133330 83.0 166.666670
9.76 9.765240 4.10 82.60 191.111110
9.75 9.75440 4.10 82.20 215.555560
9.74 9.744470 4.10 81.80 240.0
9.73 9.734540 4.10 81.40 207.777780
9.72 9.72460 4.10 82.066670 175.555560
9.71 9.714670 4.10 82.733330 143.333330
9.70 9.704740 4.10 83.40 148.888890
9.69 9.694810 4.10 82.933330 154.444440
9.68 9.684880 4.10 82.466670 160.0
9.67 9.674940 4.10 82.0 172.222220
9.66 9.665010 4.10 82.30 184.444440
9.65 9.655080 4.10 82.60 196.666670
9.64 9.645150 4.10 82.90 181.111110
9.63 9.635210 4.066670 83.166670 165.555560
9.62 9.624380 4.033330 83.433330 150.0
9.61 9.614450 4.0 83.70 158.888890
9.60 9.604510 4.0 83.466670 167.777780
9.59 9.594580 4.0 83.233330 176.666670
9.58 9.584650 4.0 83.0 176.666670
9.57 9.574720 4.0 82.266670 176.666670
9.56 9.564790 4.0 81.533330 176.666670
9.55 9.554850 4.0 80.80 182.293910
9.54 9.544920 4.0 81.60 187.921150
9.53 9.534990 4.0 82.40 193.548390
9.52 9.525060 4.0 83.20 189.032260
9.51 9.515120 4.0 82.766670 184.516130
9.50 9.505190 4.0 82.333330 180.0
9.49 9.495260 4.0 81.90 190.0
9.48 9.485330 4.0 82.30 200.0
9.47 9.474490 4.0 82.70 210.0
9.46 9.464560 4.0 83.10 188.888890
9.45 9.454630 4.033330 82.70 167.777780
9.44 9.44470 4.066670 82.30 146.666670
9.43 9.434760 4.10 81.90 159.166670
9.42 9.424830 4.10 82.566670 171.666670
9.41 9.41490 4.10 83.233330 184.166670
9.40 9.404060 4.10 83.90 196.666670
9.39 9.394130 4.10 83.366670 197.777780
9.38 9.38420 4.10 82.833330 198.888890
9.37 9.374270 4.10 82.30 200.0
9.36 9.364330 4.10 81.866670 194.444440
9.35 9.35440 4.10 81.433330 188.888890
9.34 9.343570 4.10 81.0 183.333330
9.33 9.333630 4.066670 81.733330 183.333330
9.32 9.32370 4.033330 82.466670 183.333330
9.31 9.313770 4.0 83.20 183.333330
9.30 9.303840 4.033330 83.0 184.444440
9.29 9.293910 4.066670 82.80 185.555560
9.28 9.283970 4.10 82.60 186.666670
9.27 9.273140 4.10 82.533330 183.333330
9.26 9.263210 4.10 82.466670 180.0
9.25 9.253270 4.10 82.40 176.666670
9.24 9.243340 4.066670 82.766670 166.666670
9.23 9.233410 4.033330 83.133330 156.666670
9.22 9.222570 4.0 83.50 146.666670
9.21 9.212640 4.0 83.40 162.222220
9.20 9.202710 4.0 83.30 177.777780
9.19 9.191870 4.0 83.20 193.333330
9.18 9.181940 4.0 83.30 181.111110
9.17 9.172010 4.0 83.40 168.888890
9.16 9.161170 4.0 83.50 156.666670
9.15 9.151240 3.966670 83.433330 165.555560
9.14 9.141310 3.933330 83.366670 174.444440
9.13 9.131380 3.90 83.30 183.333330
9.12 9.120540 3.933330 83.20 176.666670
9.11 9.110610 3.966670 83.10 170.0
9.10 9.100680 4.0 83.0 163.333330
9.09 9.090740 3.966670 83.90 161.111110
9.08 9.080810 3.933330 84.80 158.888890
9.07 9.070880 3.90 85.70 156.666670
9.06 9.060050 3.866670 85.266670 181.111110
9.05 9.050110 3.833330 84.833330 205.555560
9.04 9.040180 3.80 84.40 230.0
9.03 9.035210 3.833330 83.766670 215.555560
9.02 9.030250 3.866670 83.133330 201.111110
9.01 9.019410 3.90 82.50 186.666670
9.00 9.009480 3.866670 82.10 190.0
8.99 8.999550 3.833330 81.70 193.333330
8.98 8.989620 3.80 81.30 196.666670
8.97 8.979680 3.80 81.70 202.078850
8.96 8.968850 3.80 82.10 207.491040
8.95 8.958920 3.80 82.50 212.903230
8.94 8.948980 3.833330 82.933330 198.602150
8.93 8.939050 3.866670 83.366670 184.301080
8.92 8.928220 3.90 83.80 170.0
8.91 8.918280 3.866670 82.90 176.666670
8.90 8.908350 3.833330 82.0 183.333330
8.89 8.898420 3.80 81.10 190.0
8.88 8.887580 3.80 81.133330 192.222220
8.87 8.877650 3.80 81.166670 194.444440
8.86 8.867720 3.80 81.20 196.666670
8.85 8.857790 3.80 81.50 191.111110
8.84 8.847860 3.80 81.80 185.555560
8.83 8.837920 3.80 82.10 180.0
8.82 8.827990 3.80 81.60 176.666670
8.81 8.817160 3.80 81.10 173.333330
8.80 8.808130 3.80 80.60 170.0
8.79 8.798190 3.80 80.766670 183.333330
8.78 8.788260 3.80 80.933330 196.666670
8.77 8.778330 3.80 81.10 210.0
8.76 8.767490 3.80 80.933330 202.222220
8.75 8.757560 3.80 80.766670 194.444440
