~VERSION INFORMATION SECTION
VERS. 2.0 : CWLS LAS-VERSION 2.0
WRAP. NO : One line per depth step
~WELL INFORMATION SECTION
# MNEM.UNIT VALUE/NAME DESCRIPTION
#-------- -------------- ---------------------
STRT.Metres 17 : Start
STOP.Metres 0.36 : Stop
STEP.Metres -0.01 : Step
NULL.  -999.25 :NULL VALUE
DATE. 2025-31-11 : DATE
~CURVE INFORMATION SECTION
DEPTH.Metres : 0 Depth
Depth. : 1 Depth
Incline.Deg : 2 Incline
Azimuth.Deg : 3 Azimuth
GR.CPS : 4 GR
~PARAMETER INFORMATION SECTION
~OTHER
#-------------------------------------------------
#Produced By: GeoVista Logger - Version 7.1.107.0
Natural Gamma Sonde - 6447
Verticality Sonde - 6292
#-------------------------------------------------
~ASCII LOG DATA
# ...
8.74 8.747630 3.80 80.60 186.666670
8.73 8.73770 3.80 80.485710 182.222220
8.72 8.727770 3.80 80.371430 177.777780
8.71 8.717830 3.80 80.257140 173.333330
8.70 8.70790 3.80 80.142860 178.888890
8.69 8.697970 3.80 80.028570 184.444440
8.68 8.688040 3.80 79.914290 190.0
8.67 8.67810 3.80 79.80 208.484850
8.66 8.668170 3.80 79.40 226.96970
8.65 8.658240 3.80 79.0 245.454550
8.64 8.648310 3.80 78.60 221.53110
8.63 8.638370 3.80 78.666670 197.607660
8.62 8.628440 3.80 78.733330 173.684210
8.61 8.618510 3.80 78.80 166.900580
8.60 8.608580 3.80 79.033330 160.116960
8.59 8.597740 3.80 79.266670 153.333330
8.58 8.587810 3.80 79.50 158.888890
8.57 8.577880 3.80 79.30 164.444440
8.56 8.567950 3.80 79.10 170.0
8.55 8.558010 3.80 78.90 170.0
8.54 8.548080 3.80 79.333330 170.0
8.53 8.538150 3.80 79.766670 170.0
8.52 8.528220 3.80 80.20 176.82540
8.51 8.518280 3.80 79.933330 183.650790
8.50 8.508350 3.80 79.666670 190.476190
8.49 8.498420 3.80 79.40 201.05820
8.48 8.488490 3.80 79.40 211.640210
8.47 8.478560 3.80 79.40 222.222220
8.46 8.468620 3.80 79.40 199.259260
8.45 8.458690 3.80 79.566670 176.29630
8.44 8.447860 3.80 79.733330 153.333330
8.43 8.437920 3.80 79.90 167.777780
8.42 8.427990 3.80 79.733330 182.222220
8.41 8.418060 3.80 79.566670 196.666670
8.40 8.408130 3.80 79.40 193.47670
8.39 8.398190 3.80 79.233330 190.286740
8.38 8.388260 3.80 79.066670 187.096770
8.37 8.378330 3.80 78.90 186.953410
8.36 8.367490 3.80 79.033330 186.810040
8.35 8.357560 3.80 79.166670 186.666670
8.34 8.347630 3.80 79.30 182.222220
8.33 8.33770 3.80 79.333330 177.777780
8.32 8.327770 3.80 79.366670 173.333330
8.31 8.317830 3.80 79.40 174.444440
8.30 8.3070 3.80 79.433330 175.555560
8.29 8.297070 3.80 79.466670 176.666670
8.28 8.287130 3.80 79.50 164.444440
8.27 8.27630 3.80 79.966670 152.222220
8.26 8.266370 3.80 80.433330 140.0
8.25 8.256430 3.80 80.90 141.111110
8.24 8.24650 3.70 80.433330 142.222220
8.23 8.235670 3.60 79.966670 143.333330
8.22 8.225730 3.50 79.50 150.0
8.21 8.21580 3.533330 79.90 156.666670
8.20 8.205870 3.566670 80.30 163.333330
8.19 8.195940 3.60 80.70 167.777780
8.18 8.18510 3.633330 81.70 172.222220
8.17 8.175170 3.666670 82.70 176.666670
8.16 8.165240 3.70 83.70 168.888890
8.15 8.15530 3.666670 81.30 161.111110
8.14 8.145370 3.633330 78.90 153.333330
8.13 8.134540 3.60 76.50 137.777780
8.12 8.12460 3.60 77.90 122.222220
8.11 8.114670 3.60 79.30 106.666670
8.10 8.103840 3.60 80.70 130.0
8.09 8.093910 3.60 80.866670 153.333330
8.08 8.083970 3.60 81.033330 176.666670
8.07 8.073140 3.60 81.20 200.0
8.06 8.063210 3.60 80.366670 190.0
8.05 8.052370 3.60 79.533330 180.0
8.04 8.042440 3.60 78.70 170.0
8.03 8.032510 3.566670 79.933330 164.444440
8.02 8.022570 3.533330 81.166670 158.888890
8.01 8.011740 3.50 82.40 153.333330
8.00 8.001810 3.50 81.233330 151.111110
7.99 7.991870 3.50 80.066670 148.888890
7.98 7.981040 3.50 78.90 146.666670
7.97 7.971110 3.533330 78.833330 157.777780
7.96 7.961170 3.566670 78.766670 168.888890
7.95 7.951240 3.60 78.70 180.0
7.94 7.941310 3.566670 80.0 187.777780
7.93 7.931380 3.533330 81.30 195.555560
7.92 7.921440 3.50 82.60 203.333330
7.91 7.910610 3.50 82.350 192.222220
7.90 7.900680 3.50 82.10 181.111110
7.89 7.890740 3.50 81.850 170.0
7.88 7.880810 3.50 81.60 174.444440
7.87 7.870880 3.50 81.350 178.888890
7.86 7.860950 3.50 81.10 183.333330
7.85 7.851020 3.50 81.633330 172.222220
7.84 7.841080 3.50 82.166670 161.111110
7.83 7.831150 3.50 82.70 150.0
7.82 7.821220 3.50 82.80 149.462370
7.81 7.811290 3.50 82.90 148.924730
7.80 7.801350 3.50 83.0 148.38710
7.79 7.791420 3.50 82.633330 135.59140
7.78 7.781490 3.50 82.266670 122.79570
7.77 7.771560 3.50 81.90 110.0
7.76 7.761630 3.50 81.933330 136.666670
7.75 7.751690 3.50 81.966670 163.333330
7.74 7.741760 3.50 82.0 190.0
7.73 7.730930 3.50 82.433330 174.444440
7.72 7.720990 3.50 82.866670 158.888890
7.71 7.711060 3.50 83.30 143.333330
7.70 7.701130 3.50 83.233330 162.222220
7.69 7.69120 3.50 83.166670 181.111110
7.68 7.681260 3.50 83.10 200.0
7.67 7.671330 3.50 82.866670 180.0
7.66 7.66140 3.50 82.633330 160.0
7.65 7.651470 3.50 82.40 140.0
7.64 7.641530 3.50 82.433330 150.0
7.63 7.63160 3.50 82.466670 160.0
7.62 7.621670 3.50 82.50 170.0
7.61 7.611740 3.533330 82.666670 168.888890
7.60 7.601810 3.566670 82.833330 167.777780
7.59 7.591870 3.60 83.0 166.666670
7.58 7.581940 3.566670 83.0 156.666670
7.57 7.572010 3.533330 83.0 146.666670
7.56 7.562080 3.50 83.0 136.666670
7.55 7.551240 3.566670 82.966670 145.555560
7.54 7.541310 3.633330 82.933330 154.444440
7.53 7.531380 3.70 82.90 163.333330
7.52 7.521440 3.70 82.633330 155.555560
7.51 7.511510 3.70 82.366670 147.777780
7.50 7.501580 3.70 82.10 140.0
7.49 7.491650 3.70 82.233330 168.888890
7.48 7.481720 3.70 82.366670 197.777780
7.47 7.471780 3.70 82.50 226.666670
7.46 7.460950 3.70 82.633330 196.666670
7.45 7.451020 3.70 82.766670 166.666670
7.44 7.441080 3.70 82.90 136.666670
7.43 7.431150 3.70 83.733330 142.222220
7.42 7.421220 3.70 84.566670 147.777780
7.41 7.411290 3.70 85.40 153.333330
7.40 7.401350 3.666670 83.433330 153.333330
7.39 7.390520 3.633330 81.466670 153.333330
7.38 7.380590 3.60 79.50 153.333330
7.37 7.370650 3.60 79.40 148.888890
7.36 7.360720 3.60 79.30 144.444440
7.35 7.355760 3.60 79.20 140.0
7.34 7.350790 3.60 80.866670 148.888890
7.33 7.334990 3.60 82.533330 157.777780
7.32 7.320090 3.60 84.20 166.666670
7.31 7.310160 3.60 83.033330 180.0
7.30 7.305190 3.60 81.866670 193.333330
7.29 7.300230 3.60 80.70 206.666670
7.28 7.289390 3.60 80.566670 180.202020
7.27 7.279460 3.60 80.433330 153.737370
7.26 7.269530 3.60 80.30 127.272730
7.25 7.259590 3.60 80.80 126.515150
7.24 7.249660 3.60 81.30 125.757580
7.23 7.239730 3.60 81.80 125.0
7.22 7.228890 3.60 81.933330 143.333330
7.21 7.218960 3.60 82.066670 161.666670
7.20 7.209030 3.60 82.20 180.0
7.19 7.19910 3.60 82.066670 183.333330
7.18 7.188260 3.60 81.933330 186.666670
7.17 7.178330 3.60 81.80 190.0
7.16 7.16840 3.566670 81.766670 176.666670
7.15 7.157560 3.533330 81.733330 163.333330
7.14 7.147630 3.50 81.70 150.0
7.13 7.13770 3.50 81.533330 154.444440
7.12 7.126860 3.50 81.366670 158.888890
7.11 7.116930 3.50 81.20 163.333330
7.10 7.1070 3.50 80.966670 161.111110
7.09 7.097070 3.50 80.733330 158.888890
7.08 7.086230 3.50 80.50 156.666670
7.07 7.07630 3.50 80.733330 174.444440
7.06 7.066370 3.50 80.966670 192.222220
7.05 7.056430 3.50 81.20 210.0
7.04 7.04650 3.50 81.833330 218.888890
7.03 7.036570 3.50 82.466670 227.777780
7.02 7.025730 3.50 83.10 236.666670
7.01 7.01580 3.50 82.950 241.111110
7.00 7.005870 3.50 82.80 245.555560
6.99 6.995940 3.50 82.650 250.0
6.98 6.9860 3.50 82.50 243.333330
6.97 6.976070 3.50 82.350 236.666670
6.96 6.966140 3.50 82.20 230.0
6.95 6.95530 3.50 82.050 244.444440
6.94 6.945370 3.50 81.90 258.888890
6.93 6.935440 3.50 81.750 273.333330
6.92 6.925510 3.50 81.60 277.777780
6.91 6.915580 3.466670 81.766670 282.222220
6.90 6.904740 3.433330 81.933330 286.666670
6.89 6.894810 3.40 82.10 267.777780
6.88 6.884880 3.40 82.0 248.888890
6.87 6.874940 3.40 81.90 230.0
6.86 6.865010 3.40 81.80 220.0
6.85 6.855080 3.433330 81.566670 210.0
6.84 6.844240 3.466670 81.333330 200.0
6.83 6.835210 3.50 81.10 210.526320
6.82 6.825280 3.466670 80.90 221.052630
6.81 6.816250 3.433330 80.70 231.578950
6.80 6.806320 3.40 80.50 232.163740
6.79 6.796390 3.40 81.233330 232.748540
6.78 6.786460 3.40 81.966670 233.333330
6.77 6.776520 3.40 82.70 230.0
6.76 6.767490 3.40 81.90 226.666670
6.75 6.757560 3.40 81.10 223.333330
6.74 6.747630 3.40 80.30 231.111110
6.73 6.73770 3.40 79.833330 238.888890
6.72 6.727770 3.40 79.366670 246.666670
6.71 6.717830 3.40 78.90 252.222220
6.70 6.70790 3.40 80.333330 257.777780
6.69 6.697970 3.40 81.766670 263.333330
6.68 6.688040 3.40 83.20 244.372760
6.67 6.67810 3.40 81.566670 225.412190
6.66 6.667270 3.40 79.933330 206.451610
6.65 6.657340 3.40 78.30 229.856630
6.64 6.64740 3.40 78.333330 253.261650
6.63 6.637470 3.40 78.366670 276.666670
6.62 6.627540 3.40 78.40 256.666670
6.61 6.617610 3.366670 79.70 236.666670
6.60 6.607670 3.333330 81.0 216.666670
