~VERSION INFORMATION SECTION
VERS. 2.0 : CWLS LAS-VERSION 2.0
WRAP. NO : One line per depth step
~WELL INFORMATION SECTION
# MNEM.UNIT VALUE/NAME DESCRIPTION
#-------- -------------- ---------------------
STRT.Metres 17 : Start
STOP.Metres 0.36 : Stop
STEP.Metres -0.01 : Step
NULL.  -999.25 :NULL VALUE
DATE. 2025-31-11 : DATE
~CURVE INFORMATION SECTION
DEPTH.Metres : 0 Depth
Depth. : 1 Depth
Incline.Deg : 2 Incline
Azimuth.Deg : 3 Azimuth
GR.CPS : 4 GR
~PARAMETER INFORMATION SECTION
~OTHER
#-------------------------------------------------
#Produced By: GeoVista Logger - Version 7.1.107.0
Natural Gamma Sonde - 6447
Verticality Sonde - 6292
#-------------------------------------------------
~ASCII LOG DATA
# ...
12.87 12.874040 3.90 86.40 180.0
12.86 12.864110 3.90 85.60 170.0
12.85 12.853270 3.90 84.80 158.750
12.84 12.843340 3.90 84.366670 147.50
12.83 12.833410 3.90 83.933330 136.250
12.82 12.823480 3.90 83.50 125.0
12.81 12.812640 3.866670 83.866670 146.666670
12.80 12.801810 3.833330 84.233330 168.333330
12.79 12.791870 3.80 84.60 190.0
12.78 12.781940 3.833330 84.966670 194.444440
12.77 12.771110 3.866670 85.333330 198.888890
12.76 12.761170 3.90 85.70 203.333330
12.75 12.751240 3.90 85.266670 186.666670
12.74 12.741310 3.90 84.833330 170.0
12.73 12.730470 3.90 84.40 153.333330
12.72 12.720540 3.90 83.70 150.0
12.71 12.715580 3.90 83.0 146.666670
12.70 12.710610 3.90 82.30 143.333330
12.69 12.699770 3.933330 82.766670 146.666670
12.68 12.689840 3.966670 83.233330 150.0
12.67 12.679910 4.0 83.70 153.333330
12.66 12.669070 4.0 83.733330 157.777780
12.65 12.659140 4.0 83.766670 162.222220
12.64 12.649210 4.0 83.80 166.666670
12.63 12.638370 4.0 84.033330 161.111110
12.62 12.628440 4.0 84.266670 155.555560
12.61 12.618510 4.0 84.50 150.0
12.60 12.607670 4.0 83.766670 149.166670
12.59 12.597740 4.0 83.033330 148.333330
12.58 12.587810 4.0 82.30 147.50
12.57 12.576980 4.0 82.266670 146.666670
12.56 12.567040 4.0 82.233330 142.380950
12.55 12.556210 4.0 82.20 138.095240
12.54 12.546280 4.0 82.833330 136.507940
12.53 12.536340 4.0 83.466670 134.920630
12.52 12.526410 4.0 84.10 133.333330
12.51 12.515580 4.0 84.0 145.555560
12.50 12.505640 4.0 83.90 157.777780
12.49 12.495710 4.0 83.80 170.0
12.48 12.485780 3.966670 83.10 160.0
12.47 12.474940 3.933330 82.40 150.0
12.46 12.465010 3.90 81.70 140.0
12.45 12.455080 3.933330 81.933330 142.222220
12.44 12.445150 3.966670 82.166670 144.444440
12.43 12.435210 4.0 82.40 146.666670
12.42 12.425280 4.0 82.633330 148.315410
12.41 12.415350 4.0 82.866670 149.964160
12.40 12.404510 4.0 83.10 151.61290
12.39 12.394580 4.0 83.150 169.964160
12.38 12.384650 4.0 83.20 188.315410
12.37 12.374720 4.0 83.250 206.666670
12.36 12.364790 4.0 83.30 185.555560
12.35 12.354850 3.966670 82.90 164.444440
12.34 12.344920 3.933330 82.50 143.333330
12.33 12.334990 3.90 82.10 140.0
12.32 12.325060 3.933330 82.366670 136.666670
12.31 12.315120 3.966670 82.633330 133.333330
12.30 12.304290 4.0 82.90 128.888890
12.29 12.294360 3.966670 82.733330 124.444440
12.28 12.284420 3.933330 82.566670 120.0
12.27 12.274490 3.90 82.40 130.0
12.26 12.264560 3.90 82.233330 140.0
12.25 12.254630 3.90 82.066670 150.0
12.24 12.24470 3.90 81.90 137.777780
12.23 12.234760 3.90 82.10 125.555560
12.22 12.223930 3.90 82.30 113.333330
12.21 12.2140 3.90 82.50 132.222220
12.20 12.204060 3.90 82.450 151.111110
12.19 12.194130 3.90 82.40 170.0
12.18 12.18420 3.90 82.350 176.666670
12.17 12.174270 3.90 82.30 183.333330
12.16 12.164330 3.90 82.250 190.0
12.15 12.15440 3.90 82.20 176.666670
12.14 12.144470 3.90 82.40 163.333330
12.13 12.134540 3.90 82.60 150.0
12.12 12.12460 3.90 82.80 147.777780
12.11 12.114670 3.933330 82.333330 145.555560
12.10 12.104740 3.966670 81.866670 143.333330
12.09 12.094810 4.0 81.40 145.555560
12.08 12.083970 3.966670 81.30 147.777780
12.07 12.074040 3.933330 81.20 150.0
12.06 12.064110 3.90 81.10 141.111110
12.05 12.054180 3.90 82.233330 132.222220
12.04 12.044240 3.90 83.366670 123.333330
12.03 12.034310 3.90 84.50 133.333330
12.02 12.024380 3.90 84.466670 143.333330
12.01 12.014450 3.90 84.433330 153.333330
12.00 12.003610 3.90 84.40 147.777780
11.99 11.993680 3.90 83.666670 142.222220
11.98 11.983750 3.90 82.933330 136.666670
11.97 11.973810 3.90 82.20 141.111110
11.96 11.963880 3.90 82.466670 145.555560
11.95 11.953950 3.90 82.733330 150.0
11.94 11.944020 3.90 83.0 145.555560
11.93 11.934090 3.90 82.866670 141.111110
11.92 11.924150 3.90 82.733330 136.666670
11.91 11.913320 3.90 82.60 137.777780
11.90 11.903390 3.90 83.066670 138.888890
11.89 11.893450 3.90 83.533330 140.0
11.88 11.882620 3.90 84.0 152.222220
11.87 11.872690 3.90 83.533330 164.444440
11.86 11.862750 3.90 83.066670 176.666670
11.85 11.852820 3.90 82.60 161.86380
11.84 11.841990 3.90 82.50 147.060930
11.83 11.832050 3.90 82.40 132.258060
11.82 11.822120 3.90 82.30 140.860220
11.81 11.812190 3.90 82.566670 149.462370
11.80 11.802260 3.90 82.833330 158.064520
11.79 11.791420 3.90 83.10 166.666670
11.78 11.781490 3.90 83.466670 164.444440
11.77 11.771560 3.90 83.833330 162.222220
11.76 11.761630 3.90 84.20 160.0
11.75 11.751690 3.90 83.866670 164.444440
11.74 11.740860 3.90 83.533330 168.888890
11.73 11.730930 3.90 83.20 173.333330
11.72 11.720990 3.90 82.90 153.333330
11.71 11.710160 3.90 82.60 133.333330
11.70 11.700230 3.90 82.30 113.333330
11.69 11.695260 3.90 82.80 113.333330
11.68 11.690290 3.90 83.30 113.333330
11.67 11.679460 3.90 83.80 113.333330
11.66 11.669530 3.933330 83.433330 130.0
11.65 11.659590 3.966670 83.066670 146.666670
11.64 11.648760 4.0 82.70 163.333330
11.63 11.638830 4.0 83.033330 153.333330
11.62 11.628890 4.0 83.366670 143.333330
11.61 11.618060 4.0 83.70 133.333330
11.60 11.608130 3.966670 83.566670 123.333330
11.59 11.598190 3.933330 83.433330 113.333330
11.58 11.588260 3.90 83.30 103.333330
11.57 11.577430 3.90 82.866670 128.888890
11.56 11.567490 3.90 82.433330 154.444440
11.55 11.557560 3.90 82.0 180.0
11.54 11.547630 3.90 82.233330 185.0
11.53 11.53770 3.90 82.466670 190.0
11.52 11.526860 3.90 82.70 195.0
11.51 11.516930 3.933330 82.70 183.333330
11.50 11.5070 3.966670 82.70 171.666670
11.49 11.497070 4.0 82.70 160.0
11.48 11.487130 3.966670 82.566670 148.888890
11.47 11.47720 3.933330 82.433330 137.777780
11.46 11.466370 3.90 82.30 126.666670
11.45 11.456430 3.90 82.266670 115.555560
11.44 11.44650 3.90 82.233330 104.444440
11.43 11.436570 3.90 82.20 93.333330
11.42 11.426640 3.90 82.066670 114.444440
11.41 11.41670 3.90 81.933330 135.555560
11.40 11.405870 3.90 81.80 156.666670
11.39 11.395940 3.9250 82.050 152.222220
11.38 11.3860 3.950 82.30 147.777780
11.37 11.376070 3.9750 82.550 143.333330
11.36 11.366140 4.0 82.80 144.444440
11.35 11.356210 3.966670 82.633330 145.555560
11.34 11.346280 3.933330 82.466670 146.666670
11.33 11.336340 3.90 82.30 151.111110
11.32 11.326410 3.933330 82.20 155.555560
11.31 11.316480 3.966670 82.10 160.0
11.30 11.306550 4.0 82.0 148.888890
11.29 11.296610 3.966670 81.70 137.777780
11.28 11.286680 3.933330 81.40 126.666670
11.27 11.276750 3.90 81.10 131.756270
11.26 11.265910 3.90 81.90 136.845880
11.25 11.255980 3.90 82.70 141.935480
11.24 11.246050 3.90 83.50 143.512540
11.23 11.236120 3.90 83.266670 145.089610
11.22 11.226190 3.90 83.033330 146.666670
11.21 11.216250 3.90 82.80 158.888890
11.20 11.206320 3.90 82.50 171.111110
11.19 11.196390 3.90 82.20 183.333330
11.18 11.186460 3.90 81.90 177.777780
11.17 11.176520 3.90 81.533330 172.222220
11.16 11.166590 3.90 81.166670 166.666670
11.15 11.156660 3.90 80.80 151.111110
11.14 11.146730 3.90 80.866670 135.555560
11.13 11.136790 3.90 80.933330 120.0
11.12 11.125960 3.90 81.0 115.555560
11.11 11.116030 3.90 81.433330 111.111110
11.10 11.106090 3.90 81.866670 106.666670
11.09 11.096160 3.90 82.30 121.111110
11.08 11.086230 3.90 82.80 135.555560
11.07 11.07630 3.90 83.30 150.0
11.06 11.066370 3.90 83.80 148.888890
11.05 11.056430 3.90 83.333330 147.777780
11.04 11.04650 3.90 82.866670 146.666670
11.03 11.036570 3.90 82.40 148.888890
11.02 11.026640 3.90 82.366670 151.111110
11.01 11.01580 3.90 82.333330 153.333330
11.00 11.005870 3.90 82.30 153.333330
10.99 10.995940 3.90 82.30 153.333330
10.98 10.9860 3.90 82.30 153.333330
10.97 10.975170 3.90 82.30 155.555560
10.96 10.965240 3.90 82.233330 157.777780
10.95 10.95530 3.90 82.166670 160.0
10.94 10.945370 3.90 82.10 164.444440
10.93 10.935440 3.90 82.566670 168.888890
10.92 10.925510 3.90 83.033330 173.333330
10.91 10.914670 3.90 83.50 173.333330
10.90 10.904740 3.90 83.533330 173.333330
10.89 10.894810 3.90 83.566670 173.333330
10.88 10.884880 3.90 83.60 165.555560
10.87 10.874940 3.90 82.766670 157.777780
10.86 10.865010 3.90 81.933330 150.0
10.85 10.854180 3.90 81.10 152.222220
10.84 10.844240 3.90 82.566670 154.444440
