~VERSION INFORMATION SECTION
VERS. 2.0 : CWLS LAS-VERSION 2.0
WRAP. NO : One line per depth step
~WELL INFORMATION SECTION
# MNEM.UNIT VALUE/NAME DESCRIPTION
#-------- -------------- ---------------------
STRT.Metres 17 : Start
STOP.Metres 0.36 : Stop
STEP.Metres -0.01 : Step
NULL.  -999.25 :NULL VALUE
DATE. 2025-31-11 : DATE
~CURVE INFORMATION SECTION
DEPTH.Metres : 0 Depth
Depth. : 1 Depth
Incline.Deg : 2 Incline
Azimuth.Deg : 3 Azimuth
GR.CPS : 4 GR
~PARAMETER INFORMATION SECTION
~OTHER
#-------------------------------------------------
#Produced By: GeoVista Logger - Version 7.1.107.0
Natural Gamma Sonde - 6447
Verticality Sonde - 6292
#-------------------------------------------------
~ASCII LOG DATA
# ...
2.31 2.316030 2.40 70.833330 166.666670
2.30 2.306090 2.40 71.066670 150.0
2.29 2.296160 2.40 71.30 133.333330
2.28 2.286230 2.40 71.30 116.666670
2.27 2.27630 2.40 71.30 123.232320
2.26 2.266370 2.40 71.30 129.797980
2.25 2.256430 2.40 71.333330 136.363640
2.24 2.24650 2.40 71.366670 147.049440
2.23 2.236570 2.40 71.40 157.735250
2.22 2.226640 2.40 71.466670 168.421050
2.21 2.21670 2.40 71.533330 164.649120
2.20 2.205870 2.40 71.60 160.877190
2.19 2.195940 2.40 71.90 157.105260
2.18 2.186910 2.40 72.20 153.333330
2.17 2.176070 2.40 72.50 143.333330
2.16 2.166140 2.366670 71.333330 133.333330
2.15 2.156210 2.333330 70.166670 123.333330
2.14 2.145370 2.30 69.0 137.777780
2.13 2.135440 2.3250 70.7250 152.222220
2.12 2.125510 2.350 72.450 166.666670
2.11 2.114670 2.3750 74.1750 154.121860
2.10 2.104740 2.40 75.90 141.577060
2.09 2.094810 2.40 73.533330 129.032260
2.08 2.083970 2.40 71.166670 134.910390
2.07 2.074040 2.40 68.80 140.788530
2.06 2.064110 2.366670 70.333330 146.666670
2.05 2.053270 2.333330 71.866670 145.555560
2.04 2.043340 2.30 73.40 144.444440
2.03 2.033410 2.30 72.50 143.333330
2.02 2.022570 2.30 71.60 147.777780
2.01 2.012640 2.30 70.70 152.222220
2.00 2.002710 2.30 71.366670 156.666670
1.99 1.991870 2.30 72.033330 156.666670
1.98 1.981940 2.30 72.70 156.666670
1.97 1.972010 2.30 72.80 156.666670
1.96 1.961170 2.30 72.90 138.888890
1.95 1.950340 2.30 73.0 121.111110
1.94 1.945370 2.333330 72.633330 103.333330
1.93 1.940410 2.366670 72.266670 110.0
1.92 1.929570 2.40 71.90 116.666670
1.91 1.919640 2.40 71.866670 123.333330
1.90 1.909710 2.40 71.833330 134.444440
1.89 1.898870 2.40 71.80 145.555560
1.88 1.888940 2.40 72.0 156.666670
1.87 1.879010 2.40 72.20 148.333330
1.86 1.868170 2.40 72.40 140.0
1.85 1.858240 2.40 72.733330 131.666670
1.84 1.848310 2.40 73.066670 123.333330
1.83 1.837470 2.40 73.40 147.777780
1.82 1.827540 2.40 73.733330 172.222220
1.81 1.817610 2.40 74.066670 196.666670
1.80 1.806770 2.40 74.40 181.111110
1.79 1.796840 2.40 73.833330 165.555560
1.78 1.7860 2.40 73.266670 150.0
1.77 1.775170 2.40 72.70 154.444440
1.76 1.765240 2.366670 74.20 158.888890
1.75 1.75530 2.333330 75.70 163.333330
1.74 1.744470 2.30 77.20 170.0
1.73 1.733630 2.333330 77.266670 176.666670
1.72 1.72370 2.366670 77.333330 183.333330
1.71 1.712870 2.40 77.40 186.666670
1.70 1.702930 2.40 72.40 190.0
1.69 1.6930 2.40 67.40 193.333330
1.68 1.682170 2.40 62.40 190.0
1.67 1.672230 2.333330 67.466670 186.666670
1.66 1.66230 2.266670 72.533330 183.333330
1.65 1.651470 2.20 77.60 193.333330
1.64 1.641530 2.20 76.950 203.333330
1.63 1.63160 2.20 76.30 213.333330
1.62 1.626190 2.20 75.650 190.707070
1.61 1.620770 2.20 75.0 168.080810
1.60 1.609930 2.20 76.0 145.454550
1.59 1.60 2.20 77.0 142.583730
1.58 1.589160 2.20 78.0 139.712920
1.57 1.579230 2.20 77.90 136.842110
1.56 1.56930 2.20 77.80 140.131580
1.55 1.559370 2.20 77.70 143.421050
1.54 1.549440 2.233330 78.233330 146.710530
1.53 1.53950 2.266670 78.766670 150.0
1.52 1.528670 2.30 79.30 155.913980
1.51 1.517830 2.266670 81.40 161.827960
1.50 1.50880 2.233330 83.50 167.741940
1.49 1.497970 2.20 85.60 177.383510
1.48 1.487130 2.233330 84.10 187.025090
1.47 1.47810 2.266670 82.60 196.666670
1.46 1.467270 2.30 81.10 201.111110
1.45 1.456430 2.133330 81.60 205.555560
1.44 1.44650 1.966670 82.10 210.0
1.43 1.435670 1.80 82.60 206.666670
1.42 1.425730 2.0 78.70 203.333330
1.41 1.41580 2.20 74.80 200.0
1.40 1.404970 2.40 70.90 194.444440
1.39 1.395030 2.30 75.60 188.888890
1.38 1.38510 2.20 80.30 183.333330
1.37 1.374270 2.10 85.0 194.444440
1.36 1.364330 2.133330 84.70 205.555560
1.35 1.35440 2.166670 84.40 216.666670
1.34 1.343570 2.20 84.10 212.222220
1.33 1.333630 2.20 84.166670 207.777780
1.32 1.32370 2.20 84.233330 203.333330
1.31 1.312870 2.20 84.30 192.222220
1.30 1.302930 2.2250 83.1750 181.111110
1.29 1.2930 2.250 82.050 170.0
1.28 1.282170 2.2750 80.9250 196.666670
1.27 1.272230 2.30 79.80 223.333330
1.26 1.263210 2.30 80.733330 250.0
1.25 1.255080 2.30 81.666670 228.888890
1.24 1.245750 2.30 82.60 207.777780
1.23 1.232680 2.30 82.40 186.666670
1.22 -999.25 2.30 82.20 209.292930
1.21 -999.25 2.30 82.0 231.919190
1.20 -999.25 2.30 82.433330 254.545450
1.19 -999.25 2.30 82.866670 234.609250
1.18 -999.25 2.30 83.30 214.673050
1.17 -999.25 2.266670 84.50 194.736840
1.16 -999.25 2.233330 85.70 190.935670
1.15 -999.25 2.20 86.90 187.13450
1.14 -999.25 2.20 87.866670 183.333330
1.13 -999.25 2.20 88.833330 167.777780
1.12 -999.25 2.20 89.80 152.222220
1.11 -999.25 2.20 88.80 136.666670
1.10 -999.25 2.20 87.80 160.0
1.09 -999.25 2.20 86.80 183.333330
1.08 -999.25 2.20 88.70 206.666670
1.07 -999.25 2.20 90.60 190.0
1.06 -999.25 2.20 92.50 173.333330
1.05 -999.25 2.20 90.766670 156.666670
1.04 -999.25 2.20 89.033330 159.166670
1.03 -999.25 2.20 87.30 161.666670
1.02 -999.25 2.166670 89.50 164.166670
1.01 -999.25 2.133330 91.70 166.666670
1.00 -999.25 2.10 93.90 175.555560
0.99 -999.25 2.133330 94.20 184.444440
0.98 -999.25 2.166670 94.50 193.333330
0.97 -999.25 2.20 94.80 182.222220
0.96 -999.25 2.20 93.40 171.111110
0.95 -999.25 2.20 92.0 160.0
0.94 -999.25 2.20 91.90 153.978490
0.93 -999.25 -999.25 -999.25 147.956990
0.92 -999.25 -999.25 -999.25 141.935480
0.91 -999.25 -999.25 -999.25 145.734770
0.90 -999.25 -999.25 -999.25 149.534050
0.89 -999.25 -999.25 -999.25 153.333330
0.88 -999.25 -999.25 -999.25 152.222220
0.87 -999.25 -999.25 -999.25 151.111110
0.86 -999.25 -999.25 -999.25 150.0
0.85 -999.25 -999.25 -999.25 166.666670
0.84 -999.25 -999.25 -999.25 183.333330
0.83 -999.25 -999.25 -999.25 200.0
0.82 -999.25 -999.25 -999.25 182.222220
0.81 -999.25 -999.25 -999.25 164.444440
0.80 -999.25 -999.25 -999.25 146.666670
0.79 -999.25 -999.25 -999.25 151.111110
0.78 -999.25 -999.25 -999.25 155.555560
0.77 -999.25 -999.25 -999.25 160.0
0.76 -999.25 -999.25 -999.25 166.666670
0.75 -999.25 -999.25 -999.25 173.333330
0.74 -999.25 -999.25 -999.25 180.0
0.73 -999.25 -999.25 -999.25 174.166670
0.72 -999.25 -999.25 -999.25 168.333330
0.71 -999.25 -999.25 -999.25 162.50
0.70 -999.25 -999.25 -999.25 156.666670
0.69 -999.25 -999.25 -999.25 153.333330
0.68 -999.25 -999.25 -999.25 150.0
0.67 -999.25 -999.25 -999.25 146.666670
0.66 -999.25 -999.25 -999.25 147.777780
0.65 -999.25 -999.25 -999.25 148.888890
0.64 -999.25 -999.25 -999.25 150.0
0.63 -999.25 -999.25 -999.25 143.333330
0.62 -999.25 -999.25 -999.25 136.666670
0.61 -999.25 -999.25 -999.25 130.0
0.60 -999.25 -999.25 -999.25 126.666670
0.59 -999.25 -999.25 -999.25 123.333330
0.58 -999.25 -999.25 -999.25 120.0
0.57 -999.25 -999.25 -999.25 130.0
0.56 -999.25 -999.25 -999.25 140.0
0.55 -999.25 -999.25 -999.25 150.0
0.54 -999.25 -999.25 -999.25 154.444440
0.53 -999.25 -999.25 -999.25 158.888890
0.52 -999.25 -999.25 -999.25 163.333330
0.51 -999.25 -999.25 -999.25 165.555560
0.50 -999.25 -999.25 -999.25 167.777780
0.49 -999.25 -999.25 -999.25 170.0
0.48 -999.25 -999.25 -999.25 153.333330
0.47 -999.25 -999.25 -999.25 136.666670
0.46 -999.25 -999.25 -999.25 120.0
0.45 -999.25 -999.25 -999.25 116.666670
0.44 -999.25 -999.25 -999.25 113.333330
0.43 -999.25 -999.25 -999.25 110.0
0.42 -999.25 -999.25 -999.25 123.333330
0.41 -999.25 -999.25 -999.25 136.666670
0.40 -999.25 -999.25 -999.25 150.0
0.39 -999.25 -999.25 -999.25 130.0
0.38 -999.25 -999.25 -999.25 110.0
0.37 -999.25 -999.25 -999.25 116.129030
0.36 -999.25 -999.25 -999.25 106.666670
