~VERSION INFORMATION SECTION
VERS. 2.0 : CWLS LAS-VERSION 2.0
WRAP. NO : One line per depth step
~WELL INFORMATION SECTION
# MNEM.UNIT VALUE/NAME DESCRIPTION
#-------- -------------- ---------------------
STRT.Metres 17 : Start
STOP.Metres 0.36 : Stop
STEP.Metres -0.01 : Step
NULL.  -999.25 :NULL VALUE
DATE. 2025-31-11 : DATE
~CURVE INFORMATION SECTION
DEPTH.Metres : 0 Depth
Depth. : 1 Depth
Incline.Deg : 2 Incline
Azimuth.Deg : 3 Azimuth
GR.CPS : 4 GR
~PARAMETER INFORMATION SECTION
~OTHER
#-------------------------------------------------
#Produced By: GeoVista Logger - Version 7.1.107.0
Natural Gamma Sonde - 6447
Verticality Sonde - 6292
#-------------------------------------------------
~ASCII LOG DATA
17.00 -999.25 -999.25 -999.25 -999.25
16.99 16.993230 -999.25 -999.25 -999.25
16.98 16.98330 -999.25 -999.25 -999.25
16.97 16.972460 -999.25 -999.25 -999.25
16.96 16.962530 -999.25 -999.25 -999.25
16.95 16.951690 -999.25 -999.25 -999.25
16.94 16.940860 -999.25 -999.25 -999.25
16.93 16.935440 -999.25 -999.25 -999.25
16.92 16.930020 -999.25 -999.25 -999.25
16.91 16.919190 -999.25 -999.25 -999.25
16.90 16.908350 -999.25 -999.25 -999.25
16.89 16.897520 -999.25 -999.25 -999.25
16.88 16.885780 -999.25 -999.25 -999.25
16.87 16.874940 -999.25 -999.25 -999.25
16.86 16.863210 -999.25 -999.25 -999.25
16.85 16.852370 -999.25 -999.25 -999.25
16.84 16.846950 -999.25 -999.25 -999.25
16.83 16.841530 -999.25 -999.25 -999.25
16.82 16.82980 -999.25 -999.25 -999.25
16.81 16.818960 -999.25 -999.25 -999.25
16.80 16.808130 -999.25 -999.25 -999.25
16.79 16.797290 -999.25 -999.25 -999.25
16.78 16.787360 -999.25 -999.25 -999.25
16.77 16.776520 -999.25 -999.25 -999.25
16.76 16.766590 -999.25 -999.25 -999.25
16.75 16.755760 5.90 81.962790 -999.25
16.74 16.745820 5.90 82.0 -999.25
16.73 16.735890 5.90 81.950 -999.25
16.72 16.725060 5.90 81.90 -999.25
16.71 16.715120 5.90 81.966670 -999.25
16.70 16.705190 5.90 82.033330 -999.25
16.69 16.694360 5.90 82.10 -999.25
16.68 16.684420 5.90 82.266670 -999.25
16.67 16.674490 5.90 82.433330 -999.25
16.66 16.663660 5.90 82.60 -999.25
16.65 16.653720 5.90 82.350 -999.25
16.64 16.643790 5.90 82.10 -999.25
16.63 16.632960 5.90 81.850 -999.25
16.62 16.623020 5.90 81.60 -999.25
16.61 16.613090 5.90 81.80 -999.25
16.60 16.602260 5.90 82.0 -999.25
16.59 16.592330 5.90 82.20 -999.25
16.58 16.581490 5.866670 81.733330 -999.25
16.57 16.571560 5.833330 81.266670 -999.25
16.56 16.561630 5.80 80.80 -999.25
16.55 16.550790 5.80 80.8250 -999.25
16.54 16.540860 5.80 80.850 -999.25
16.53 16.530020 5.80 80.8750 -999.25
16.52 16.520090 5.80 80.90 -999.25
16.51 16.515120 5.80 81.40 -999.25
16.50 16.510160 5.80 81.90 -999.25
16.49 16.499320 5.80 82.40 -999.25
16.48 16.489390 5.766670 82.266670 -999.25
16.47 16.478560 5.733330 82.133330 -999.25
16.46 16.468620 5.70 82.0 -999.25
16.45 16.457790 5.70 82.30 -999.25
16.44 16.447860 5.70 82.60 -999.25
16.43 16.437020 5.70 82.90 -999.25
16.42 16.426190 5.666670 82.80 -999.25
16.41 16.416250 5.633330 82.70 -999.25
16.40 16.405420 5.60 82.60 -999.25
16.39 16.395490 5.566670 81.833330 -999.25
16.38 16.384650 5.533330 81.066670 -999.25
16.37 16.374720 5.50 80.30 -999.25
16.36 16.363880 5.50 80.40 -999.25
16.35 16.353050 5.50 80.50 -999.25
16.34 16.343120 5.50 80.60 -999.25
16.33 16.332280 5.50 81.633330 -999.25
16.32 16.322350 5.50 82.666670 -999.25
16.31 16.311510 5.50 83.70 -999.25
16.30 16.301580 5.50 83.10 -999.25
16.29 16.290740 5.50 82.50 -999.25
16.28 16.285780 5.50 81.90 -999.25
16.27 16.280810 5.533330 81.90 -999.25
16.26 16.269980 5.566670 81.90 -999.25
16.25 16.259140 5.60 81.90 -999.25
16.24 16.249210 5.566670 81.20 -999.25
16.23 16.238370 5.533330 80.50 -999.25
16.22 16.228440 5.50 79.80 -999.25
16.21 16.217610 5.50 80.650 -999.25
16.20 16.206770 5.50 81.50 -999.25
16.19 16.196840 5.50 82.350 -999.25
16.18 16.1860 5.50 83.20 -999.25
16.17 16.176070 5.466670 83.166670 80.485210
16.16 16.165240 5.433330 83.133330 160.970420
16.15 16.15530 5.40 83.10 150.485210
16.14 16.144470 5.40 83.90 140.0
16.13 16.133630 5.40 84.70 160.0
16.12 16.12370 5.40 85.50 180.0
16.11 16.112870 5.40 85.233330 174.444440
16.10 16.102930 5.40 84.966670 168.888890
16.09 16.09210 5.40 84.70 163.333330
16.08 16.081260 5.40 84.433330 153.333330
16.07 16.071330 5.40 84.166670 143.333330
16.06 16.06050 5.40 83.90 133.333330
16.05 16.055530 5.40 83.933330 141.666670
16.04 16.050560 5.40 83.966670 150.0
16.03 16.039730 5.40 84.0 158.333330
16.02 16.02980 5.40 83.966670 166.666670
16.01 16.018960 5.40 83.933330 151.111110
16.00 16.009030 5.40 83.90 135.555560
15.99 15.998190 5.3750 83.9250 120.0
15.98 15.988260 5.350 83.950 117.777780
15.97 15.978330 5.3250 83.9750 115.555560
15.96 15.967490 5.30 84.0 113.333330
15.95 15.957560 5.30 84.033330 110.0
15.94 15.946730 5.30 84.066670 106.666670
15.93 15.936790 5.30 84.10 103.333330
15.92 15.926860 5.30 84.466670 100.0
15.91 15.916030 5.30 84.833330 97.849460
15.90 15.906090 5.30 85.20 95.698920
15.89 15.895260 5.30 84.80 93.548390
15.88 15.885330 5.30 84.40 105.698920
15.87 15.87540 5.30 84.0 117.849460
15.86 15.864560 5.30 84.633330 130.0
15.85 15.854630 5.30 85.266670 128.888890
15.84 15.84470 5.30 85.90 127.777780
15.83 15.833860 5.266670 84.833330 126.666670
15.82 15.823930 5.233330 83.766670 117.777780
15.81 15.8140 5.20 82.70 108.888890
15.80 15.803160 5.166670 83.266670 100.0
15.79 15.793230 5.133330 83.833330 116.666670
15.78 15.782390 5.10 84.40 133.333330
15.77 15.772460 5.10 85.7250 150.0
15.76 15.761630 5.10 87.050 130.0
15.75 15.751690 5.10 88.3750 110.0
15.74 15.740860 5.10 89.70 90.0
15.73 15.730930 5.10 89.166670 93.333330
15.72 15.725510 5.10 88.633330 96.666670
15.71 15.720090 5.10 88.10 100.0
15.70 15.709260 5.066670 85.90 122.222220
15.69 15.698420 5.033330 83.70 144.444440
15.68 15.688490 5.0 81.50 166.666670
15.67 15.677650 5.033330 82.233330 153.333330
15.66 15.667720 5.066670 82.966670 140.0
15.65 15.656880 5.10 83.70 126.666670
15.64 15.646950 5.10 84.866670 123.333330
15.63 15.636120 5.10 86.033330 120.0
15.62 15.626190 5.10 87.20 116.666670
15.61 15.617160 5.10 86.40 113.333330
15.60 15.607220 5.10 85.60 116.666670
15.59 15.597290 5.10 84.80 120.0
15.58 15.587360 5.066670 84.633330 123.333330
15.57 15.577430 5.033330 84.466670 126.666670
15.56 15.567490 5.0 84.30 130.0
15.55 15.557560 5.033330 84.733330 133.333330
15.54 15.546730 5.066670 85.166670 134.444440
15.53 15.536790 5.10 85.60 135.555560
15.52 15.526860 5.066670 85.30 136.666670
15.51 15.516930 5.033330 85.0 137.777780
15.50 15.506090 5.0 84.70 138.888890
15.49 15.496160 5.0 85.066670 140.0
15.48 15.486230 5.0 85.433330 128.888890
15.47 15.47630 5.0 85.80 117.777780
15.46 15.465460 5.0 85.70 106.666670
15.45 15.455530 5.0 85.60 111.111110
15.44 15.44560 5.0 85.50 115.555560
15.43 15.435670 5.0 85.250 120.0
15.42 15.424830 5.0 85.0 126.666670
15.41 15.41490 5.0 84.750 133.333330
15.40 15.404970 5.0 84.50 140.0
15.39 15.395030 5.0 85.233330 133.333330
15.38 15.38510 5.0 85.966670 126.666670
15.37 15.374270 5.0 86.70 120.0
15.36 15.364330 5.0 86.566670 113.333330
15.35 15.35440 5.0 86.433330 120.0
15.34 15.343570 5.0 86.30 126.666670
15.33 15.333630 5.0 86.0 133.333330
15.32 15.32370 5.0 85.70 128.673840
15.31 15.313770 5.0 85.40 124.014340
15.30 15.302930 5.0 85.533330 119.354840
15.29 15.2930 5.0 85.666670 138.458780
15.28 15.283070 5.0 85.80 157.562720
15.27 15.272230 5.0 85.666670 176.666670
15.26 15.26230 5.0 85.533330 163.333330
15.25 15.252370 5.0 85.40 150.0
15.24 15.241530 5.0 86.033330 136.666670
15.23 15.23160 5.0 86.666670 126.666670
15.22 15.221670 5.0 87.30 116.666670
15.21 15.216250 4.966670 87.133330 106.666670
15.20 15.210840 4.933330 86.966670 113.333330
15.19 15.195030 4.90 86.80 120.0
15.18 15.187580 4.90 86.50 126.666670
15.17 15.180140 4.90 86.20 132.50
15.16 15.16930 4.90 85.90 138.333330
15.15 15.159370 4.933330 85.966670 144.166670
15.14 15.148530 4.966670 86.033330 150.0
15.13 15.13860 5.0 86.10 156.666670
15.12 15.127770 4.966670 85.90 163.333330
15.11 15.117830 4.933330 85.70 170.0
15.10 15.1070 4.90 85.50 163.333330
15.09 15.097070 4.90 86.40 156.666670
15.08 15.087130 4.90 87.30 150.0
15.07 15.07630 4.90 88.20 146.666670
15.06 15.066370 4.90 87.633330 143.333330
15.05 15.055530 4.90 87.066670 140.0
15.04 15.04560 4.90 86.50 128.888890
15.03 15.035670 4.90 86.066670 117.777780
15.02 15.024830 4.90 85.633330 106.666670
15.01 15.01490 4.90 85.20 110.0
15.00 15.004060 4.90 85.40 113.333330
14.99 14.994130 4.90 85.60 116.666670
14.98 14.98330 4.90 85.80 123.333330
14.97 14.973360 4.90 84.933330 130.0
14.96 14.963430 4.90 84.066670 136.666670
14.95 14.95260 4.90 83.20 138.888890
14.94 14.942660 4.933330 84.40 141.111110
14.93 14.931830 4.966670 85.60 143.333330
14.92 14.92190 5.0 86.80 134.444440
