~VERSION INFORMATION SECTION
VERS. 2.0 : CWLS LAS-VERSION 2.0
WRAP. NO : One line per depth step
~WELL INFORMATION SECTION
# MNEM.UNIT VALUE/NAME DESCRIPTION
#-------- -------------- ---------------------
STRT.Metres 17 : Start
STOP.Metres 0.36 : Stop
STEP.Metres -0.01 : Step
NULL.  -999.25 :NULL VALUE
DATE. 2025-31-11 : DATE
~CURVE INFORMATION SECTION
DEPTH.Metres : 0 Depth
Depth. : 1 Depth
Incline.Deg : 2 Incline
Azimuth.Deg : 3 Azimuth
GR.CPS : 4 GR
~PARAMETER INFORMATION SECTION
~OTHER
#-------------------------------------------------
#Produced By: GeoVista Logger - Version 7.1.107.0
Natural Gamma Sonde - 6447
Verticality Sonde - 6292
#-------------------------------------------------
~ASCII LOG DATA
# ...
6.59 6.596840 3.30 82.30 246.666670
6.58 6.586910 3.333330 81.70 276.666670
6.57 6.576980 3.366670 81.10 306.666670
6.56 6.567040 3.40 80.50 292.222220
6.55 6.557110 3.366670 81.133330 277.777780
6.54 6.547180 3.333330 81.766670 263.333330
6.53 6.537250 3.30 82.40 254.444440
6.52 6.527310 3.30 81.0 245.555560
6.51 6.517380 3.30 79.60 236.666670
6.50 6.507450 3.30 78.20 231.111110
6.49 6.497520 3.30 79.133330 225.555560
6.48 6.486680 3.30 80.066670 220.0
6.47 6.476750 3.30 81.0 214.444440
6.46 6.466820 3.30 81.0 208.888890
6.45 6.455980 3.30 81.0 203.333330
6.44 6.446050 3.30 81.0 205.0
6.43 6.436120 3.266670 80.90 206.666670
6.42 6.426190 3.233330 80.80 208.333330
6.41 6.416250 3.20 80.70 210.0
6.40 6.406320 3.266670 80.733330 185.0
6.39 6.395490 3.333330 80.766670 160.0
6.38 6.385550 3.40 80.80 172.50
6.37 6.375620 3.383330 80.750 185.0
6.36 6.365690 3.366670 80.70 197.50
6.35 6.355760 3.350 80.650 210.0
6.34 6.345820 3.333330 80.60 206.666670
6.33 6.334990 3.316670 80.550 203.333330
6.32 6.325060 3.30 80.50 200.0
6.31 6.315120 3.30 79.833330 201.666670
6.30 6.304290 3.30 79.166670 203.333330
6.29 6.294360 3.30 78.50 205.0
6.28 6.284420 3.316670 78.883330 201.111110
6.27 6.274490 3.333330 79.266670 197.222220
6.26 6.264560 3.350 79.650 193.333330
6.25 6.253720 3.366670 80.033330 192.222220
6.24 6.243790 3.383330 80.416670 191.111110
6.23 6.233860 3.40 80.80 190.0
6.22 6.223930 3.366670 80.60 182.222220
6.21 6.213090 3.333330 80.40 174.444440
6.20 6.203160 3.30 80.20 166.666670
6.19 6.193230 3.333330 80.80 180.0
6.18 6.182390 3.366670 81.40 193.333330
6.17 6.172460 3.40 82.0 206.666670
6.16 6.162530 3.433330 80.10 212.222220
6.15 6.15260 3.466670 78.20 217.777780
6.14 6.142660 3.50 76.30 223.333330
6.13 6.132730 3.50 77.533330 225.555560
6.12 6.12190 3.50 78.766670 227.777780
6.11 6.111960 3.50 80.0 230.0
6.10 6.102030 3.50 80.30 195.268820
6.09 6.09210 3.50 80.60 160.537630
6.08 6.082170 3.50 80.90 125.806450
6.07 6.072230 3.466670 80.533330 133.870970
6.06 6.06230 3.433330 80.166670 141.935480
6.05 6.052370 3.40 79.80 150.0
6.04 6.042440 3.433330 79.966670 152.222220
6.03 6.03160 3.466670 80.133330 154.444440
6.02 6.021670 3.50 80.30 156.666670
6.01 6.011740 3.50 80.033330 155.555560
6.00 6.001810 3.50 79.766670 154.444440
5.99 5.991870 3.50 79.50 153.333330
5.98 5.981940 3.50 79.466670 170.0
5.97 5.971110 3.50 79.433330 186.666670
5.96 5.961170 3.50 79.40 203.333330
5.95 5.951240 3.533330 79.50 188.888890
5.94 5.941310 3.566670 79.60 174.444440
5.93 5.931380 3.60 79.70 160.0
5.92 5.921440 3.533330 79.466670 171.111110
5.91 5.911510 3.466670 79.233330 182.222220
5.90 5.901580 3.40 79.0 193.333330
5.89 5.891650 3.40 78.966670 186.666670
5.88 5.880810 3.40 78.933330 180.0
5.87 5.870880 3.40 78.90 173.333330
5.86 5.860950 3.40 79.0 188.888890
5.85 5.851020 3.40 79.10 204.444440
5.84 5.841080 3.40 79.20 220.0
5.83 5.831150 3.40 78.90 223.333330
5.82 5.820320 3.40 78.60 226.666670
5.81 5.810380 3.40 78.30 230.0
5.80 5.800450 3.40 78.50 193.333330
5.79 5.790520 3.40 78.70 156.666670
5.78 5.780590 3.40 78.90 120.0
5.77 5.775620 3.40 79.166670 131.111110
5.76 5.770650 3.40 79.433330 142.222220
5.75 5.759820 3.40 79.70 153.333330
5.74 5.745370 3.40 79.866670 171.919190
5.73 5.730020 3.40 80.033330 190.505050
5.72 5.720090 3.40 80.20 209.090910
5.71 5.711060 3.40 79.80 195.534290
5.70 5.700230 3.40 79.40 181.977670
5.69 5.69120 3.40 79.0 168.421050
5.68 5.681260 3.40 78.866670 173.391810
5.67 5.671330 3.40 78.733330 178.362570
5.66 5.66140 3.40 78.60 183.333330
5.65 5.651470 3.366670 78.20 176.767680
5.64 5.641530 3.333330 77.80 170.202020
5.63 5.63160 3.30 77.40 163.636360
5.62 5.621670 3.333330 78.266670 184.529510
5.61 5.611740 3.366670 79.133330 205.422650
5.60 5.601810 3.40 80.0 226.315790
5.59 5.591870 3.40 79.0 217.543860
5.58 5.581940 3.40 78.0 208.771930
5.57 5.571110 3.40 77.0 200.0
5.56 5.562080 3.366670 77.80 183.333330
5.55 5.551240 3.333330 78.60 166.666670
5.54 5.541310 3.30 79.40 150.0
5.53 5.531380 3.333330 78.10 162.365590
5.52 5.520540 3.366670 76.80 174.731180
5.51 5.510610 3.40 75.50 187.096770
5.50 5.500680 3.366670 77.70 179.175630
5.49 5.490740 3.333330 79.90 171.254480
5.48 5.480810 3.30 82.10 163.333330
5.47 5.470880 3.30 82.50 175.555560
5.46 5.460050 3.30 82.90 187.777780
5.45 5.450110 3.30 83.30 200.0
5.44 5.441080 3.30 81.533330 196.666670
5.43 5.430250 3.30 79.766670 193.333330
5.42 5.420320 3.30 78.0 190.0
5.41 5.415350 3.30 79.333330 171.111110
5.40 5.410380 3.30 80.666670 152.222220
5.39 5.399550 3.30 82.0 133.333330
5.38 5.389620 3.30 80.566670 136.666670
5.37 5.379680 3.30 79.133330 140.0
5.36 5.369750 3.30 77.70 143.333330
5.35 5.358920 3.30 78.90 162.222220
5.34 5.348980 3.30 80.10 181.111110
5.33 5.339050 3.30 81.30 200.0
5.32 5.329120 3.30 79.133330 195.555560
5.31 5.319190 3.30 76.966670 191.111110
5.30 5.308350 3.30 74.80 186.666670
5.29 5.298420 3.30 75.066670 168.888890
5.28 5.288490 3.30 75.333330 151.111110
5.27 5.277650 3.30 75.60 133.333330
5.26 5.267720 3.30 76.933330 145.555560
5.25 5.258690 3.30 78.266670 157.777780
5.24 5.247860 3.30 79.60 170.0
5.23 5.237920 3.30 78.633330 152.222220
5.22 5.227990 3.30 77.666670 134.444440
5.21 5.218060 3.30 76.70 116.666670
5.20 5.208130 3.30 77.066670 134.444440
5.19 5.198190 3.30 77.433330 152.222220
5.18 5.187360 3.30 77.80 170.0
5.17 5.178330 3.30 78.033330 176.666670
5.16 5.16840 3.30 78.266670 183.333330
5.15 5.157560 3.30 78.50 190.0
5.14 5.147630 3.30 77.566670 185.555560
5.13 5.13860 3.30 76.633330 181.111110
5.12 5.127770 3.30 75.70 176.666670
5.11 5.117830 3.30 75.785710 170.0
5.10 5.10790 3.30 75.871430 163.333330
5.09 5.097970 3.30 75.957140 156.666670
5.08 5.088040 3.30 76.042860 151.111110
5.07 5.07810 3.30 76.128570 145.555560
5.06 5.068170 3.30 76.214290 140.0
5.05 5.058240 3.30 76.30 148.888890
5.04 5.048310 3.333330 76.40 157.777780
5.03 5.037470 3.366670 76.50 166.666670
5.02 5.027540 3.40 76.60 167.777780
5.01 5.018510 3.366670 75.70 168.888890
5.00 5.007670 3.333330 74.80 170.0
4.99 4.997740 3.30 73.90 160.0
4.98 4.987810 3.366670 74.533330 150.0
4.97 4.977880 3.433330 75.166670 140.0
4.96 4.967950 3.50 75.80 140.645160
4.95 4.958010 3.466670 75.533330 141.290320
4.94 4.948080 3.433330 75.266670 141.935480
4.93 4.938150 3.40 75.0 146.845880
4.92 4.928220 3.40 74.333330 151.756270
4.91 4.917380 3.40 73.666670 156.666670
4.90 4.907450 3.40 73.0 158.888890
4.89 4.898420 3.40 74.116670 161.111110
4.88 4.887580 3.40 75.233330 163.333330
4.87 4.877650 3.40 76.350 162.222220
4.86 4.867720 3.40 77.466670 161.111110
4.85 4.856880 3.40 78.583330 160.0
4.84 4.846950 3.40 79.70 157.777780
4.83 4.837020 3.40 77.733330 155.555560
4.82 4.827090 3.40 75.766670 153.333330
4.81 4.817160 3.40 73.80 164.444440
4.80 4.807220 3.40 74.433330 175.555560
4.79 4.796390 3.40 75.066670 186.666670
4.78 4.786460 3.40 75.70 185.555560
4.77 4.776520 3.40 74.933330 184.444440
4.76 4.766590 3.40 74.166670 183.333330
4.75 4.756660 3.40 73.40 187.777780
4.74 4.746730 3.40 73.766670 192.222220
4.73 4.735890 3.40 74.133330 196.666670
4.72 4.725960 3.40 74.50 198.888890
4.71 4.716030 3.40 74.20 201.111110
4.70 4.705190 3.40 73.90 203.333330
4.69 4.695260 3.40 73.60 203.333330
4.68 4.685330 3.40 73.50 203.333330
4.67 4.674490 3.40 73.40 203.333330
4.66 4.664560 3.40 73.30 204.444440
4.65 4.654630 3.40 73.166670 205.555560
4.64 4.643790 3.40 73.033330 206.666670
4.63 4.633860 3.40 72.90 193.333330
4.62 4.623930 3.40 72.866670 180.0
4.61 4.6140 3.40 72.833330 166.666670
4.60 4.603160 3.40 72.80 198.41270
4.59 4.594130 3.40 73.033330 230.158730
4.58 4.58330 3.40 73.266670 261.904760
4.57 4.574270 3.40 73.50 259.788360
4.56 4.564330 3.40 73.633330 257.671960
4.55 4.55440 3.40 73.766670 255.555560
4.54 4.544470 3.40 73.90 240.370370
4.53 4.534540 3.40 74.20 225.185190
4.52 4.52460 3.40 74.50 210.0
4.51 4.514670 3.40 74.80 206.666670
4.50 4.504740 3.40 73.566670 203.333330
4.49 4.494810 3.40 72.333330 200.0
4.48 4.484880 3.40 71.10 196.666670
4.47 4.474940 3.40 72.433330 203.838380
4.46 4.465010 3.40 73.766670 211.01010
