~VERSION INFORMATION SECTION
VERS. 2.0 : CWLS LAS-VERSION 2.0
WRAP. NO : One line per depth step
~WELL INFORMATION SECTION
# MNEM.UNIT VALUE/NAME DESCRIPTION
#-------- -------------- ---------------------
STRT.Metres 17 : Start
STOP.Metres 0.36 : Stop
STEP.Metres -0.01 : Step
NULL.  -999.25 :NULL VALUE
DATE. 2025-31-11 : DATE
~CURVE INFORMATION SECTION
DEPTH.Metres : 0 Depth
Depth. : 1 Depth
Incline.Deg : 2 Incline
Azimuth.Deg : 3 Azimuth
GR.CPS : 4 GR
~PARAMETER INFORMATION SECTION
~OTHER
#-------------------------------------------------
#Produced By: GeoVista Logger - Version 7.1.107.0
Natural Gamma Sonde - 6447
Verticality Sonde - 6292
#-------------------------------------------------
~ASCII LOG DATA
# ...
4.45 4.455080 3.40 75.10 218.181820
4.44 4.445150 3.366670 75.40 213.87560
4.43 4.434310 3.333330 75.70 209.569380
4.42 4.424380 3.30 76.0 205.263160
4.41 4.414450 3.333330 74.133330 190.605550
4.40 4.404510 3.366670 72.266670 175.947930
4.39 4.394580 3.40 70.40 161.290320
4.38 4.384650 3.40 71.70 175.304660
4.37 4.373810 3.40 73.0 189.3190
4.36 4.363880 3.40 74.30 203.333330
4.35 4.353950 3.40 72.766670 204.444440
4.34 4.344020 3.40 71.233330 205.555560
4.33 4.334090 3.40 69.70 206.666670
4.32 4.324150 3.40 71.333330 193.333330
4.31 4.313320 3.40 72.966670 180.0
4.30 4.303390 3.40 74.60 166.666670
4.29 4.294360 3.40 73.60 171.111110
4.28 4.283520 3.40 72.60 175.555560
4.27 4.273590 3.40 71.60 180.0
4.26 4.264560 3.366670 73.566670 180.0
4.25 4.253720 3.333330 75.533330 180.0
4.24 4.243790 3.30 77.50 180.0
4.23 4.234760 3.333330 76.566670 173.333330
4.22 4.223930 3.366670 75.633330 166.666670
4.21 4.2140 3.40 74.70 160.0
4.20 4.204060 3.366670 74.30 163.333330
4.19 4.194130 3.333330 73.90 166.666670
4.18 4.18420 3.30 73.50 170.0
4.17 4.174270 3.30 74.166670 164.444440
4.16 4.164330 3.30 74.833330 158.888890
4.15 4.15440 3.30 75.50 153.333330
4.14 4.144470 3.30 75.20 172.222220
4.13 4.133630 3.30 74.90 191.111110
4.12 4.12370 3.30 74.60 210.0
4.11 4.114670 3.266670 75.966670 180.0
4.10 4.103840 3.233330 77.333330 150.0
4.09 4.093910 3.20 78.70 120.0
4.08 4.083970 3.20 77.10 135.555560
4.07 4.074040 3.20 75.50 151.111110
4.06 4.064110 3.20 73.90 166.666670
4.05 4.054180 3.20 74.533330 160.0
4.04 4.044240 3.20 75.166670 153.333330
4.03 4.034310 3.20 75.80 146.666670
4.02 4.024380 3.20 75.866670 128.888890
4.01 4.013540 3.20 75.933330 111.111110
4.00 4.003610 3.20 76.0 93.333330
3.99 3.994580 3.20 75.750 114.444440
3.98 3.983750 3.20 75.50 135.555560
3.97 3.973810 3.20 75.250 156.666670
3.96 3.963880 3.20 75.0 155.555560
3.95 3.953950 3.20 74.750 154.444440
3.94 3.944020 3.20 74.50 153.333330
3.93 3.934090 3.20 74.833330 143.333330
3.92 3.923250 3.20 75.166670 133.333330
3.91 3.913320 3.20 75.50 123.333330
3.90 3.903390 3.20 75.633330 143.333330
3.89 3.893450 3.20 75.766670 163.333330
3.88 3.883520 3.20 75.90 183.333330
3.87 3.873590 3.20 75.166670 194.444440
3.86 3.862750 3.20 74.433330 205.555560
3.85 3.852820 3.20 73.70 216.666670
3.84 3.843790 3.20 74.133330 204.65950
3.83 3.832960 3.20 74.566670 192.652330
3.82 3.823020 3.20 75.0 180.645160
3.81 3.813090 3.20 75.433330 171.541220
3.80 3.802260 3.20 75.866670 162.437280
3.79 3.792330 3.20 76.30 153.333330
3.78 3.782390 3.20 76.166670 155.555560
3.77 3.771560 3.20 76.033330 157.777780
3.76 3.761630 3.20 75.90 160.0
3.75 3.751690 3.20 75.533330 164.444440
3.74 3.740860 3.20 75.166670 168.888890
3.73 3.730930 3.20 74.80 173.333330
3.72 3.720990 3.20 75.40 160.0
3.71 3.711060 3.20 76.0 146.666670
3.70 3.700230 3.20 76.60 133.333330
3.69 3.69120 3.20 76.733330 136.666670
3.68 3.680360 3.20 76.866670 140.0
3.67 3.670430 3.20 77.0 143.333330
3.66 3.665460 3.233330 76.60 157.777780
3.65 3.66050 3.266670 76.20 172.222220
3.64 3.649660 3.30 75.80 186.666670
3.63 3.642440 3.266670 76.266670 187.777780
3.62 3.635210 3.233330 76.733330 188.888890
3.61 3.619860 3.20 77.20 190.0
3.60 3.609030 3.233330 76.80 171.111110
3.59 3.60 3.266670 76.40 152.222220
3.58 3.589160 3.30 76.0 133.333330
3.57 3.578330 3.266670 76.133330 134.444440
3.56 3.56840 3.233330 76.266670 135.555560
3.55 3.557560 3.20 76.40 136.666670
3.54 3.547630 3.20 76.50 127.777780
3.53 3.53770 3.20 76.60 118.888890
3.52 3.526860 3.20 76.70 110.0
3.51 3.516930 3.20 76.30 116.666670
3.50 3.5070 3.20 75.90 123.333330
3.49 3.496160 3.20 75.50 130.0
3.48 3.485330 3.166670 76.066670 134.444440
3.47 3.47540 3.133330 76.633330 138.888890
3.46 3.465460 3.10 77.20 143.333330
3.45 3.454630 3.10 76.366670 147.777780
3.44 3.44560 3.10 75.533330 152.222220
3.43 3.434760 3.10 74.70 156.666670
3.42 3.424830 3.10 75.0 160.0
3.41 3.41490 3.10 75.30 163.333330
3.40 3.404060 3.10 75.60 166.666670
3.39 3.394130 3.066670 75.80 142.222220
3.38 3.38510 3.033330 76.0 117.777780
3.37 3.374270 3.0 76.20 93.333330
3.36 3.364330 3.0 74.90 120.0
3.35 3.35440 3.0 73.60 146.666670
3.34 3.344470 3.0 72.30 173.333330
3.33 3.333630 3.0 72.942860 160.0
3.32 3.32460 3.0 73.585710 146.666670
3.31 3.313770 3.0 74.228570 133.333330
3.30 3.303840 3.0 74.871430 141.111110
3.29 3.293910 3.0 75.514290 148.888890
3.28 3.283070 3.0 76.157140 156.666670
3.27 3.273140 3.0 76.80 148.530470
3.26 3.263210 2.966670 77.466670 140.394270
3.25 3.252370 2.933330 78.133330 132.258060
3.24 3.242440 2.90 78.80 139.283150
3.23 3.232510 2.90 77.266670 146.308240
3.22 3.221670 2.90 75.733330 153.333330
3.21 3.211740 2.90 74.20 145.555560
3.20 3.201810 2.90 74.50 137.777780
3.19 3.190970 2.90 74.80 130.0
3.18 3.181040 2.90 75.10 121.666670
3.17 3.171110 2.90 75.20 113.333330
3.16 3.160270 2.90 75.30 105.0
3.15 3.150340 2.90 75.40 127.777780
3.14 3.141310 2.90 73.40 150.555560
3.13 3.130470 2.90 71.40 173.333330
3.12 3.120540 2.90 69.40 160.0
3.11 3.115580 2.933330 71.666670 146.666670
3.10 3.110610 2.966670 73.933330 133.333330
3.09 3.099770 3.0 76.20 134.444440
3.08 3.089840 2.90 75.70 135.555560
3.07 3.079910 2.80 75.20 136.666670
3.06 3.069070 2.70 74.70 136.666670
3.05 3.059140 2.733330 72.966670 136.666670
3.04 3.049210 2.766670 71.233330 136.666670
3.03 3.038370 2.80 69.50 141.111110
3.02 3.028440 2.80 70.483330 145.555560
3.01 3.018510 2.80 71.466670 150.0
3.00 3.007670 2.80 72.450 146.666670
2.99 2.997740 2.80 73.433330 143.333330
2.98 2.987810 2.80 74.416670 140.0
2.97 2.976980 2.80 75.40 136.666670
2.96 2.967040 2.80 74.033330 133.333330
2.95 2.957110 2.80 72.666670 130.0
2.94 2.946280 2.80 71.30 134.444440
2.93 2.936340 2.80 71.733330 138.888890
2.92 2.926410 2.80 72.166670 143.333330
2.91 2.915580 2.80 72.60 155.555560
2.90 2.904740 2.766670 72.366670 167.777780
2.89 2.895710 2.733330 72.133330 180.0
2.88 2.883970 2.70 71.90 163.333330
2.87 2.874040 2.733330 72.666670 146.666670
2.86 2.864110 2.766670 73.433330 130.0
2.85 2.853270 2.80 74.20 135.555560
2.84 2.843340 2.766670 73.166670 141.111110
2.83 2.833410 2.733330 72.133330 146.666670
2.82 2.822570 2.70 71.10 158.888890
2.81 2.811740 2.633330 74.233330 171.111110
2.80 2.801810 2.566670 77.366670 183.333330
2.79 2.790970 2.50 80.50 171.111110
2.78 2.781040 2.5250 77.40 158.888890
2.77 2.771110 2.550 74.30 146.666670
2.76 2.760270 2.5750 71.20 145.0
2.75 2.750340 2.60 68.10 143.333330
2.74 2.745370 2.666670 68.60 141.666670
2.73 2.740410 2.733330 69.10 140.0
2.72 2.729570 2.80 69.60 144.444440
2.71 2.718740 2.70 70.833330 148.888890
2.70 2.70880 2.60 72.066670 153.333330
2.69 2.697970 2.50 73.30 138.888890
2.68 2.688040 2.466670 72.166670 124.444440
2.67 2.67810 2.433330 71.033330 110.0
2.66 2.667270 2.40 69.90 120.0
2.65 2.657340 2.466670 70.533330 130.0
2.64 2.64740 2.533330 71.166670 140.0
2.63 2.635670 2.60 71.80 147.777780
2.62 2.625730 2.566670 72.40 155.555560
2.61 2.61580 2.533330 73.0 163.333330
2.60 2.604970 2.50 73.60 155.555560
2.59 2.594130 2.50 73.766670 147.777780
2.58 2.58420 2.50 73.933330 140.0
2.57 2.573360 2.50 74.10 143.333330
2.56 2.563430 2.50 73.066670 146.666670
2.55 2.55350 2.50 72.033330 150.0
2.54 2.542660 2.50 71.0 162.222220
2.53 2.531830 2.50 70.633330 174.444440
2.52 2.52190 2.50 70.266670 186.666670
2.51 2.511060 2.50 69.90 166.666670
2.50 2.501130 2.50 71.866670 146.666670
2.49 2.49120 2.50 73.833330 126.666670
2.48 2.480360 2.50 75.80 112.222220
2.47 2.470430 2.50 72.866670 97.777780
2.46 2.465460 2.50 69.933330 83.333330
2.45 2.46050 2.50 67.0 116.666670
2.44 2.449660 2.450 69.5250 150.0
2.43 2.439730 2.40 72.050 183.333330
2.42 2.42980 2.350 74.5750 160.0
2.41 2.418960 2.30 77.10 136.666670
2.40 2.409030 2.333330 73.80 113.333330
2.39 2.39910 2.366670 70.50 136.161620
2.38 2.388260 2.40 67.20 158.98990
2.37 2.377430 2.40 68.366670 181.818180
2.36 2.367490 2.40 69.533330 166.826160
2.35 2.356660 2.40 70.70 151.834130
2.34 2.346730 2.40 70.666670 136.842110
2.33 2.336790 2.40 70.633330 146.783630
2.32 2.325960 2.40 70.60 156.725150
