~VERSION INFORMATION SECTION
VERS. 2.0 : CWLS LAS-VERSION 2.0
WRAP. NO : One line per depth step
~WELL INFORMATION SECTION
# MNEM.UNIT VALUE/NAME DESCRIPTION
#-------- -------------- ---------------------
STRT.Metres 16 : Start
STOP.Metres 0.05 : Stop
STEP.Metres -0.01 : Step
NULL.  -999.25 :NULL VALUE
DATE. 2025-37-11 : DATE
~CURVE INFORMATION SECTION
DEPTH.Metres : 0 Depth
Depth. : 1 Depth
Incline.Deg : 2 Incline
Azimuth.Deg : 3 Azimuth
GR.CPS : 4 GR
~PARAMETER INFORMATION SECTION
~OTHER
#-------------------------------------------------
#Produced By: GeoVista Logger - Version 7.1.107.0
Natural Gamma Sonde - 6447
Verticality Sonde - 6292
#-------------------------------------------------
~ASCII LOG DATA
# ...
7.63 7.633410 3.5750 87.2250 210.0
7.62 7.623480 3.60 86.90 201.111110
7.61 7.612640 3.60 86.966670 192.222220
7.60 7.601810 3.60 87.033330 183.333330
7.59 7.590970 3.60 87.10 185.714290
7.58 7.581040 3.60 87.633330 188.095240
7.57 7.575620 3.60 88.166670 190.476190
7.56 7.57020 3.60 88.70 204.76190
7.55 7.559370 3.60 88.433330 219.047620
7.54 7.548530 3.60 88.166670 233.333330
7.53 7.53860 3.60 87.90 213.333330
7.52 7.527770 3.5750 88.0250 193.333330
7.51 7.516930 3.550 88.150 173.333330
7.50 7.506090 3.5250 88.2750 176.666670
7.49 7.496160 3.50 88.40 180.0
7.48 7.485330 3.50 88.433330 183.333330
7.47 7.474490 3.50 88.466670 186.666670
7.46 7.463660 3.50 88.50 177.132620
7.45 7.453720 3.50 88.20 167.598570
7.44 7.442890 3.50 87.90 158.064520
7.43 7.432050 3.50 87.60 172.043010
7.42 7.421220 3.50 87.30 186.021510
7.41 7.41580 3.50 87.566670 200.0
7.40 7.410380 3.50 87.833330 195.555560
7.39 7.399550 3.50 88.10 191.111110
7.38 7.388710 3.466670 88.10 186.666670
7.37 7.377880 3.433330 88.10 179.166670
7.36 7.367950 3.40 88.10 171.666670
7.35 7.357110 3.433330 88.0 164.166670
7.34 7.346280 3.466670 87.90 156.666670
7.33 7.335440 3.50 87.80 155.555560
7.32 7.32460 3.50 87.80 154.444440
7.31 7.313770 3.50 87.80 153.333330
7.30 7.303840 3.50 87.80 164.444440
7.29 7.2930 3.50 87.9250 175.555560
7.28 7.282170 3.50 88.050 186.666670
7.27 7.271330 3.50 88.1750 181.111110
7.26 7.265910 3.50 88.30 175.555560
7.25 7.26050 3.50 88.333330 170.0
7.24 7.249660 3.50 88.366670 158.888890
7.23 7.238830 3.50 88.40 147.777780
7.22 7.227990 3.50 87.933330 136.666670
7.21 7.218060 3.50 87.466670 171.666670
7.20 7.207220 3.50 87.0 206.666670
7.19 7.196390 3.50 87.133330 241.666670
7.18 7.185550 3.50 87.266670 276.666670
7.17 7.174720 3.50 87.40 266.666670
7.16 7.163880 3.466670 87.633330 256.666670
7.15 7.153050 3.433330 87.866670 246.666670
7.14 7.142210 3.40 88.10 230.0
7.13 7.131380 3.40 88.7750 213.333330
7.12 7.125960 3.40 89.450 196.666670
7.11 7.120540 3.40 90.1250 183.333330
7.10 7.109710 3.40 90.80 170.0
7.09 7.098870 3.40 90.250 156.666670
7.08 7.088040 3.40 89.70 170.0
7.07 7.07720 3.40 89.150 183.333330
7.06 7.066370 3.40 88.60 196.666670
7.05 7.055530 3.40 88.050 194.166670
7.04 7.04560 3.40 87.50 191.666670
7.03 7.034760 3.40 87.533330 189.166670
7.02 7.023930 3.40 87.566670 186.666670
7.01 7.013090 3.40 87.60 187.777780
7.00 7.002260 3.366670 88.366670 188.888890
6.99 6.992330 3.333330 89.133330 190.0
6.98 6.981490 3.30 89.90 178.888890
6.97 6.976070 3.30 89.414290 167.777780
6.96 6.970650 3.30 88.928570 156.666670
6.95 6.959820 3.30 88.442860 161.111110
6.94 6.948980 3.30 87.957140 165.555560
6.93 6.938150 3.30 87.471430 170.0
6.92 6.928220 3.30 86.985710 164.166670
6.91 6.917380 3.30 86.50 158.333330
6.90 6.906550 3.266670 88.133330 152.50
6.89 6.895710 3.233330 89.766670 146.666670
6.88 6.885780 3.20 91.40 157.50
6.87 6.874940 3.20 90.933330 168.333330
6.86 6.864110 3.20 90.466670 179.166670
6.85 6.853270 3.20 90.0 190.0
6.84 6.843340 3.1750 89.6250 188.1250
6.83 6.832510 3.150 89.250 186.250
6.82 6.821670 3.1250 88.8750 184.3750
6.81 6.810840 3.10 88.50 188.472220
6.80 6.80090 3.133330 88.40 192.569440
6.79 6.795490 3.166670 88.30 196.666670
6.78 6.790070 3.20 88.20 203.333330
6.77 6.779230 3.20 88.366670 210.0
6.76 6.76930 3.20 88.533330 216.666670
6.75 6.758470 3.20 88.70 196.666670
6.74 6.747630 3.20 88.866670 176.666670
6.73 6.73770 3.20 89.033330 156.666670
6.72 6.726860 3.20 89.20 155.555560
6.71 6.716030 3.166670 88.666670 154.444440
6.70 6.705190 3.133330 88.133330 153.333330
6.69 6.695260 3.10 87.60 158.333330
6.68 6.684420 3.10 87.250 163.333330
6.67 6.673590 3.10 86.90 168.333330
6.66 6.662750 3.10 86.550 173.333330
6.65 6.652820 3.10 86.20 172.222220
6.64 6.641990 3.10 85.866670 171.111110
6.63 6.631150 3.10 85.533330 170.0
6.62 6.625730 3.10 85.20 182.222220
6.61 6.620320 3.066670 85.866670 194.444440
6.60 6.609480 3.033330 86.533330 206.666670
6.59 6.599550 3.0 87.20 187.777780
6.58 6.588710 3.0 87.30 168.888890
6.57 6.577880 3.0 87.40 150.0
6.56 6.567040 3.0 87.50 167.777780
6.55 6.557110 3.0 87.333330 185.555560
6.54 6.546280 3.0 87.166670 203.333330
6.53 6.535440 3.0 87.0 202.50
6.52 6.52460 3.0 86.728570 201.666670
6.51 6.514670 3.0 86.457140 200.833330
6.50 6.503840 3.0 86.185710 200.0
6.49 6.4930 3.0 85.914290 208.888890
6.48 6.482170 3.0 85.642860 217.777780
6.47 6.471330 3.0 85.371430 226.666670
6.46 6.465910 3.0 85.10 217.777780
6.45 6.46050 2.966670 86.433330 208.888890
6.44 6.449660 2.933330 87.766670 200.0
6.43 6.438830 2.90 89.10 184.210530
6.42 6.428890 2.933330 87.166670 168.421050
6.41 6.418060 2.966670 85.233330 152.631580
6.40 6.407220 3.0 83.30 161.969440
6.39 6.396390 2.966670 84.366670 171.30730
6.38 6.385550 2.933330 85.433330 180.645160
6.37 6.374720 2.90 86.50 182.983870
6.36 6.364790 2.933330 86.30 185.322580
6.35 6.353950 2.966670 86.10 187.661290
6.34 6.343120 3.0 85.90 190.0
6.33 6.332280 3.0 85.3750 196.666670
6.32 6.321440 3.0 84.850 203.333330
6.31 6.316030 3.0 84.3250 210.0
6.30 6.310610 3.0 83.80 218.333330
6.29 6.299770 3.0 84.60 226.666670
6.28 6.288940 3.0 85.40 235.0
6.27 6.27810 3.0 86.20 215.555560
6.26 6.268170 2.966670 86.133330 196.111110
6.25 6.257340 2.933330 86.066670 176.666670
6.24 6.24650 2.90 86.0 180.0
6.23 6.235670 2.933330 85.40 183.333330
6.22 6.224830 2.966670 84.80 186.666670
6.21 6.2140 3.0 84.20 190.0
6.20 6.203160 3.0 84.166670 166.666670
6.19 6.192330 3.0 84.133330 143.333330
6.18 6.181490 3.0 84.10 120.0
6.17 6.170650 3.0 84.050 150.0
6.16 6.165690 3.0 84.0 180.0
6.15 6.160720 3.0 83.950 210.0
6.14 6.149890 3.0 83.90 200.0
6.13 6.139050 3.0 84.30 190.0
6.12 6.128220 3.0 84.70 180.0
6.11 6.117380 3.0 85.10 187.777780
6.10 6.107450 3.0 84.866670 195.555560
6.09 6.096610 3.0 84.633330 203.333330
6.08 6.085780 3.0 84.40 190.0
6.07 6.075850 2.966670 85.066670 176.666670
6.06 6.065010 2.933330 85.733330 163.333330
6.05 6.054180 2.90 86.40 150.0
6.04 6.043340 2.933330 85.266670 164.444440
6.03 6.032510 2.966670 84.133330 178.888890
6.02 6.022570 3.0 83.0 193.333330
6.01 6.011740 2.9750 84.0250 195.555560
6.00 6.00090 2.950 85.050 197.777780
5.99 5.995490 2.9250 86.0750 200.0
5.98 5.990070 2.90 87.10 204.444440
5.97 5.979230 2.90 85.433330 208.888890
5.96 5.96840 2.90 83.766670 213.333330
5.95 5.958470 2.90 82.10 207.777780
5.94 5.947630 2.933330 81.933330 202.222220
5.93 5.936790 2.966670 81.766670 196.666670
5.92 5.925960 3.0 81.60 189.166670
5.91 5.916030 3.066670 83.533330 181.666670
5.90 5.905190 3.133330 85.466670 174.166670
5.89 5.894360 3.20 87.40 166.666670
5.88 5.883520 3.133330 84.30 183.838380
5.87 5.873590 3.066670 81.20 201.01010
5.86 5.862750 3.0 78.10 218.181820
5.85 5.851920 3.0 79.950 206.858050
5.84 5.841080 3.0 81.80 195.534290
5.83 5.830250 3.0 83.650 184.210530
5.82 5.825280 3.0 85.50 180.58480
5.81 5.820320 2.966670 86.466670 176.959060
5.80 5.809480 2.933330 87.433330 173.333330
5.79 5.798650 2.90 88.40 168.243730
5.78 5.787810 2.90 86.733330 163.154120
5.77 5.776980 2.90 85.066670 158.064520
5.76 5.767040 2.90 83.40 167.598570
5.75 5.756210 2.933330 82.966670 177.132620
5.74 5.745370 2.966670 82.533330 186.666670
5.73 5.735440 3.0 82.10 187.50
5.72 5.72460 3.0 82.733330 188.333330
5.71 5.714670 3.0 83.366670 189.166670
5.70 5.703840 3.0 84.0 190.0
5.69 5.693910 2.9750 83.6750 175.555560
5.68 5.683070 2.950 83.350 161.111110
5.67 5.673140 2.9250 83.0250 146.666670
5.66 5.66230 2.90 82.70 145.555560
5.65 5.652370 2.933330 82.933330 144.444440
5.64 5.641530 2.966670 83.166670 143.333330
5.63 5.63160 3.0 83.40 142.222220
5.62 5.626190 3.0 83.833330 141.111110
5.61 5.620770 3.0 84.266670 140.0
5.60 5.609930 3.0 84.70 157.777780
5.59 5.59910 3.0 83.866670 175.555560
5.58 5.588260 3.0 83.033330 193.333330
5.57 5.577430 3.0 82.20 181.666670
5.56 5.567490 3.0 82.30 170.0
5.55 5.556660 3.0 82.40 158.333330
5.54 5.545820 3.0 82.50 146.666670
5.53 5.534990 3.0 83.30 155.555560
5.52 5.524150 3.0 84.10 164.444440
5.51 5.513320 3.0 84.90 173.333330
5.50 5.503390 3.0 85.70 165.555560
