~VERSION INFORMATION SECTION
VERS. 2.0 : CWLS LAS-VERSION 2.0
WRAP. NO : One line per depth step
~WELL INFORMATION SECTION
# MNEM.UNIT VALUE/NAME DESCRIPTION
#-------- -------------- ---------------------
STRT.Metres 16 : Start
STOP.Metres 0.05 : Stop
STEP.Metres -0.01 : Step
NULL.  -999.25 :NULL VALUE
DATE. 2025-37-11 : DATE
~CURVE INFORMATION SECTION
DEPTH.Metres : 0 Depth
Depth. : 1 Depth
Incline.Deg : 2 Incline
Azimuth.Deg : 3 Azimuth
GR.CPS : 4 GR
~PARAMETER INFORMATION SECTION
~OTHER
#-------------------------------------------------
#Produced By: GeoVista Logger - Version 7.1.107.0
Natural Gamma Sonde - 6447
Verticality Sonde - 6292
#-------------------------------------------------
~ASCII LOG DATA
# ...
3.36 3.366140 2.70 75.785710 106.666670
3.35 3.356210 2.70 75.871430 113.333330
3.34 3.345370 2.70 75.957140 120.0
3.33 3.335440 2.70 76.042860 150.0
3.32 3.32460 2.70 76.128570 180.0
3.31 3.313770 2.70 76.214290 210.0
3.30 3.303840 2.70 76.30 196.666670
3.29 3.2930 2.666670 77.166670 183.333330
3.28 3.282170 2.633330 78.033330 170.0
3.27 3.272230 2.60 78.90 165.555560
3.26 3.26140 2.633330 78.80 161.111110
3.25 3.255980 2.666670 78.70 156.666670
3.24 3.250560 2.70 78.60 153.333330
3.23 3.239730 2.70 77.950 150.0
3.22 3.22980 2.70 77.30 146.666670
3.21 3.218960 2.70 76.650 145.0
3.20 3.208130 2.70 76.0 143.333330
3.19 3.197290 2.70 75.350 141.666670
3.18 3.187360 2.70 74.70 140.0
3.17 3.176520 2.650 76.0 126.666670
3.16 3.165690 2.60 77.30 113.333330
3.15 3.155760 2.550 78.60 100.0
3.14 3.144920 2.50 79.90 117.543860
3.13 3.134090 2.533330 78.633330 135.087720
3.12 3.124150 2.566670 77.366670 152.631580
3.11 3.113320 2.60 76.10 152.86550
3.10 3.102480 2.633330 74.833330 153.099420
3.09 3.092550 2.666670 73.566670 153.333330
3.08 3.081720 2.70 72.30 163.333330
3.07 3.070880 2.733330 73.466670 173.333330
3.06 3.060950 2.766670 74.633330 183.333330
3.05 3.055530 2.80 75.80 182.222220
3.04 3.050110 2.733330 76.333330 181.111110
3.03 3.039280 2.666670 76.866670 180.0
3.02 3.028440 2.60 77.40 183.333330
3.01 3.018510 2.566670 76.233330 186.666670
3.00 3.007670 2.533330 75.066670 190.0
2.99 2.996840 2.50 73.90 193.333330
2.98 2.9860 2.533330 74.0 173.333330
2.97 2.976070 2.566670 74.10 153.333330
2.96 2.965240 2.60 74.20 133.333330
2.95 2.95440 2.60 74.750 143.333330
2.94 2.943570 2.60 75.30 153.333330
2.93 2.933630 2.60 75.850 163.333330
2.92 2.92280 2.60 76.40 175.555560
2.91 2.911960 2.533330 76.766670 187.777780
2.90 2.901130 2.466670 77.133330 200.0
2.89 2.895710 2.40 77.50 198.333330
2.88 2.890290 2.40 76.666670 196.666670
2.87 2.879460 2.40 75.833330 195.0
2.86 2.869530 2.40 75.0 193.333330
2.85 2.858690 2.40 74.30 184.444440
2.84 2.847860 2.40 73.60 175.555560
2.83 2.837020 2.40 72.90 166.666670
2.82 2.826190 2.366670 74.366670 181.111110
2.81 2.815350 2.333330 75.833330 195.555560
2.80 2.805420 2.30 77.30 210.0
2.79 2.794580 2.333330 76.10 199.139780
2.78 2.783750 2.366670 74.90 188.279570
2.77 2.772910 2.40 73.70 177.419350
2.76 2.762080 2.3750 73.6250 164.946240
2.75 2.751240 2.350 73.550 152.473120
2.74 2.741310 2.3250 73.4750 140.0
2.73 2.735890 2.30 73.40 147.50
2.72 2.730470 2.30 74.933330 155.0
2.71 2.719640 2.30 76.466670 162.50
2.70 2.70880 2.30 78.0 170.0
2.69 2.697970 2.30 76.80 166.666670
2.68 2.687130 2.30 75.60 163.333330
2.67 2.67630 2.30 74.40 160.0
2.66 2.665460 2.333330 74.0 154.444440
2.65 2.654630 2.366670 73.60 148.888890
2.64 2.643790 2.40 73.20 143.333330
2.63 2.632960 2.40 72.50 137.777780
2.62 2.623020 2.40 71.80 132.222220
2.61 2.612190 2.40 71.10 126.666670
2.60 2.601350 2.3750 72.0250 135.909090
2.59 2.595940 2.350 72.950 145.151520
2.58 2.590520 2.3250 73.8750 154.393940
2.57 2.579680 2.30 74.80 163.636360
2.56 2.568850 2.30 74.550 178.787880
2.55 2.558010 2.30 74.30 193.939390
2.54 2.548080 2.30 74.050 209.090910
2.53 2.537250 2.30 73.80 197.288680
2.52 2.526410 2.30 73.550 185.486440
2.51 2.515580 2.30 73.30 173.684210
2.50 2.504740 2.30 72.20 182.456140
2.49 2.494810 2.30 71.10 191.228070
2.48 2.483970 2.30 70.0 200.0
2.47 2.473140 2.30 70.133330 200.0
2.46 2.46230 2.30 70.266670 200.0
2.45 2.451470 2.30 70.40 200.0
2.44 2.441530 2.30 73.2250 185.555560
2.43 2.436120 2.30 76.050 171.111110
2.42 2.43070 2.30 78.8750 156.666670
2.41 2.419860 2.30 81.70 161.111110
2.40 2.409030 2.30 80.166670 165.555560
2.39 2.398190 2.30 78.633330 170.0
2.38 2.387360 2.30 77.10 160.0
2.37 2.376520 2.333330 76.50 150.0
2.36 2.365690 2.366670 75.90 140.0
2.35 2.354850 2.40 75.30 145.833330
2.34 2.344920 2.366670 76.033330 151.666670
2.33 2.334090 2.333330 76.766670 157.50
2.32 2.323250 2.30 77.50 163.333330
2.31 2.312420 2.3250 76.8750 157.777780
2.30 2.302480 2.350 76.250 152.222220
2.29 2.291650 2.3750 75.6250 146.666670
2.28 2.280810 2.40 75.0 146.666670
2.27 2.270880 2.366670 75.70 146.666670
2.26 2.265460 2.333330 76.40 146.666670
2.25 2.260050 2.30 77.10 138.888890
2.24 2.249210 2.30 75.933330 131.111110
2.23 2.239280 2.30 74.766670 123.333330
2.22 2.228440 2.30 73.60 136.666670
2.21 2.217610 2.266670 76.066670 150.0
2.20 2.206770 2.233330 78.533330 163.333330
2.19 2.195940 2.20 81.0 171.693550
2.18 2.18510 2.20 79.433330 180.053760
2.17 2.174270 2.20 77.866670 188.413980
2.16 2.163430 2.20 76.30 196.774190
2.15 2.15350 2.133330 74.933330 186.738350
2.14 2.142660 2.066670 73.566670 176.702510
2.13 2.131830 2.0 72.20 166.666670
2.12 2.120990 2.0250 74.150 155.555560
2.11 2.115580 2.050 76.10 144.444440
2.10 2.110160 2.0750 78.050 133.333330
2.09 2.099320 2.10 80.0 131.111110
2.08 2.088490 2.133330 77.533330 128.888890
2.07 2.077650 2.166670 75.066670 126.666670
2.06 2.066820 2.20 72.60 124.444440
2.05 2.055980 2.166670 74.166670 122.222220
2.04 2.045150 2.133330 75.733330 120.0
2.03 2.034310 2.10 77.30 136.666670
2.02 2.023480 2.166670 77.50 153.333330
2.01 2.012640 2.233330 77.70 170.0
2.00 2.001810 2.30 77.90 186.666670
1.99 1.990970 2.20 81.10 166.666670
1.98 1.985550 2.10 84.30 146.666670
1.97 1.980140 2.0 87.50 126.666670
1.96 1.96840 2.0250 84.30 127.777780
1.95 1.957560 2.050 81.10 128.888890
1.94 1.946730 2.0750 77.90 130.0
1.93 1.935890 2.10 74.70 150.303030
1.92 1.925060 2.033330 77.366670 170.606060
1.91 1.914220 1.966670 80.033330 190.909090
1.90 1.903390 1.90 82.70 185.167460
1.89 1.892550 1.766670 83.166670 179.425840
1.88 1.881720 1.633330 83.633330 173.684210
1.87 1.870880 1.50 84.10 184.678360
1.86 1.865460 1.666670 80.333330 195.672510
1.85 1.860050 1.833330 76.566670 206.666670
1.84 1.849210 2.0 72.80 194.166670
1.83 1.838370 1.9250 76.90 181.666670
1.82 1.827540 1.850 81.0 169.166670
1.81 1.81670 1.7750 85.10 156.666670
1.80 1.805870 1.70 89.20 156.666670
1.79 1.795030 1.733330 86.566670 156.666670
1.78 1.78330 1.766670 83.933330 156.666670
1.77 1.772460 1.80 81.30 172.222220
1.76 1.761630 1.766670 81.466670 187.777780
1.75 1.756210 1.733330 81.633330 203.333330
1.74 1.750790 1.70 81.80 197.777780
1.73 1.739950 1.733330 81.566670 192.222220
1.72 1.729120 1.766670 81.333330 186.666670
1.71 1.718280 1.80 81.10 186.666670
1.70 1.707450 1.80 80.950 186.666670
1.69 1.696610 1.80 80.80 186.666670
1.68 1.684880 1.80 80.650 186.666670
1.67 1.674040 1.80 80.50 182.222220
1.66 1.663210 1.80 81.633330 177.777780
1.65 1.652370 1.80 82.766670 173.333330
1.64 1.641530 1.80 83.90 164.444440
1.63 1.636120 1.80 83.433330 155.555560
1.62 1.63070 1.80 82.966670 146.666670
1.61 1.619860 1.80 82.50 157.777780
1.60 1.609030 1.80 82.70 168.888890
1.59 1.598190 1.80 82.90 180.0
1.58 1.587360 1.80 83.10 190.967740
1.57 1.577430 1.7750 83.3750 201.935480
1.56 1.566590 1.750 83.650 212.903230
1.55 1.556660 1.7250 83.9250 204.677420
1.54 1.546730 1.70 84.20 196.451610
1.53 1.536790 1.733330 82.566670 188.225810
1.52 1.526860 1.766670 80.933330 180.0
1.51 1.516930 1.80 79.30 170.0
1.50 1.50790 1.80 81.20 160.0
1.49 1.498870 1.80 83.10 150.0
1.48 1.488940 1.80 85.0 170.0
1.47 1.47540 1.80 84.30 190.0
1.46 1.461850 1.80 83.60 210.0
1.45 1.451920 1.80 82.90 203.333330
1.44 1.442890 1.7750 83.3250 196.666670
1.43 1.433860 1.750 83.750 190.0
1.42 1.424830 1.7250 84.1750 163.333330
1.41 1.41580 1.70 84.60 136.666670
1.40 1.406770 1.733330 83.833330 110.0
1.39 1.397740 1.766670 83.066670 127.50
1.38 1.388710 1.80 82.30 145.0
1.37 1.375170 1.80 83.30 162.50
1.36 1.361630 1.80 84.30 180.0
1.35 1.35260 1.80 85.30 171.111110
1.34 1.343570 1.80 85.4250 162.222220
1.33 1.334540 1.80 85.550 153.333330
1.32 1.32460 1.80 85.6750 157.777780
1.31 1.315580 1.80 85.80 162.222220
1.30 1.306550 1.733330 87.466670 166.666670
1.29 1.297520 1.666670 89.133330 157.777780
1.28 1.288490 1.60 90.80 148.888890
1.27 1.278560 1.633330 91.566670 140.0
1.26 1.265010 1.666670 92.333330 143.333330
1.25 1.251470 1.70 93.10 146.666670
1.24 1.242440 1.733330 91.366670 150.0
1.23 1.233410 1.766670 89.633330 148.333330
