~VERSION INFORMATION SECTION
VERS. 2.0 : CWLS LAS-VERSION 2.0
WRAP. NO : One line per depth step
~WELL INFORMATION SECTION
# MNEM.UNIT VALUE/NAME DESCRIPTION
#-------- -------------- ---------------------
STRT.Metres 16 : Start
STOP.Metres 0.05 : Stop
STEP.Metres -0.01 : Step
NULL.  -999.25 :NULL VALUE
DATE. 2025-37-11 : DATE
~CURVE INFORMATION SECTION
DEPTH.Metres : 0 Depth
Depth. : 1 Depth
Incline.Deg : 2 Incline
Azimuth.Deg : 3 Azimuth
GR.CPS : 4 GR
~PARAMETER INFORMATION SECTION
~OTHER
#-------------------------------------------------
#Produced By: GeoVista Logger - Version 7.1.107.0
Natural Gamma Sonde - 6447
Verticality Sonde - 6292
#-------------------------------------------------
~ASCII LOG DATA
16.00 -999.25 -999.25 -999.25 -999.25
15.99 15.998190 -999.25 -999.25 -999.25
15.98 15.987360 1.733330 28.40 -999.25
15.97 15.975620 3.466670 56.80 -999.25
15.96 15.963880 5.20 85.20 -999.25
15.95 15.952140 5.20 85.3250 -999.25
15.94 15.946730 5.20 85.450 -999.25
15.93 15.941310 5.20 85.5750 -999.25
15.92 15.929570 5.20 85.70 -999.25
15.91 15.917830 5.166670 85.90 -999.25
15.90 15.906090 5.133330 86.10 -999.25
15.89 15.894360 5.10 86.30 -999.25
15.88 15.883520 5.10 86.366670 158.702260
15.87 15.871780 5.10 86.433330 180.0
15.86 15.865910 5.10 86.50 178.333330
15.85 15.860050 5.10 86.266670 176.666670
15.84 15.849210 5.10 86.033330 136.666670
15.83 15.837470 5.10 85.80 153.333330
15.82 15.825730 5.10 85.750 170.0
15.81 15.8140 5.10 85.70 166.666670
15.80 15.802260 5.10 85.650 163.333330
15.79 15.796390 5.10 85.60 156.666670
15.78 15.790520 5.10 85.60 150.0
15.77 15.778780 5.10 85.60 156.666670
15.76 15.767040 5.10 85.60 163.333330
15.75 15.75530 5.10 86.066670 170.0
15.74 15.743570 5.10 86.533330 176.666670
15.73 15.731830 5.10 87.0 168.888890
15.72 15.725960 5.0750 86.8250 161.111110
15.71 15.720090 5.050 86.650 153.333330
15.70 15.708350 5.0250 86.4750 156.666670
15.69 15.696610 5.0 86.30 160.0
15.68 15.684880 5.0 85.666670 160.0
15.67 15.673140 5.0 85.033330 160.0
15.66 15.66140 5.0 84.40 160.0
15.65 15.655980 5.0 85.4750 160.0
15.64 15.650560 5.0 86.550 160.0
15.63 15.639730 5.0 87.6250 156.666670
15.62 15.628890 5.0 88.70 153.333330
15.61 15.618060 4.966670 88.80 150.0
15.60 15.606320 4.933330 88.90 135.555560
15.59 15.595490 4.90 89.0 121.111110
15.58 15.583750 4.90 88.2250 106.666670
15.57 15.572910 4.90 87.450 104.444440
15.56 15.561170 4.90 86.6750 102.222220
15.55 15.555760 4.90 85.90 100.0
15.54 15.550340 4.90 86.566670 122.222220
15.53 15.53860 4.90 87.233330 144.444440
15.52 15.526860 4.90 87.90 166.666670
15.51 15.516030 4.8750 87.7250 166.666670
15.50 15.504290 4.850 87.550 166.666670
15.49 15.492550 4.8250 87.3750 166.666670
15.48 15.486680 4.80 87.20 155.0
15.47 15.480810 4.80 86.833330 143.333330
15.46 15.469980 4.80 86.466670 131.666670
15.45 15.458240 4.80 86.10 120.0
15.44 15.44740 4.80 85.90 140.215050
15.43 15.436570 4.80 85.70 160.430110
15.42 15.424830 4.80 85.50 180.645160
15.41 15.413090 4.80 85.30 172.652330
15.40 15.402260 4.80 85.933330 164.65950
15.39 15.396390 4.80 86.566670 156.666670
15.38 15.390520 4.80 87.20 156.666670
15.37 15.378780 4.80 86.6750 156.666670
15.36 15.367950 4.80 86.150 156.666670
15.35 15.356210 4.80 85.6250 145.0
15.34 15.345370 4.80 85.10 133.333330
15.33 15.333630 4.80 84.766670 121.666670
15.32 15.32190 4.80 84.433330 110.0
15.31 15.316480 4.80 84.10 122.222220
15.30 15.311060 4.80 85.266670 134.444440
15.29 15.299320 4.80 86.433330 146.666670
15.28 15.287580 4.80 87.60 144.444440
15.27 15.276750 4.80 87.3250 142.222220
15.26 15.265010 4.80 87.050 140.0
15.25 15.253270 4.80 86.7750 128.888890
15.24 15.242440 4.80 86.50 117.777780
15.23 15.236570 4.80 86.566670 106.666670
15.22 15.23070 4.80 86.633330 115.0
15.21 15.218960 4.80 86.70 123.333330
15.20 15.207220 4.70 86.133330 131.666670
15.19 15.195490 4.60 85.566670 140.0
15.18 15.183750 4.50 85.0 150.0
15.17 15.172010 4.550 86.1750 160.0
15.16 15.166140 4.60 87.350 170.0
15.15 15.160270 4.650 88.5250 161.666670
15.14 15.148530 4.70 89.70 153.333330
15.13 15.13770 4.70 89.10 145.0
15.12 15.125960 4.70 88.50 136.666670
15.11 15.114220 4.70 87.90 142.222220
15.10 15.102480 4.5750 88.0 147.777780
15.09 15.096610 4.450 88.10 153.333330
15.08 15.090740 4.3250 88.20 157.777780
15.07 15.079010 4.20 88.30 162.222220
15.06 15.068170 4.266670 87.366670 166.666670
15.05 15.056430 4.333330 86.433330 152.50
15.04 15.04560 4.40 85.50 138.333330
15.03 15.033860 4.4250 87.40 124.166670
15.02 15.023020 4.450 89.30 110.0
15.01 15.012190 4.4750 91.20 118.888890
15.00 15.006770 4.50 93.10 127.777780
14.99 15.001350 4.466670 92.30 136.666670
14.98 14.989620 4.433330 91.50 140.833330
14.97 14.978780 4.40 90.70 145.0
14.96 14.967950 4.466670 89.933330 149.166670
14.95 14.957110 4.533330 89.166670 153.333330
14.94 14.946280 4.60 88.40 136.666670
14.93 14.934540 4.5250 88.750 120.0
14.92 14.92370 4.450 89.10 103.333330
14.91 14.912870 4.3750 89.450 108.333330
14.90 14.902030 4.30 89.80 113.333330
14.89 14.89120 4.366670 89.233330 118.333330
14.88 14.885780 4.433330 88.666670 123.333330
14.87 14.880360 4.50 88.10 136.666670
14.86 14.869530 4.50 88.6250 150.0
14.85 14.858690 4.50 89.150 163.333330
14.84 14.847860 4.50 89.6750 150.0
14.83 14.837020 4.50 90.20 136.666670
14.82 14.826190 4.466670 88.666670 123.333330
14.81 14.815350 4.433330 87.133330 110.0
14.80 14.804510 4.40 85.60 130.322580
14.79 14.793680 4.4250 86.1250 150.645160
14.78 14.782840 4.450 86.650 170.967740
14.77 14.772010 4.4750 87.1750 159.059140
14.76 14.761170 4.50 87.70 147.150540
14.75 14.755760 4.50 87.70 135.241940
14.74 14.750340 4.50 87.70 123.333330
14.73 14.73950 4.50 87.70 121.111110
14.72 14.728670 4.485710 87.757140 118.888890
14.71 14.717830 4.471430 87.814290 116.666670
14.70 14.7070 4.457140 87.871430 117.777780
14.69 14.696160 4.442860 87.928570 118.888890
14.68 14.685330 4.428570 87.985710 120.0
14.67 14.674490 4.414290 88.042860 135.833330
14.66 14.663660 4.40 88.10 151.666670
14.65 14.651920 4.366670 87.533330 167.50
14.64 14.64650 4.333330 86.966670 183.333330
14.63 14.641080 4.30 86.40 193.333330
14.62 14.629350 4.333330 86.70 203.333330
14.61 14.617610 4.366670 87.0 213.333330
14.60 14.606770 4.40 87.30 210.0
14.59 14.595030 4.40 87.150 206.666670
14.58 14.58420 4.40 87.0 203.333330
14.57 14.573360 4.40 86.850 200.0
14.56 14.562530 4.40 86.70 202.222220
14.55 14.556660 4.366670 86.833330 204.444440
14.54 14.550790 4.333330 86.966670 206.666670
14.53 14.539950 4.30 87.10 215.833330
14.52 14.529120 4.30 87.033330 225.0
14.51 14.518280 4.30 86.966670 234.166670
14.50 14.507450 4.30 86.90 243.333330
14.49 14.496610 4.366670 86.60 251.111110
14.48 14.485780 4.433330 86.30 258.888890
14.47 14.474940 4.50 86.0 266.666670
14.46 14.463210 4.4750 85.5250 252.222220
14.45 14.452370 4.450 85.050 237.777780
14.44 14.441530 4.4250 84.5750 223.333330
14.43 14.436120 4.40 84.10 205.0
14.42 14.43070 4.466670 85.70 186.666670
14.41 14.419860 4.533330 87.30 168.333330
14.40 14.409030 4.60 88.90 150.0
14.39 14.398190 4.533330 88.90 140.0
14.38 14.386460 4.466670 88.90 130.0
14.37 14.375620 4.40 88.90 120.0
14.36 14.364790 4.4250 87.7750 117.50
14.35 14.353950 4.450 86.650 115.0
14.34 14.343120 4.4750 85.5250 112.50
14.33 14.332280 4.50 84.40 110.0
14.32 14.321440 4.50 85.70 106.666670
14.31 14.316030 4.50 87.0 103.333330
14.30 14.310610 4.50 88.30 100.0
14.29 14.299770 4.50 88.333330 107.50
14.28 14.288040 4.50 88.366670 115.0
14.27 14.27720 4.50 88.40 122.50
14.26 14.266370 4.4750 88.20 130.0
14.25 14.255530 4.450 88.0 133.333330
14.24 14.24470 4.4250 87.80 136.666670
14.23 14.233860 4.40 87.60 140.0
14.22 14.223020 4.40 87.333330 135.833330
14.21 14.212190 4.40 87.066670 131.666670
14.20 14.201350 4.40 86.80 127.50
14.19 14.195940 4.433330 87.0 123.333330
14.18 14.190520 4.466670 87.20 134.444440
14.17 14.179680 4.50 87.40 145.555560
14.16 14.168850 4.466670 87.366670 156.666670
14.15 14.158010 4.433330 87.333330 147.45520
14.14 14.147180 4.40 87.30 138.243730
14.13 14.136340 4.40 87.3750 129.032260
14.12 14.125510 4.40 87.450 126.774190
14.11 14.114670 4.40 87.5250 124.516130
14.10 14.103840 4.40 87.60 122.258060
14.09 14.0930 4.366670 87.633330 120.0
14.08 14.082170 4.333330 87.666670 113.333330
14.07 14.071330 4.30 87.70 106.666670
14.06 14.065910 4.333330 88.466670 100.0
14.05 14.06050 4.366670 89.233330 110.0
14.04 14.049660 4.40 90.0 120.0
14.03 14.038830 4.40 89.50 130.0
14.02 14.027990 4.40 89.0 120.0
14.01 14.017160 4.40 88.50 110.0
14.00 14.006320 4.40 88.0 100.0
13.99 13.994580 4.40 88.233330 111.666670
13.98 13.983750 4.40 88.466670 123.333330
13.97 13.972910 4.40 88.70 135.0
13.96 13.962080 4.40 88.666670 146.666670
13.95 13.951240 4.40 88.633330 132.222220
13.94 13.945820 4.40 88.60 117.777780
