~VERSION INFORMATION SECTION
VERS. 2.0 : CWLS LAS-VERSION 2.0
WRAP. NO : One line per depth step
~WELL INFORMATION SECTION
# MNEM.UNIT VALUE/NAME DESCRIPTION
#-------- -------------- ---------------------
STRT.Metres 16 : Start
STOP.Metres 0.05 : Stop
STEP.Metres -0.01 : Step
NULL.  -999.25 :NULL VALUE
DATE. 2025-37-11 : DATE
~CURVE INFORMATION SECTION
DEPTH.Metres : 0 Depth
Depth. : 1 Depth
Incline.Deg : 2 Incline
Azimuth.Deg : 3 Azimuth
GR.CPS : 4 GR
~PARAMETER INFORMATION SECTION
~OTHER
#-------------------------------------------------
#Produced By: GeoVista Logger - Version 7.1.107.0
Natural Gamma Sonde - 6447
Verticality Sonde - 6292
#-------------------------------------------------
~ASCII LOG DATA
# ...
1.22 1.224380 1.80 87.90 146.666670
1.21 1.215350 1.833330 88.30 145.0
1.20 1.206320 1.866670 88.70 143.333330
1.19 1.197290 1.90 89.10 145.555560
1.18 1.188260 1.750 91.0 147.777780
1.17 1.174720 1.60 92.90 150.0
1.16 1.161170 1.60 93.40 165.555560
1.15 1.152140 1.60 93.90 181.111110
1.14 1.144020 1.60 94.40 196.666670
1.13 1.134990 1.60 93.166670 177.777780
1.12 1.125960 1.60 91.933330 158.888890
1.11 1.116930 1.60 90.70 140.0
1.10 1.10790 1.60 90.80 145.833330
1.09 1.098870 1.60 90.90 151.666670
1.08 1.085330 1.60 91.0 157.50
1.07 1.071780 1.580 92.90 163.333330
1.06 1.062750 1.560 94.80 148.888890
1.05 1.053720 1.540 96.70 134.444440
1.04 1.04470 1.520 98.60 120.0
1.03 1.035670 1.50 100.50 127.777780
1.02 1.025730 1.50 99.866670 135.555560
1.01 1.01670 1.50 99.233330 143.333330
1.00 1.007670 1.50 98.60 150.0
0.99 0.998650 1.466670 96.766670 156.666670
0.98 0.98510 1.433330 94.933330 163.333330
0.97 0.971560 1.40 93.10 170.0
0.96 0.962530 1.50 97.550 162.79570
0.95 0.95350 1.60 102.0 155.59140
0.94 0.944470 1.60 99.333330 148.38710
0.93 0.934540 1.60 96.666670 148.924730
0.92 0.925510 1.60 94.0 149.462370
0.91 -999.25 1.633330 99.566670 150.0
0.90 -999.25 1.666670 105.133330 145.555560
0.89 -999.25 1.70 110.70 141.111110
0.88 -999.25 1.550 98.050 136.666670
0.87 -999.25 1.40 85.40 137.50
0.86 -999.25 1.466670 93.0 138.333330
0.85 -999.25 1.533330 100.60 139.166670
0.84 -999.25 1.60 108.20 140.0
0.83 -999.25 1.633330 103.766670 146.666670
0.82 -999.25 1.666670 99.333330 153.333330
0.81 -999.25 1.70 94.90 160.0
0.80 -999.25 1.60 98.30 144.444440
0.79 -999.25 1.50 101.70 128.888890
0.78 -999.25 1.466670 101.033330 113.333330
0.77 -999.25 1.433330 100.366670 120.555560
0.76 -999.25 1.40 99.70 127.777780
0.75 -999.25 1.366670 100.633330 135.0
0.74 -999.25 1.333330 101.566670 118.750
0.73 -999.25 1.30 102.50 102.50
0.72 -999.25 1.366670 104.433330 86.250
0.71 -999.25 1.433330 106.366670 70.0
0.70 -999.25 1.50 108.30 86.666670
0.69 -999.25 1.50 101.950 103.333330
0.68 -999.25 1.50 95.60 120.0
0.67 -999.25 1.466670 101.60 130.0
0.66 -999.25 1.433330 107.60 140.0
0.65 -999.25 1.40 113.60 150.0
0.64 -999.25 1.433330 113.766670 146.666670
0.63 -999.25 1.466670 113.933330 143.333330
0.62 -999.25 1.50 114.10 140.0
0.61 -999.25 -999.25 -999.25 135.0
0.60 -999.25 -999.25 -999.25 130.0
0.59 -999.25 -999.25 -999.25 122.222220
0.58 -999.25 -999.25 -999.25 114.444440
0.57 -999.25 -999.25 -999.25 106.666670
0.56 -999.25 -999.25 -999.25 117.777780
0.55 -999.25 -999.25 -999.25 128.888890
0.54 -999.25 -999.25 -999.25 140.0
0.53 -999.25 -999.25 -999.25 145.555560
0.52 -999.25 -999.25 -999.25 151.111110
0.51 -999.25 -999.25 -999.25 156.666670
0.50 -999.25 -999.25 -999.25 155.0
0.49 -999.25 -999.25 -999.25 153.333330
0.48 -999.25 -999.25 -999.25 153.333330
0.47 -999.25 -999.25 -999.25 153.333330
0.46 -999.25 -999.25 -999.25 153.333330
0.45 -999.25 -999.25 -999.25 162.828280
0.44 -999.25 -999.25 -999.25 172.323230
0.43 -999.25 -999.25 -999.25 181.818180
0.42 -999.25 -999.25 -999.25 166.826160
0.41 -999.25 -999.25 -999.25 151.834130
0.40 -999.25 -999.25 -999.25 136.842110
0.39 -999.25 -999.25 -999.25 128.098470
0.38 -999.25 -999.25 -999.25 119.354840
0.37 -999.25 -999.25 -999.25 116.236560
0.36 -999.25 -999.25 -999.25 113.118280
0.35 -999.25 -999.25 -999.25 110.0
0.34 -999.25 -999.25 -999.25 136.666670
0.33 -999.25 -999.25 -999.25 163.333330
0.32 -999.25 -999.25 -999.25 190.0
0.31 -999.25 -999.25 -999.25 166.666670
0.30 -999.25 -999.25 -999.25 143.333330
0.29 -999.25 -999.25 -999.25 132.222220
0.28 -999.25 -999.25 -999.25 121.111110
0.27 -999.25 -999.25 -999.25 110.0
0.26 -999.25 -999.25 -999.25 112.222220
0.25 -999.25 -999.25 -999.25 114.444440
0.24 -999.25 -999.25 -999.25 116.666670
0.23 -999.25 -999.25 -999.25 145.0
0.22 -999.25 -999.25 -999.25 173.333330
0.21 -999.25 -999.25 -999.25 164.444440
0.20 -999.25 -999.25 -999.25 155.555560
0.19 -999.25 -999.25 -999.25 146.666670
0.18 -999.25 -999.25 -999.25 138.888890
0.17 -999.25 -999.25 -999.25 131.111110
0.16 -999.25 -999.25 -999.25 123.333330
0.15 -999.25 -999.25 -999.25 133.333330
0.14 -999.25 -999.25 -999.25 143.333330
0.13 -999.25 -999.25 -999.25 153.333330
0.12 -999.25 -999.25 -999.25 161.666670
0.11 -999.25 -999.25 -999.25 170.0
0.10 -999.25 -999.25 -999.25 166.666670
0.09 -999.25 -999.25 -999.25 163.333330
0.08 -999.25 -999.25 -999.25 160.0
0.07 -999.25 -999.25 -999.25 153.333330
0.06 -999.25 -999.25 -999.25 146.666670
0.05 -999.25 -999.25 -999.25 140.0
