~VERSION INFORMATION SECTION
VERS. 2.0 : CWLS LAS-VERSION 2.0
WRAP. NO : One line per depth step
~WELL INFORMATION SECTION
# MNEM.UNIT VALUE/NAME DESCRIPTION
#-------- -------------- ---------------------
STRT.Metres 16 : Start
STOP.Metres 0.05 : Stop
STEP.Metres -0.01 : Step
NULL.  -999.25 :NULL VALUE
DATE. 2025-37-11 : DATE
~CURVE INFORMATION SECTION
DEPTH.Metres : 0 Depth
Depth. : 1 Depth
Incline.Deg : 2 Incline
Azimuth.Deg : 3 Azimuth
GR.CPS : 4 GR
~PARAMETER INFORMATION SECTION
~OTHER
#-------------------------------------------------
#Produced By: GeoVista Logger - Version 7.1.107.0
Natural Gamma Sonde - 6447
Verticality Sonde - 6292
#-------------------------------------------------
~ASCII LOG DATA
# ...
9.80 9.808580 3.60 87.90 167.777780
9.79 9.797740 3.60 86.433330 158.888890
9.78 9.786910 3.60 84.966670 150.0
9.77 9.776070 3.60 83.50 140.0
9.76 9.765240 3.60 84.60 130.0
9.75 9.75440 3.60 85.70 120.0
9.74 9.744470 3.60 86.80 110.0
9.73 9.733630 3.60 85.40 116.666670
9.72 9.72280 3.60 84.0 123.333330
9.71 9.712870 3.60 82.60 130.0
9.70 9.702030 3.60 83.6250 163.333330
9.69 9.69120 3.60 84.650 196.666670
9.68 9.681260 3.60 85.6750 230.0
9.67 9.675850 3.60 86.70 210.0
9.66 9.670430 3.566670 86.033330 190.0
9.65 9.659590 3.533330 85.366670 170.0
9.64 9.649660 3.50 84.70 173.333330
9.63 9.637920 3.50 84.266670 176.666670
9.62 9.627990 3.50 83.833330 180.0
9.61 9.618060 3.50 83.40 168.484850
9.60 9.606320 3.50 84.133330 156.96970
9.59 9.596390 3.50 84.866670 145.454550
9.58 9.585550 3.50 85.60 140.669860
9.57 9.574720 3.50 85.10 135.885170
9.56 9.563880 3.50 84.60 131.100480
9.55 9.553950 3.50 84.10 126.315790
9.54 9.543120 3.50 83.5750 145.321640
9.53 9.532280 3.50 83.050 164.327490
9.52 9.522350 3.50 82.5250 183.333330
9.51 9.510610 3.50 82.0 186.666670
9.50 9.505640 3.533330 82.766670 190.0
9.49 9.500680 3.566670 83.533330 193.333330
9.48 9.489840 3.60 84.30 180.0
9.47 9.479010 3.566670 84.60 166.666670
9.46 9.469070 3.533330 84.90 153.333330
9.45 9.458240 3.50 85.20 167.777780
9.44 9.44740 3.50 83.80 182.222220
9.43 9.436570 3.50 82.40 196.666670
9.42 9.426640 3.50 81.0 197.50
9.41 9.41490 3.466670 82.966670 198.333330
9.40 9.404970 3.433330 84.933330 199.166670
9.39 9.394130 3.40 86.90 200.0
9.38 9.38330 3.4250 86.4750 193.333330
9.37 9.372460 3.450 86.050 186.666670
9.36 9.362530 3.4750 85.6250 180.0
9.35 9.350790 3.50 85.20 172.222220
9.34 9.340860 3.50 84.433330 164.444440
9.33 9.335440 3.50 83.666670 156.666670
9.32 9.330020 3.50 82.90 160.0
9.31 9.319190 3.466670 83.20 163.333330
9.30 9.308350 3.433330 83.50 166.666670
9.29 9.298420 3.40 83.80 161.111110
9.28 9.286680 3.433330 83.70 155.555560
9.27 9.276750 3.466670 83.60 150.0
9.26 9.265910 3.50 83.50 152.50
9.25 9.255080 3.50 83.70 155.0
9.24 9.244240 3.50 83.90 157.50
9.23 9.233410 3.50 84.10 160.0
9.22 9.222570 3.50 82.70 167.777780
9.21 9.211740 3.50 81.30 175.555560
9.20 9.20090 3.50 79.90 183.333330
9.19 9.195490 3.50 80.3750 186.666670
9.18 9.190070 3.50 80.850 190.0
9.17 9.179230 3.50 81.3250 193.333330
9.16 9.16840 3.50 81.80 204.444440
9.15 9.157560 3.50 82.833330 215.555560
9.14 9.146730 3.50 83.866670 226.666670
9.13 9.136790 3.50 84.90 231.666670
9.12 9.125960 3.50 83.50 236.666670
9.11 9.115120 3.50 82.10 241.666670
9.10 9.104290 3.50 80.70 246.666670
9.09 9.093450 3.50 81.666670 224.444440
9.08 9.082620 3.50 82.633330 202.222220
9.07 9.072690 3.50 83.60 180.0
9.06 9.060950 3.466670 84.40 191.111110
9.05 9.051020 3.433330 85.20 202.222220
9.04 9.04560 3.40 86.0 213.333330
9.03 9.040180 3.4250 83.5250 202.222220
9.02 9.029350 3.450 81.050 191.111110
9.01 9.018510 3.4750 78.5750 180.0
9.00 9.008580 3.50 76.10 194.444440
8.99 8.996840 3.50 77.533330 208.888890
8.98 8.9860 3.50 78.966670 223.333330
8.97 8.976070 3.50 80.40 212.50
8.96 8.964330 3.466670 81.766670 201.666670
8.95 8.95440 3.433330 83.133330 190.833330
8.94 8.943570 3.40 84.50 180.0
8.93 8.932730 3.433330 83.666670 177.777780
8.92 8.92190 3.466670 82.833330 175.555560
8.91 8.911960 3.50 82.0 173.333330
8.90 8.900230 3.50 81.650 156.666670
8.89 8.895260 3.50 81.30 140.0
8.88 8.890290 3.50 80.950 123.333330
8.87 8.879460 3.50 80.60 152.222220
8.86 8.868620 3.50 82.333330 181.111110
8.85 8.857790 3.50 84.066670 210.0
8.84 8.847860 3.50 85.80 200.0
8.83 8.837020 3.50 83.566670 190.0
8.82 8.826190 3.50 81.333330 180.0
8.81 8.816250 3.50 79.10 173.333330
8.80 8.805420 3.50 79.766670 166.666670
8.79 8.794580 3.50 80.433330 160.0
8.78 8.784650 3.50 81.10 166.666670
8.77 8.773810 3.50 82.033330 173.333330
8.76 8.762980 3.50 82.966670 180.0
8.75 8.753050 3.50 83.90 186.666670
8.74 8.741310 3.50 82.850 180.0
8.73 8.731380 3.50 81.80 173.333330
8.72 8.726410 3.50 80.750 166.666670
8.71 8.721440 3.50 79.70 160.0
8.70 8.709710 3.50 81.30 153.333330
8.69 8.699770 3.50 82.90 146.666670
8.68 8.688940 3.50 84.50 170.896060
8.67 8.67810 3.50 83.90 195.125450
8.66 8.667270 3.50 83.30 219.354840
8.65 8.657340 3.50 82.70 192.903230
8.64 8.64650 3.50 82.60 166.451610
8.63 8.635670 3.50 82.50 140.0
8.62 8.625730 3.50 82.40 149.166670
8.61 8.6140 3.4750 82.2750 158.333330
8.60 8.604060 3.450 82.150 167.50
8.59 8.594130 3.4250 82.0250 176.666670
8.58 8.582390 3.40 81.90 191.111110
8.57 8.572460 3.433330 82.666670 205.555560
8.56 8.561630 3.466670 83.433330 220.0
8.55 8.556210 3.50 84.20 210.0
8.54 8.550790 3.466670 83.433330 200.0
8.53 8.542890 3.433330 82.666670 190.0
8.52 8.534990 3.40 81.90 193.333330
8.51 8.519190 3.433330 83.0 196.666670
8.50 8.508350 3.466670 84.10 200.0
8.49 8.498420 3.50 85.20 194.444440
8.48 8.487580 3.50 85.733330 188.888890
8.47 8.476750 3.50 86.266670 183.333330
8.46 8.466820 3.50 86.80 180.833330
8.45 8.455080 3.466670 85.033330 178.333330
8.44 8.444240 3.433330 83.266670 175.833330
8.43 8.434310 3.40 81.50 173.333330
8.42 8.423480 3.40 83.0250 173.333330
8.41 8.412640 3.40 84.550 173.333330
8.40 8.402710 3.40 86.0750 173.333330
8.39 8.390970 3.40 87.60 155.555560
8.38 8.381040 3.40 86.40 137.777780
8.37 8.375620 3.40 85.20 120.0
8.36 8.37020 3.40 84.0 137.777780
8.35 8.359370 3.40 83.766670 155.555560
8.34 8.348530 3.40 83.533330 173.333330
8.33 8.33860 3.40 83.30 178.333330
8.32 8.326860 3.433330 83.666670 183.333330
8.31 8.316030 3.466670 84.033330 188.333330
8.30 8.306090 3.50 84.40 193.333330
8.29 8.294360 3.466670 85.466670 195.555560
8.28 8.283520 3.433330 86.533330 197.777780
8.27 8.273590 3.40 87.60 200.0
8.26 8.261850 3.433330 85.133330 195.555560
8.25 8.251920 3.466670 82.666670 191.111110
8.24 8.241080 3.50 80.20 186.666670
8.23 8.235670 3.50 80.8750 205.555560
8.22 8.230250 3.50 81.550 224.444440
8.21 8.219410 3.50 82.2250 243.333330
8.20 8.209480 3.50 82.90 221.111110
8.19 8.197740 3.466670 83.933330 198.888890
8.18 8.186910 3.433330 84.966670 176.666670
8.17 8.176980 3.40 86.0 181.666670
8.16 8.166140 3.433330 85.066670 186.666670
8.15 8.15530 3.466670 84.133330 191.666670
8.14 8.144470 3.50 83.20 196.666670
8.13 8.132730 3.50 82.70 193.333330
8.12 8.12280 3.50 82.20 190.0
8.11 8.111960 3.50 81.70 186.666670
8.10 8.101130 3.466670 83.933330 200.0
8.09 8.095710 3.433330 86.166670 213.333330
8.08 8.090290 3.40 88.40 226.666670
8.07 8.079460 3.3750 87.6250 217.777780
8.06 8.068620 3.350 86.850 208.888890
8.05 8.057790 3.3250 86.0750 200.0
8.04 8.046950 3.30 85.30 208.888890
8.03 8.036120 3.333330 85.266670 217.777780
8.02 8.025280 3.366670 85.233330 226.666670
8.01 8.015350 3.40 85.20 230.0
8.00 8.003610 3.40 85.533330 233.333330
7.99 7.992780 3.40 85.866670 236.666670
7.98 7.982840 3.40 86.20 240.0
7.97 7.972010 3.40 87.566670 230.0
7.96 7.961170 3.40 88.933330 220.0
7.95 7.956210 3.40 90.30 210.0
7.94 7.951240 3.40 89.7250 200.0
7.93 7.93950 3.40 89.150 190.0
7.92 7.929570 3.40 88.5750 180.0
7.91 7.918740 3.40 88.0 183.333330
7.90 7.90790 3.40 87.80 186.666670
7.89 7.897970 3.40 87.60 190.0
7.88 7.887130 3.40 87.40 183.333330
7.87 7.87630 3.40 87.633330 176.666670
7.86 7.865460 3.40 87.866670 170.0
7.85 7.855530 3.40 88.10 183.333330
7.84 7.84470 3.40 87.833330 196.666670
7.83 7.833860 3.40 87.566670 210.0
7.82 7.823930 3.40 87.30 190.833330
7.81 7.813090 3.40 87.30 171.666670
7.80 7.802260 3.40 87.30 152.50
7.79 7.792330 3.40 87.30 133.333330
7.78 7.781490 3.40 87.30 137.777780
7.77 7.771560 3.433330 88.533330 142.222220
7.76 7.766140 3.466670 89.766670 146.666670
7.75 7.760720 3.50 91.0 154.444440
7.74 7.749890 3.50 89.266670 162.222220
7.73 7.739050 3.50 87.533330 170.0
7.72 7.729120 3.50 85.80 167.777780
7.71 7.718280 3.533330 86.60 165.555560
7.70 7.707450 3.566670 87.40 163.333330
7.69 7.697520 3.60 88.20 160.0
7.68 7.686680 3.566670 88.20 156.666670
7.67 7.675850 3.533330 88.20 153.333330
7.66 7.665910 3.50 88.20 167.50
7.65 7.655080 3.5250 87.8750 181.666670
7.64 7.644240 3.550 87.550 195.833330
