~VERSION INFORMATION SECTION
VERS. 2.0 : CWLS LAS-VERSION 2.0
WRAP. NO : One line per depth step
~WELL INFORMATION SECTION
# MNEM.UNIT VALUE/NAME DESCRIPTION
#-------- -------------- ---------------------
STRT.Metres 16 : Start
STOP.Metres 0.05 : Stop
STEP.Metres -0.01 : Step
NULL.  -999.25 :NULL VALUE
DATE. 2025-37-11 : DATE
~CURVE INFORMATION SECTION
DEPTH.Metres : 0 Depth
Depth. : 1 Depth
Incline.Deg : 2 Incline
Azimuth.Deg : 3 Azimuth
GR.CPS : 4 GR
~PARAMETER INFORMATION SECTION
~OTHER
#-------------------------------------------------
#Produced By: GeoVista Logger - Version 7.1.107.0
Natural Gamma Sonde - 6447
Verticality Sonde - 6292
#-------------------------------------------------
~ASCII LOG DATA
# ...
13.93 13.940410 4.40 88.60 103.333330
13.92 13.929570 4.40 88.60 113.333330
13.91 13.918740 4.40 88.60 123.333330
13.90 13.90790 4.40 88.750 133.333330
13.89 13.897070 4.40 88.90 140.0
13.88 13.886230 4.40 89.050 146.666670
13.87 13.87540 4.40 89.20 153.333330
13.86 13.864560 4.40 89.266670 145.833330
13.85 13.853720 4.40 89.333330 138.333330
13.84 13.842890 4.40 89.40 130.833330
13.83 13.831150 4.366670 89.533330 123.333330
13.82 13.825730 4.333330 89.666670 118.888890
13.81 13.820320 4.30 89.80 114.444440
13.80 13.809480 4.30 89.433330 110.0
13.79 13.798650 4.30 89.066670 113.333330
13.78 13.787810 4.30 88.70 116.666670
13.77 13.776980 4.30 89.40 120.0
13.76 13.765240 4.30 90.10 117.50
13.75 13.75440 4.30 90.80 115.0
13.74 13.743570 4.30 91.50 112.50
13.73 13.732730 4.266670 91.366670 110.0
13.72 13.720990 4.233330 91.233330 104.444440
13.71 13.715580 4.20 91.10 98.888890
13.70 13.710160 4.133330 91.166670 93.333330
13.69 13.699320 4.066670 91.233330 113.333330
13.68 13.688490 4.0 91.30 133.333330
13.67 13.677650 4.033330 90.866670 153.333330
13.66 13.665910 4.066670 90.433330 150.0
13.65 13.655080 4.10 90.0 146.666670
13.64 13.644240 4.10 90.40 143.333330
13.63 13.635210 4.10 90.80 140.0
13.62 13.625280 4.10 91.20 147.777780
13.61 13.614450 4.10 91.60 155.555560
13.60 13.603610 4.10 91.316670 163.333330
13.59 13.592780 4.10 91.033330 148.888890
13.58 13.582840 4.10 90.750 134.444440
13.57 13.572010 4.10 90.466670 120.0
13.56 13.561170 4.10 90.183330 127.50
13.55 13.555760 4.10 89.90 135.0
13.54 13.550340 4.10 89.4250 142.50
13.53 13.53950 4.10 88.950 150.0
13.52 13.528670 4.10 88.4750 154.838710
13.51 13.517830 4.10 88.0 159.677420
13.50 13.5070 4.10 88.40 164.516130
13.49 13.496160 4.10 88.80 165.232970
13.48 13.486230 4.10 89.20 165.949820
13.47 13.474490 4.066670 89.70 166.666670
13.46 13.464560 4.033330 90.20 150.0
13.45 13.453720 4.0 90.70 133.333330
13.44 13.442890 4.0 89.766670 116.666670
13.43 13.432050 4.0 88.833330 128.333330
13.42 13.421220 4.0 87.90 140.0
13.41 13.41580 4.0 88.4250 151.666670
13.40 13.410380 4.0 88.950 163.333330
13.39 13.399550 4.0 89.4750 148.888890
13.38 13.389620 4.0 90.0 134.444440
13.37 13.378780 4.0 90.90 120.0
13.36 13.367950 4.0 91.80 120.0
13.35 13.357110 4.0 92.70 120.0
13.34 13.346280 4.0 90.933330 120.0
13.33 13.336340 4.0 89.166670 133.333330
13.32 13.325510 4.0 87.40 146.666670
13.31 13.314670 3.966670 87.266670 160.0
13.30 13.304740 3.933330 87.133330 150.833330
13.29 13.294810 3.90 87.0 141.666670
13.28 13.283070 3.90 87.966670 132.50
13.27 13.273140 3.90 88.933330 123.333330
13.26 13.26230 3.90 89.90 133.333330
13.25 13.251470 3.90 89.4750 143.333330
13.24 13.241530 3.90 89.050 153.333330
13.23 13.236120 3.90 88.6250 157.777780
13.22 13.23070 3.90 88.20 162.222220
13.21 13.219860 3.90 88.450 166.666670
13.20 13.209930 3.90 88.70 176.666670
13.19 13.19910 3.90 88.950 186.666670
13.18 13.188260 3.90 89.20 196.666670
13.17 13.177430 3.90 89.450 186.666670
13.16 13.167490 3.90 89.70 176.666670
13.15 13.156660 3.866670 89.40 166.666670
13.14 13.145820 3.833330 89.10 156.666670
13.13 13.134990 3.80 88.80 167.936510
13.12 13.124150 3.80 89.0250 179.206350
13.11 13.114220 3.80 89.250 190.476190
13.10 13.103390 3.80 89.4750 164.021160
13.09 13.092550 3.80 89.70 137.566140
13.08 13.082620 3.733330 89.066670 111.111110
13.07 13.071780 3.666670 88.433330 125.833330
13.06 13.060950 3.60 87.80 140.555560
13.05 13.051020 3.633330 87.833330 155.277780
13.04 13.04560 3.666670 87.866670 170.0
13.03 13.040180 3.70 87.90 158.888890
13.02 13.029350 3.70 88.10 147.777780
13.01 13.019410 3.70 88.30 136.666670
13.00 13.008580 3.70 88.50 144.444440
12.99 12.997740 3.70 89.0 152.222220
12.98 12.986910 3.70 89.50 160.0
12.97 12.976980 3.70 90.0 143.03030
12.96 12.965240 3.70 89.266670 126.060610
12.95 12.95530 3.70 88.533330 109.090910
12.94 12.944470 3.70 87.80 113.068180
12.93 12.933630 3.70 87.250 117.045450
12.92 12.92280 3.70 86.70 121.022730
12.91 12.912870 3.70 86.150 125.0
12.90 12.902030 3.70 85.60 118.888890
12.89 12.89120 3.70 86.80 112.777780
12.88 12.885780 3.70 88.0 106.666670
12.87 12.880360 3.70 89.20 128.888890
12.86 12.869530 3.70 89.566670 151.111110
12.85 12.858690 3.70 89.933330 173.333330
12.84 12.848760 3.70 90.30 157.50
12.83 12.837020 3.70 89.633330 141.666670
12.82 12.826190 3.70 88.966670 125.833330
12.81 12.815350 3.70 88.30 110.0
12.80 12.804510 3.70 88.170 118.333330
12.79 12.793680 3.70 88.040 126.666670
12.78 12.783750 3.70 87.910 135.0
12.77 12.772010 3.70 87.780 153.333330
12.76 12.762080 3.70 87.650 171.666670
12.75 12.751240 3.70 87.520 190.0
12.74 12.745820 3.70 87.390 196.666670
12.73 12.740410 3.70 87.260 203.333330
12.72 12.729570 3.70 87.130 210.0
12.71 12.718740 3.70 87.0 183.333330
12.70 12.70790 3.666670 87.80 156.666670
12.69 12.697070 3.633330 88.60 130.0
12.68 12.686230 3.60 89.40 121.666670
12.67 12.67540 3.60 89.166670 113.333330
12.66 12.664560 3.60 88.933330 105.0
12.65 12.653720 3.60 88.70 96.666670
12.64 12.642890 3.60 87.0 105.555560
12.63 12.632050 3.60 85.30 114.444440
12.62 12.621220 3.60 83.60 123.333330
12.61 12.61580 3.60 83.433330 134.444440
12.60 12.610380 3.60 83.266670 145.555560
12.59 12.599550 3.60 83.10 156.666670
12.58 12.588710 3.60 84.2250 158.98990
12.57 12.577880 3.60 85.350 161.313130
12.56 12.567040 3.60 86.4750 163.636360
12.55 12.556210 3.60 87.60 161.722490
12.54 12.545370 3.60 87.466670 159.808610
12.53 12.534540 3.60 87.333330 157.894740
12.52 12.52460 3.60 87.20 155.921050
12.51 12.512870 3.60 86.533330 153.947370
12.50 12.502030 3.60 85.866670 151.973680
12.49 12.49210 3.60 85.20 150.0
12.48 12.481260 3.60 84.80 148.888890
12.47 12.470430 3.60 84.40 147.777780
12.46 12.465460 3.60 84.0 146.666670
12.45 12.46050 3.60 84.5750 141.111110
12.44 12.448760 3.60 85.150 135.555560
12.43 12.438830 3.60 85.7250 130.0
12.42 12.428890 3.60 86.30 130.0
12.41 12.417160 3.566670 86.233330 130.0
12.40 12.407220 3.533330 86.166670 130.0
12.39 12.396390 3.50 86.10 131.111110
12.38 12.385550 3.533330 85.466670 132.222220
12.37 12.375620 3.566670 84.833330 133.333330
12.36 12.364790 3.60 84.20 144.444440
12.35 12.353950 3.566670 84.066670 155.555560
12.34 12.344020 3.533330 83.933330 166.666670
12.33 12.333180 3.50 83.80 156.451610
12.32 12.322350 3.50 84.7750 146.236560
12.31 12.311510 3.50 85.750 136.021510
12.30 12.301580 3.50 86.7250 125.806450
12.29 12.296160 3.50 87.70 118.315410
12.28 12.290740 3.50 87.266670 110.824370
12.27 12.279910 3.50 86.833330 103.333330
12.26 12.269980 3.50 86.40 111.111110
12.25 12.258240 3.50 85.766670 118.888890
12.24 12.248310 3.50 85.133330 126.666670
12.23 12.237470 3.50 84.50 142.222220
12.22 12.226640 3.50 84.80 157.777780
12.21 12.21670 3.50 85.10 173.333330
12.20 12.206770 3.50 85.40 163.333330
12.19 12.195030 3.50 85.433330 153.333330
12.18 12.18510 3.50 85.466670 143.333330
12.17 12.175170 3.50 85.50 130.0
12.16 12.164330 3.50 85.2750 116.666670
12.15 12.15350 3.50 85.050 103.333330
12.14 12.143570 3.50 84.8250 90.0
12.13 12.131830 3.50 84.60 120.0
12.12 12.12190 3.50 85.10 150.0
12.11 12.111960 3.50 85.60 180.0
12.10 12.100230 3.50 86.10 153.333330
12.09 12.095260 3.50 85.666670 126.666670
12.08 12.090290 3.50 85.233330 100.0
12.07 12.079460 3.50 84.80 115.555560
12.06 12.068620 3.50 85.733330 131.111110
12.05 12.057790 3.50 86.666670 146.666670
12.04 12.047860 3.50 87.60 147.777780
12.03 12.037020 3.50 87.333330 148.888890
12.02 12.026190 3.50 87.066670 150.0
12.01 12.016250 3.50 86.80 150.0
12.00 12.005420 3.50 86.933330 150.0
11.99 11.994580 3.50 87.066670 150.0
11.98 11.984650 3.50 87.20 150.0
11.97 11.972910 3.4750 86.850 141.111110
11.96 11.962980 3.450 86.50 132.222220
11.95 11.952140 3.4250 86.150 123.333330
11.94 11.941310 3.40 85.80 140.0
11.93 11.930470 3.40 85.933330 156.666670
11.92 11.925510 3.40 86.066670 173.333330
11.91 11.920540 3.40 86.20 173.333330
11.90 11.90880 3.433330 86.166670 173.333330
11.89 11.898870 3.466670 86.133330 173.333330
11.88 11.888040 3.50 86.10 164.444440
11.87 11.87720 3.50 85.70 155.555560
