~VERSION INFORMATION SECTION
VERS. 2.0 : CWLS LAS-VERSION 2.0
WRAP. NO : One line per depth step
~WELL INFORMATION SECTION
# MNEM.UNIT VALUE/NAME DESCRIPTION
#-------- -------------- ---------------------
STRT.Metres 16 : Start
STOP.Metres 0.05 : Stop
STEP.Metres -0.01 : Step
NULL.  -999.25 :NULL VALUE
DATE. 2025-37-11 : DATE
~CURVE INFORMATION SECTION
DEPTH.Metres : 0 Depth
Depth. : 1 Depth
Incline.Deg : 2 Incline
Azimuth.Deg : 3 Azimuth
GR.CPS : 4 GR
~PARAMETER INFORMATION SECTION
~OTHER
#-------------------------------------------------
#Produced By: GeoVista Logger - Version 7.1.107.0
Natural Gamma Sonde - 6447
Verticality Sonde - 6292
#-------------------------------------------------
~ASCII LOG DATA
# ...
11.86 11.866370 3.50 85.30 146.666670
11.85 11.856430 3.50 84.90 155.0
11.84 11.84470 3.50 85.166670 163.333330
11.83 11.833860 3.50 85.433330 171.666670
11.82 11.823930 3.50 85.70 180.0
11.81 11.813090 3.50 85.80 182.222220
11.80 11.802260 3.50 85.90 184.444440
11.79 11.792330 3.50 86.0 186.666670
11.78 11.786460 3.50 86.10 185.555560
11.77 11.780590 3.50 86.033330 184.444440
11.76 11.769750 3.50 85.966670 183.333330
11.75 11.759820 3.50 85.90 186.666670
11.74 11.748980 3.50 85.80 190.0
11.73 11.738150 3.50 85.70 193.333330
11.72 11.727310 3.50 85.60 192.580650
11.71 11.716480 3.50 85.966670 191.827960
11.70 11.705640 3.50 86.333330 191.075270
11.69 11.694810 3.50 86.70 190.322580
11.68 11.683970 3.50 86.166670 182.437280
11.67 11.673140 3.50 85.633330 174.551970
11.66 11.663210 3.50 85.10 166.666670
11.65 11.651470 3.466670 85.60 155.555560
11.64 11.640630 3.433330 86.10 144.444440
11.63 11.635670 3.40 86.60 133.333330
11.62 11.63070 3.4250 86.550 147.777780
11.61 11.619860 3.450 86.50 162.222220
11.60 11.609030 3.4750 86.450 176.666670
11.59 11.598190 3.50 86.40 182.50
11.58 11.587360 3.50 86.30 188.333330
11.57 11.576520 3.50 86.20 194.166670
11.56 11.566590 3.50 86.10 200.0
11.55 11.554850 3.50 86.266670 185.555560
11.54 11.544920 3.50 86.433330 171.111110
11.53 11.534090 3.50 86.60 156.666670
11.52 11.523250 3.466670 86.50 164.444440
11.51 11.512420 3.433330 86.40 172.222220
11.50 11.502480 3.40 86.30 180.0
11.49 11.491650 3.433330 86.366670 166.666670
11.48 11.480810 3.466670 86.433330 153.333330
11.47 11.470880 3.50 86.50 140.0
11.46 11.465460 3.4750 86.6250 168.888890
11.45 11.460050 3.450 86.750 197.777780
11.44 11.449210 3.4250 86.8750 226.666670
11.43 11.439280 3.40 87.0 194.444440
11.42 11.427540 3.40 86.933330 162.222220
11.41 11.417610 3.40 86.866670 130.0
11.40 11.406770 3.40 86.80 144.166670
11.39 11.395940 3.40 86.466670 158.333330
11.38 11.3860 3.40 86.133330 172.50
11.37 11.376070 3.40 85.80 186.666670
11.36 11.364330 3.40 86.40 197.777780
11.35 11.35440 3.40 87.0 208.888890
11.34 11.343570 3.40 87.60 220.0
11.33 11.332730 3.40 87.6750 205.555560
11.32 11.32280 3.40 87.750 191.111110
11.31 11.311960 3.40 87.8250 176.666670
11.30 11.301130 3.40 87.90 170.0
11.29 11.29120 3.433330 87.266670 163.333330
11.28 11.286230 3.466670 86.633330 156.666670
11.27 11.281260 3.50 86.0 148.888890
11.26 11.269530 3.50 86.233330 141.111110
11.25 11.259590 3.50 86.466670 133.333330
11.24 11.249660 3.50 86.70 150.0
11.23 11.237920 3.50 86.766670 166.666670
11.22 11.227990 3.50 86.833330 183.333330
11.21 11.218060 3.50 86.90 180.833330
11.20 11.206320 3.50 87.033330 178.333330
11.19 11.196390 3.50 87.166670 175.833330
11.18 11.186460 3.50 87.30 173.333330
11.17 11.174720 3.50 87.2750 170.0
11.16 11.163880 3.50 87.250 166.666670
11.15 11.153950 3.50 87.2250 163.333330
11.14 11.143120 3.50 87.20 178.888890
11.13 11.132280 3.50 87.066670 194.444440
11.12 11.122350 3.50 86.933330 210.0
11.11 11.111510 3.50 86.80 194.838710
11.10 11.100680 3.50 87.066670 179.677420
11.09 11.095710 3.50 87.333330 164.516130
11.08 11.090740 3.50 87.60 186.344090
11.07 11.079010 3.50 87.733330 208.172040
11.06 11.069070 3.50 87.866670 230.0
11.05 11.058240 3.50 88.0 210.0
11.04 11.04740 3.466670 87.30 190.0
11.03 11.036570 3.433330 86.60 170.0
11.02 11.026640 3.40 85.90 150.0
11.01 11.01490 3.433330 85.466670 160.0
11.00 11.004970 3.466670 85.033330 170.0
10.99 10.994130 3.50 84.60 180.0
10.98 10.98330 3.50 85.5750 186.666670
10.97 10.972460 3.50 86.550 193.333330
10.96 10.962530 3.50 87.5250 200.0
10.95 10.950790 3.50 88.50 185.555560
10.94 10.940860 3.50 88.633330 171.111110
10.93 10.935440 3.50 88.766670 156.666670
10.92 10.930020 3.50 88.90 172.222220
10.91 10.919190 3.50 88.066670 187.777780
10.90 10.908350 3.50 87.233330 203.333330
10.89 10.898420 3.50 86.40 197.50
10.88 10.886680 3.466670 86.033330 191.666670
10.87 10.875850 3.433330 85.666670 185.833330
10.86 10.865910 3.40 85.30 180.0
10.85 10.855080 3.50 86.266670 175.555560
10.84 10.844240 3.60 87.233330 171.111110
10.83 10.833410 3.70 88.20 166.666670
10.82 10.822570 3.633330 88.766670 181.111110
10.81 10.811740 3.566670 89.333330 195.555560
10.80 10.801810 3.50 89.90 210.0
10.79 10.795940 3.5250 88.650 192.222220
10.78 10.790070 3.550 87.40 174.444440
10.77 10.779230 3.5750 86.150 156.666670
10.76 10.76930 3.60 84.90 157.50
10.75 10.757560 3.566670 84.766670 158.333330
10.74 10.747630 3.533330 84.633330 159.166670
10.73 10.736790 3.50 84.50 160.0
10.72 10.725960 3.50 86.766670 156.666670
10.71 10.715120 3.50 89.033330 153.333330
10.70 10.705190 3.50 91.30 150.0
10.69 10.693450 3.533330 90.30 161.111110
10.68 10.682620 3.566670 89.30 172.222220
10.67 10.672690 3.60 88.30 183.333330
10.66 10.661850 3.60 86.766670 193.333330
10.65 10.651020 3.60 85.233330 203.333330
10.64 10.646050 3.60 83.70 213.333330
10.63 10.641080 3.60 84.5250 204.444440
10.62 10.629350 3.60 85.350 195.555560
10.61 10.619410 3.60 86.1750 186.666670
10.60 10.609480 3.60 87.0 178.333330
10.59 10.597740 3.60 86.70 170.0
10.58 10.587810 3.60 86.40 161.666670
10.57 10.576980 3.60 86.10 153.333330
10.56 10.566140 3.60 85.733330 152.222220
10.55 10.55530 3.60 85.366670 151.111110
10.54 10.545370 3.60 85.0 150.0
10.53 10.533630 3.60 86.10 138.888890
10.52 10.52370 3.60 87.20 127.777780
10.51 10.512870 3.60 88.30 116.666670
10.50 10.502030 3.60 87.950 130.465950
10.49 10.49120 3.60 87.60 144.265230
10.48 10.481260 3.60 87.250 158.064520
10.47 10.475850 3.60 86.90 156.487460
10.46 10.470430 3.60 86.90 154.910390
10.45 10.459590 3.60 86.90 153.333330
10.44 10.449660 3.60 86.90 150.0
10.43 10.437920 3.60 86.966670 146.666670
10.42 10.427090 3.60 87.033330 143.333330
10.41 10.417160 3.60 87.10 142.222220
10.40 10.406320 3.60 87.166670 141.111110
10.39 10.395490 3.60 87.233330 140.0
10.38 10.385550 3.60 87.30 141.666670
10.37 10.373810 3.60 87.366670 143.333330
10.36 10.363880 3.60 87.433330 145.0
10.35 10.353050 3.60 87.50 146.666670
10.34 10.342210 3.60 87.30 144.444440
10.33 10.331380 3.60 87.10 142.222220
10.32 10.321440 3.60 86.90 140.0
10.31 10.316030 3.60 86.70 138.888890
10.30 10.310610 3.60 87.10 137.777780
10.29 10.299770 3.60 87.50 136.666670
10.28 10.289840 3.60 87.90 137.777780
10.27 10.27810 3.60 87.633330 138.888890
10.26 10.268170 3.60 87.366670 140.0
10.25 10.257340 3.60 87.10 145.555560
10.24 10.24650 3.60 87.333330 151.111110
10.23 10.235670 3.60 87.566670 156.666670
10.22 10.225730 3.60 87.80 160.0
10.21 10.21490 3.60 88.033330 163.333330
10.20 10.204060 3.60 88.266670 166.666670
10.19 10.194130 3.60 88.50 170.0
10.18 10.182390 3.60 88.6750 152.222220
10.17 10.172460 3.60 88.850 134.444440
10.16 10.161630 3.60 89.0250 116.666670
10.15 10.156210 3.60 89.20 127.777780
10.14 10.150790 3.60 88.60 138.888890
10.13 10.142890 3.60 88.0 150.0
10.12 10.134990 3.60 87.40 152.222220
10.11 10.118280 3.60 86.70 154.444440
10.10 10.107450 3.60 86.0 156.666670
10.09 10.097520 3.60 85.30 148.888890
10.08 10.086680 3.60 85.866670 141.111110
10.07 10.075850 3.60 86.433330 133.333330
10.06 10.065910 3.60 87.0 136.666670
10.05 10.054180 3.566670 87.233330 140.0
10.04 10.043340 3.533330 87.466670 143.333330
10.03 10.033410 3.50 87.70 146.666670
10.02 10.022570 3.50 87.666670 142.222220
10.01 10.011740 3.50 87.633330 137.777780
10.00 10.00090 3.50 87.60 133.333330
9.99 9.995490 3.50 86.4250 143.333330
9.98 9.990070 3.50 85.250 153.333330
9.97 9.979230 3.50 84.0750 163.333330
9.96 9.96930 3.50 82.90 166.666670
9.95 9.957560 3.50 84.633330 170.0
9.94 9.947630 3.50 86.366670 173.333330
9.93 9.936790 3.50 88.10 168.095240
9.92 9.925960 3.50 86.766670 162.857140
9.91 9.915120 3.50 85.433330 157.619050
9.90 9.905190 3.50 84.10 152.380950
9.89 9.893450 3.50 82.533330 124.920630
9.88 9.882620 3.50 80.966670 97.460320
9.87 9.872690 3.50 79.40 70.0
9.86 9.861850 3.533330 82.766670 93.333330
9.85 9.851020 3.566670 86.133330 116.666670
9.84 9.846050 3.60 89.50 140.0
9.83 9.841080 3.60 89.10 152.222220
9.82 9.829350 3.60 88.70 164.444440
9.81 9.818510 3.60 88.30 176.666670
