~VERSION INFORMATION SECTION
VERS. 2.0 : CWLS LAS-VERSION 2.0
WRAP. NO : One line per depth step
~WELL INFORMATION SECTION
# MNEM.UNIT VALUE/NAME DESCRIPTION
#-------- -------------- ---------------------
STRT.Metres 16 : Start
STOP.Metres 0.05 : Stop
STEP.Metres -0.01 : Step
NULL.  -999.25 :NULL VALUE
DATE. 2025-37-11 : DATE
~CURVE INFORMATION SECTION
DEPTH.Metres : 0 Depth
Depth. : 1 Depth
Incline.Deg : 2 Incline
Azimuth.Deg : 3 Azimuth
GR.CPS : 4 GR
~PARAMETER INFORMATION SECTION
~OTHER
#-------------------------------------------------
#Produced By: GeoVista Logger - Version 7.1.107.0
Natural Gamma Sonde - 6447
Verticality Sonde - 6292
#-------------------------------------------------
~ASCII LOG DATA
# ...
5.49 5.492550 3.0 84.766670 157.777780
5.48 5.481720 3.0 83.833330 150.0
5.47 5.470880 3.0 82.90 134.444440
5.46 5.460050 3.0 83.366670 118.888890
5.45 5.455080 3.0 83.833330 103.333330
5.44 5.450110 3.0 84.30 110.833330
5.43 5.439280 3.0 84.466670 118.333330
5.42 5.428440 3.0 84.633330 125.833330
5.41 5.417610 3.0 84.80 133.333330
5.40 5.406770 2.966670 85.033330 127.777780
5.39 5.395940 2.933330 85.266670 122.222220
5.38 5.38510 2.90 85.50 116.666670
5.37 5.374270 2.933330 85.40 116.666670
5.36 5.363430 2.966670 85.30 116.666670
5.35 5.35350 3.0 85.20 116.666670
5.34 5.342660 2.966670 82.80 124.444440
5.33 5.331830 2.933330 80.40 132.222220
5.32 5.320990 2.90 78.0 140.0
5.31 5.315580 2.9250 80.1250 147.777780
5.30 5.310160 2.950 82.250 155.555560
5.29 5.299320 2.9750 84.3750 163.333330
5.28 5.289390 3.0 86.50 155.833330
5.27 5.278560 3.0 84.233330 148.333330
5.26 5.267720 3.0 81.966670 140.833330
5.25 5.256880 3.0 79.70 133.333330
5.24 5.246050 3.0 79.10 141.111110
5.23 5.236120 3.0 78.50 148.888890
5.22 5.225280 3.0 77.90 156.666670
5.21 5.214450 2.966670 79.0 158.888890
5.20 5.204510 2.933330 80.10 161.111110
5.19 5.193680 2.90 81.20 163.333330
5.18 5.182840 2.866670 82.30 155.125450
5.17 5.172910 2.833330 83.40 146.917560
5.16 5.162080 2.80 84.50 138.709680
5.15 5.151240 2.850 84.0750 149.139780
5.14 5.140410 2.90 83.650 159.569890
5.13 5.135440 2.950 83.2250 170.0
5.12 5.130470 3.0 82.80 161.666670
5.11 5.119640 3.0 83.80 153.333330
5.10 5.10880 3.0 84.80 145.0
5.09 5.098870 3.0 85.80 136.666670
5.08 5.088040 2.966670 86.166670 148.888890
5.07 5.07720 2.933330 86.533330 161.111110
5.06 5.066370 2.90 86.90 173.333330
5.05 5.056430 2.933330 82.10 157.777780
5.04 5.04560 2.966670 77.30 142.222220
5.03 5.034760 3.0 72.50 126.666670
5.02 5.024830 2.950 76.2750 141.111110
5.01 5.0140 2.90 80.050 155.555560
5.00 5.003160 2.850 83.8250 170.0
4.99 4.992330 2.80 87.60 168.888890
4.98 4.982390 2.833330 85.966670 167.777780
4.97 4.971560 2.866670 84.333330 166.666670
4.96 4.960720 2.90 82.70 166.666670
4.95 4.955760 2.90 82.30 166.666670
4.94 4.950790 2.90 81.90 166.666670
4.93 4.939950 2.90 81.50 164.166670
4.92 4.929120 2.90 82.466670 161.666670
4.91 4.918280 2.90 83.433330 159.166670
4.90 4.907450 2.90 84.40 156.666670
4.89 4.897520 2.866670 82.266670 165.555560
4.88 4.886680 2.833330 80.133330 174.444440
4.87 4.875850 2.80 78.0 183.333330
4.86 4.865010 2.833330 79.033330 181.111110
4.85 4.854180 2.866670 80.066670 178.888890
4.84 4.843340 2.90 81.10 176.666670
4.83 4.833410 2.850 81.90 180.0
4.82 4.822570 2.80 82.70 183.333330
4.81 4.811740 2.750 83.50 186.666670
4.80 4.80090 2.70 84.30 176.666670
4.79 4.790970 2.766670 83.70 166.666670
4.78 4.785550 2.833330 83.10 156.666670
4.77 4.780140 2.90 82.50 153.333330
4.76 4.76930 2.90 82.766670 150.0
4.75 4.758470 2.90 83.033330 146.666670
4.74 4.747630 2.90 83.30 155.0
4.73 4.736790 2.90 83.933330 163.333330
4.72 4.725960 2.90 84.566670 171.666670
4.71 4.715120 2.90 85.20 180.0
4.70 4.704290 2.866670 84.10 181.111110
4.69 4.693450 2.833330 83.0 182.222220
4.68 4.682620 2.80 81.90 183.333330
4.67 4.671780 2.833330 81.866670 176.666670
4.66 4.660950 2.866670 81.833330 170.0
4.65 4.650110 2.90 81.80 163.333330
4.64 4.645150 2.8750 82.0250 168.888890
4.63 4.640180 2.850 82.250 174.444440
4.62 4.629350 2.8250 82.4750 180.0
4.61 4.618510 2.80 82.70 169.462370
4.60 4.607670 2.80 81.166670 158.924730
4.59 4.597740 2.80 79.633330 148.38710
4.58 4.586910 2.80 78.10 133.790320
4.57 4.576980 2.833330 79.833330 119.193550
4.56 4.566140 2.866670 81.566670 104.596770
4.55 4.55530 2.90 83.30 90.0
4.54 4.545370 2.90 83.766670 125.0
4.53 4.534540 2.90 84.233330 160.0
4.52 4.52460 2.90 84.70 195.0
4.51 4.513770 2.90 82.666670 194.444440
4.50 4.502930 2.90 80.633330 193.888890
4.49 4.4930 2.90 78.60 193.333330
4.48 4.482170 2.90 79.050 187.222220
4.47 4.471330 2.90 79.50 181.111110
4.46 4.465910 2.90 79.950 175.0
4.45 4.46050 2.90 80.40 183.750
4.44 4.449660 2.90 80.233330 192.50
4.43 4.439730 2.90 80.066670 201.250
4.42 4.428890 2.90 79.90 210.0
4.41 4.418060 2.833330 81.066670 194.444440
4.40 4.407220 2.766670 82.233330 178.888890
4.39 4.396390 2.70 83.40 163.333330
4.38 4.386460 2.766670 81.533330 175.555560
4.37 4.375620 2.833330 79.666670 187.777780
4.36 4.364790 2.90 77.80 200.0
4.35 4.353950 2.90 79.450 200.0
4.34 4.343120 2.90 81.10 200.0
4.33 4.333180 2.90 82.750 200.0
4.32 4.322350 2.90 84.40 188.888890
4.31 4.311510 2.833330 84.233330 177.777780
4.30 4.301580 2.766670 84.066670 166.666670
4.29 4.296160 2.70 83.90 161.111110
4.28 4.290740 2.716670 83.016670 155.555560
4.27 4.279910 2.733330 82.133330 150.0
4.26 4.269980 2.750 81.250 145.0
4.25 4.259140 2.766670 80.366670 140.0
4.24 4.248310 2.783330 79.483330 135.0
4.23 4.238370 2.80 78.60 130.0
4.22 4.227540 2.833330 78.80 132.222220
4.21 4.21670 2.866670 79.0 134.444440
4.20 4.206770 2.90 79.20 136.666670
4.19 4.195940 2.866670 79.733330 148.888890
4.18 4.18510 2.833330 80.266670 161.111110
4.17 4.175170 2.80 80.80 173.333330
4.16 4.164330 2.80 80.0 168.888890
4.15 4.15350 2.80 79.20 164.444440
4.14 4.142660 2.80 78.40 160.0
4.13 4.132730 2.80 77.60 172.222220
4.12 4.12190 2.833330 78.20 184.444440
4.11 4.111060 2.866670 78.80 196.666670
4.10 4.100230 2.90 79.40 191.111110
4.09 4.095260 2.866670 80.033330 185.555560
4.08 4.090290 2.833330 80.666670 180.0
4.07 4.079460 2.80 81.30 180.833330
4.06 4.068620 2.833330 79.033330 181.666670
4.05 4.058690 2.866670 76.766670 182.50
4.04 4.047860 2.90 74.50 183.333330
4.03 4.037020 2.866670 75.233330 181.111110
4.02 4.027090 2.833330 75.966670 178.888890
4.01 4.016250 2.80 76.70 176.666670
4.00 4.005420 2.833330 77.666670 173.691760
3.99 3.995490 2.866670 78.633330 170.716850
3.98 3.984650 2.90 79.60 167.741940
3.97 3.973810 2.850 78.5250 174.050180
3.96 3.962980 2.80 77.450 180.358420
3.95 3.953050 2.750 76.3750 186.666670
3.94 3.942210 2.70 75.30 182.222220
3.93 3.931380 2.766670 76.133330 177.777780
3.92 3.925960 2.833330 76.966670 173.333330
3.91 3.920540 2.90 77.80 172.50
3.90 3.909710 2.866670 76.90 171.666670
3.89 3.899770 2.833330 76.0 170.833330
3.88 3.888940 2.80 75.10 170.0
3.87 3.87810 2.80 76.50 156.666670
3.86 3.867270 2.80 77.90 143.333330
3.85 3.856430 2.80 79.30 130.0
3.84 3.84650 2.80 77.066670 143.333330
3.83 3.835670 2.80 74.833330 156.666670
3.82 3.824830 2.80 72.60 170.0
3.81 3.8140 2.80 73.514290 157.777780
3.80 3.803160 2.80 74.428570 145.555560
3.79 3.792330 2.80 75.342860 133.333330
3.78 3.781490 2.80 76.257140 130.833330
3.77 3.776070 2.80 77.171430 128.333330
3.76 3.770650 2.80 78.085710 125.833330
3.75 3.759820 2.80 79.0 123.333330
3.74 3.748980 2.80 79.10 131.111110
3.73 3.739050 2.80 79.20 138.888890
3.72 3.728220 2.80 79.30 146.666670
3.71 3.717380 2.80 78.866670 142.222220
3.70 3.706550 2.80 78.433330 137.777780
3.69 3.695710 2.80 78.0 133.333330
3.68 3.684880 2.80 78.10 135.555560
3.67 3.674040 2.80 78.20 137.777780
3.66 3.664110 2.80 78.30 140.0
3.65 3.653270 2.80 78.30 140.0
3.64 3.642440 2.80 78.30 140.0
3.63 3.63160 2.80 78.30 140.0
3.62 3.626190 2.80 77.9750 122.962960
3.61 3.620770 2.80 77.650 105.925930
3.60 3.609930 2.80 77.3250 88.888890
3.59 3.59910 2.80 77.0 120.370370
3.58 3.588260 2.80 76.566670 151.851850
3.57 3.577430 2.80 76.133330 183.333330
3.56 3.566590 2.80 75.70 185.0
3.55 3.555760 2.833330 76.066670 186.666670
3.54 3.544920 2.866670 76.433330 188.333330
3.53 3.534090 2.90 76.80 190.0
3.52 3.523250 2.866670 77.333330 187.777780
3.51 3.512420 2.833330 77.866670 185.555560
3.50 3.501580 2.80 78.40 183.333330
3.49 3.491650 2.80 76.833330 170.0
3.48 3.486230 2.80 75.266670 156.666670
3.47 3.480810 2.80 73.70 143.333330
3.46 3.472910 2.80 73.950 143.333330
3.45 3.465010 2.80 74.20 143.333330
3.44 3.449210 2.80 74.450 143.333330
3.43 3.439280 2.80 74.70 144.76190
3.42 3.428440 2.766670 75.366670 146.190480
3.41 3.418510 2.733330 76.033330 147.619050
3.40 3.407670 2.70 76.70 135.714290
3.39 3.397740 2.70 76.366670 123.809520
3.38 3.386910 2.70 76.033330 111.904760
3.37 3.376980 2.70 75.70 100.0
