~VERSION INFORMATION SECTION
VERS. 2.0 : CWLS LAS-VERSION 2.0
WRAP. NO : One line per depth step
~WELL INFORMATION SECTION
# MNEM.UNIT VALUE/NAME DESCRIPTION
#-------- -------------- ---------------------
STRT.Metres 16 : Start
STOP.Metres -0.09 : Stop
STEP.Metres -0.01 : Step
NULL.  -999.25 :NULL VALUE
DATE. 2025-43-11 : DATE
~CURVE INFORMATION SECTION
DEPTH.Metres : 0 Depth
Depth. : 1 Depth
Incline.Deg : 2 Incline
Azimuth.Deg : 3 Azimuth
GR.CPS : 4 GR
~PARAMETER INFORMATION SECTION
~OTHER
#-------------------------------------------------
#Produced By: GeoVista Logger - Version 7.1.107.0
Natural Gamma Sonde - 6447
Verticality Sonde - 6292
#-------------------------------------------------
~ASCII LOG DATA
# ...
11.80 11.810380 4.950 73.550 130.0
11.79 11.802260 4.9750 72.6750 133.333330
11.78 11.794130 5.0 71.80 135.333330
11.77 11.777880 5.0 72.10 137.333330
11.76 11.769750 5.0 72.40 139.333330
11.75 11.761630 5.0 72.70 141.333330
11.74 11.75350 5.0 73.0 143.333330
11.73 11.745370 5.0 73.30 143.333330
11.72 11.729120 4.980 73.820 143.333330
11.71 11.720990 4.960 74.340 143.333330
11.70 11.712870 4.940 74.860 143.333330
11.69 11.696610 4.920 75.380 143.333330
11.68 11.688490 4.90 75.90 136.666670
11.67 11.680360 4.90 75.50 130.0
11.66 11.672230 4.90 75.10 123.333330
11.65 11.664110 4.90 74.70 116.666670
11.64 11.647860 4.90 74.30 110.0
11.63 11.639280 4.90 73.90 111.666670
11.62 11.63070 4.90 73.260 113.333330
11.61 11.622570 4.90 72.620 115.0
11.60 11.614450 4.90 71.980 116.666670
11.59 11.59910 4.90 71.340 129.333330
11.58 11.590970 4.90 70.70 142.0
11.57 11.582840 4.90 71.70 154.666670
11.56 11.566590 4.90 72.70 167.333330
11.55 11.558470 4.90 73.70 180.0
11.54 11.550340 4.90 74.70 166.0
11.53 11.542210 4.90 75.70 152.0
11.52 11.534090 4.90 75.780 138.0
11.51 11.517830 4.90 75.860 124.0
11.50 11.509710 4.90 75.940 110.0
11.49 11.501580 4.90 76.020 116.0
11.48 11.493450 4.90 76.10 122.0
11.47 11.485330 4.90 74.420 128.0
11.46 11.469070 4.90 72.740 134.0
11.45 11.460950 4.90 71.060 140.0
11.44 11.452820 4.90 69.380 136.0
11.43 11.436570 4.90 67.70 132.0
11.42 11.428890 4.90 68.4750 128.0
11.41 11.421220 4.90 69.250 124.0
11.40 11.413090 4.90 70.0250 120.0
11.39 11.404970 4.90 70.80 115.833330
11.38 11.388710 4.880 72.140 111.666670
11.37 11.380590 4.860 73.480 107.50
11.36 11.372460 4.840 74.820 103.333330
11.35 11.357110 4.820 76.160 108.0
11.34 11.348980 4.80 77.50 112.666670
11.33 11.340860 4.820 76.960 117.333330
11.32 11.332730 4.840 76.420 122.0
11.31 11.32460 4.860 75.880 126.666670
11.30 11.308350 4.880 75.340 128.0
11.29 11.300680 4.90 74.80 129.333330
11.28 11.2930 4.90 74.260 130.666670
11.27 11.276750 4.90 73.720 132.0
11.26 11.268620 4.90 73.180 133.333330
11.25 11.26050 4.90 72.640 136.0
11.24 11.252370 4.90 72.10 138.666670
11.23 11.244240 4.90 72.380 141.333330
11.22 11.227990 4.90 72.660 144.0
11.21 11.219860 4.90 72.940 146.666670
11.20 11.211740 4.90 73.220 149.333330
11.19 11.203610 4.90 73.50 152.0
11.18 11.195490 4.880 74.0 154.666670
11.17 11.179230 4.860 74.50 157.333330
11.16 11.171560 4.840 75.0 160.0
11.15 11.163880 4.820 75.50 152.666670
11.14 11.147630 4.80 76.0 145.333330
11.13 11.13950 4.80 75.80 138.0
11.12 11.131380 4.80 75.60 130.666670
11.11 11.123250 4.80 75.40 123.333330
11.10 11.115120 4.80 75.20 118.333330
11.09 11.098870 4.80 75.0 113.333330
11.08 11.090740 4.80 74.70 108.333330
11.07 11.082620 4.80 74.40 103.333330
11.06 11.066370 4.80 74.10 110.0
11.05 11.058240 4.80 73.80 116.666670
11.04 11.050110 4.820 73.780 123.333330
11.03 11.041990 4.840 73.760 130.0
11.02 11.033860 4.860 73.740 136.666670
11.01 11.017610 4.880 73.720 141.59140
11.00 11.009480 4.90 73.70 146.516130
10.99 11.001350 4.880 74.30 151.440860
10.98 10.993230 4.860 74.90 156.365590
10.97 10.98510 4.840 75.50 161.290320
10.96 10.968850 4.820 76.10 153.032260
10.95 10.960720 4.80 76.70 144.774190
10.94 10.95260 4.80 76.540 136.516130
10.93 10.944470 4.80 76.380 128.258060
10.92 10.936340 4.80 76.220 120.0
10.91 10.919190 4.80 76.060 126.666670
10.90 10.911060 4.80 75.90 133.333330
10.89 10.902930 4.80 74.840 140.0
10.88 10.886680 4.80 73.780 146.666670
10.87 10.878560 4.80 72.720 153.333330
10.86 10.870430 4.80 71.660 152.0
10.85 10.86230 4.80 70.60 150.666670
10.84 10.854180 4.80 71.10 149.333330
10.83 10.837920 4.80 71.60 148.0
10.82 10.82980 4.80 72.10 146.666670
10.81 10.821670 4.80 72.60 142.0
10.80 10.813540 4.80 73.10 137.333330
10.79 10.805420 4.80 73.350 132.666670
10.78 10.789160 4.80 73.60 128.0
10.77 10.780590 4.80 73.850 123.333330
10.76 10.772010 4.80 74.10 128.0
10.75 10.763880 4.80 74.240 132.666670
10.74 10.755760 4.80 74.380 137.333330
10.73 10.73950 4.80 74.520 142.0
10.72 10.731380 4.80 74.660 146.666670
10.71 10.723250 4.80 74.80 153.333330
10.70 10.7070 4.780 74.020 160.0
10.69 10.698870 4.760 73.240 166.666670
10.68 10.690740 4.740 72.460 173.333330
10.67 10.682620 4.720 71.680 171.333330
10.66 10.674490 4.70 70.90 169.333330
10.65 10.659140 4.720 70.60 167.333330
10.64 10.651020 4.740 70.30 165.333330
10.63 10.642890 4.760 70.0 163.333330
10.62 10.626640 4.780 69.70 158.666670
10.61 10.618510 4.80 69.40 154.0
10.60 10.610380 4.80 70.480 149.333330
10.59 10.602260 4.80 71.560 144.666670
10.58 10.594130 4.80 72.640 140.0
10.57 10.577880 4.80 73.720 142.666670
10.56 10.569750 4.80 74.80 145.333330
10.55 10.561630 4.820 74.380 148.0
10.54 10.55350 4.840 73.960 150.666670
10.53 10.545370 4.860 73.540 153.333330
10.52 10.529120 4.880 73.120 158.666670
10.51 10.520990 4.90 72.70 164.0
10.50 10.512870 4.90 72.80 169.333330
10.49 10.496610 4.90 72.90 174.666670
10.48 10.488490 4.90 73.0 180.0
10.47 10.480360 4.90 73.10 178.0
10.46 10.472230 4.90 73.20 176.0
10.45 10.464110 4.90 73.240 174.0
10.44 10.447860 4.90 73.280 172.0
10.43 10.439730 4.90 73.320 170.0
10.42 10.43160 4.90 73.360 159.166670
10.41 10.423480 4.90 73.40 148.333330
10.40 10.415350 4.90 73.80 137.50
10.39 10.39910 4.90 74.20 126.666670
10.38 10.390970 4.90 74.60 128.0
10.37 10.382840 4.90 75.0 129.333330
10.36 10.366590 4.90 75.40 130.666670
10.35 10.358470 4.90 74.550 132.0
10.34 10.350340 4.90 73.70 133.333330
10.33 10.342210 4.90 72.850 138.666670
10.32 10.334090 4.90 72.0 144.0
10.31 10.317830 4.90 72.280 149.333330
10.30 10.309710 4.90 72.560 154.666670
10.29 10.301580 4.90 72.840 160.0
10.28 10.293450 4.90 73.120 154.0
10.27 10.285330 4.90 73.40 148.0
10.26 10.269070 4.90 73.880 142.0
10.25 10.260950 4.90 74.360 136.0
10.24 10.252820 4.90 74.840 130.0
10.23 10.236570 4.90 75.320 125.333330
10.22 10.228440 4.90 75.80 120.666670
10.21 10.220320 4.90 74.90 116.0
10.20 10.212190 4.90 74.0 111.333330
10.19 10.204060 4.90 73.10 106.666670
10.18 10.187810 4.90 72.20 119.333330
10.17 10.179680 4.90 71.30 132.0
10.16 10.171560 4.90 71.940 144.666670
10.15 10.163430 4.90 72.580 157.333330
10.14 10.15530 4.90 73.220 170.0
10.13 10.139050 4.90 73.860 166.0
10.12 10.130930 4.90 74.50 162.0
10.11 10.12280 4.90 73.820 158.0
10.10 10.106550 4.90 73.140 154.0
10.09 10.098420 4.90 72.460 150.0
10.08 10.090290 4.90 71.780 149.677420
10.07 10.082170 4.90 71.10 149.354840
10.06 10.074040 4.880 71.20 149.032260
10.05 10.057790 4.860 71.30 148.709680
10.04 10.049660 4.840 71.40 148.38710
10.03 10.041530 4.820 71.50 148.790320
10.02 10.033410 4.80 71.60 149.193550
10.01 10.025280 4.80 71.780 149.596770
10.00 10.009030 4.80 71.960 150.0
9.99 10.00090 4.80 72.140 155.333330
9.98 9.992780 4.80 72.320 160.666670
9.97 9.976520 4.80 72.50 166.0
9.96 9.96840 4.8250 72.550 171.333330
9.95 9.960270 4.850 72.60 176.666670
9.94 9.951690 4.8750 72.650 177.333330
9.93 9.943120 4.90 72.70 178.0
9.92 9.926860 4.90 73.0 178.666670
9.91 9.918740 4.90 73.30 179.333330
9.90 9.910610 4.90 73.60 180.0
9.89 9.902480 4.90 73.90 172.666670
9.88 9.894360 4.90 74.20 165.333330
9.87 9.87810 4.880 73.620 158.0
9.86 9.869980 4.860 73.040 150.666670
9.85 9.861850 4.840 72.460 143.333330
9.84 9.853720 4.820 71.880 146.666670
9.83 9.84560 4.80 71.30 150.0
9.82 9.829350 4.820 71.760 153.333330
9.81 9.821670 4.840 72.220 156.666670
9.80 9.8140 4.860 72.680 160.0
9.79 9.797740 4.880 73.140 157.333330
9.78 9.789620 4.90 73.60 154.666670
9.77 9.781490 4.860 74.10 152.0
9.76 9.773360 4.820 74.60 149.333330
9.75 9.765240 4.780 75.10 146.666670
9.74 9.748980 4.740 75.60 150.0
9.73 9.740860 4.70 76.10 153.333330
9.72 9.732730 4.720 74.90 156.666670
9.71 9.717380 4.740 73.70 160.0
9.70 9.709260 4.760 72.50 163.333330
9.69 9.701130 4.780 71.30 161.333330
9.68 9.6930 4.80 70.10 159.333330
9.67 9.684880 4.80 70.360 157.333330
9.66 9.668620 4.80 70.620 155.333330
9.65 9.66050 4.80 70.880 153.333330
9.64 9.652370 4.80 71.140 158.333330
9.63 9.644240 4.80 71.40 163.333330
9.62 9.636120 4.780 72.50 168.333330
9.61 9.619860 4.760 73.60 173.333330
