~VERSION INFORMATION SECTION
VERS. 2.0 : CWLS LAS-VERSION 2.0
WRAP. NO : One line per depth step
~WELL INFORMATION SECTION
# MNEM.UNIT VALUE/NAME DESCRIPTION
#-------- -------------- ---------------------
STRT.Metres 16 : Start
STOP.Metres -0.09 : Stop
STEP.Metres -0.01 : Step
NULL.  -999.25 :NULL VALUE
DATE. 2025-43-11 : DATE
~CURVE INFORMATION SECTION
DEPTH.Metres : 0 Depth
Depth. : 1 Depth
Incline.Deg : 2 Incline
Azimuth.Deg : 3 Azimuth
GR.CPS : 4 GR
~PARAMETER INFORMATION SECTION
~OTHER
#-------------------------------------------------
#Produced By: GeoVista Logger - Version 7.1.107.0
Natural Gamma Sonde - 6447
Verticality Sonde - 6292
#-------------------------------------------------
~ASCII LOG DATA
# ...
9.60 9.612190 4.740 74.70 176.0
9.59 9.604510 4.720 75.80 178.666670
9.58 9.588260 4.70 76.90 181.333330
9.57 9.580140 4.720 76.020 184.0
9.56 9.572010 4.740 75.140 186.666670
9.55 9.563880 4.760 74.260 168.666670
9.54 9.555760 4.780 73.380 150.666670
9.53 9.53950 4.80 72.50 132.666670
9.52 9.531380 4.80 72.750 114.666670
9.51 9.523250 4.80 73.0 96.666670
9.50 9.5070 4.80 73.250 102.0
9.49 9.498870 4.80 73.50 107.333330
9.48 9.490740 4.780 74.240 112.666670
9.47 9.482620 4.760 74.980 118.0
9.46 9.474490 4.740 75.720 123.333330
9.45 9.458240 4.720 76.460 130.0
9.44 9.450110 4.70 77.20 136.666670
9.43 9.441990 4.70 76.10 143.333330
9.42 9.433860 4.70 75.0 150.0
9.41 9.425730 4.70 73.90 156.666670
9.40 9.409480 4.70 72.80 148.666670
9.39 9.401350 4.70 71.70 140.666670
9.38 9.393230 4.70 71.780 132.666670
9.37 9.376980 4.70 71.860 124.666670
9.36 9.368850 4.70 71.940 116.666670
9.35 9.360720 4.70 72.020 130.666670
9.34 9.35260 4.70 72.10 144.666670
9.33 9.344470 4.680 72.80 158.666670
9.32 9.328220 4.660 73.50 172.666670
9.31 9.320090 4.640 74.20 186.666670
9.30 9.311960 4.620 74.90 184.0
9.29 9.303840 4.60 75.60 181.333330
9.28 9.295710 4.640 75.320 178.666670
9.27 9.278560 4.680 75.040 176.0
9.26 9.270430 4.720 74.760 173.333330
9.25 9.26230 4.760 74.480 164.166670
9.24 9.254180 4.80 74.20 155.0
9.23 9.246050 4.7750 74.1250 145.833330
9.22 9.22980 4.750 74.050 136.666670
9.21 9.221220 4.7250 73.9750 131.333330
9.20 9.212640 4.70 73.90 126.0
9.19 9.196390 4.70 74.080 120.666670
9.18 9.188260 4.70 74.260 115.333330
9.17 9.180140 4.70 74.440 110.0
9.16 9.172010 4.70 74.620 128.0
9.15 9.163880 4.70 74.80 146.0
9.14 9.147630 4.70 74.30 164.0
9.13 9.13950 4.70 73.80 182.0
9.12 9.131380 4.70 73.30 200.0
9.11 9.123250 4.70 72.80 198.0
9.10 9.115120 4.70 72.30 196.0
9.09 9.098870 4.70 72.040 194.0
9.08 9.090740 4.70 71.780 192.0
9.07 9.082620 4.70 71.520 190.0
9.06 9.066370 4.70 71.260 184.666670
9.05 9.058240 4.70 71.0 179.333330
9.04 9.050110 4.680 71.80 174.0
9.03 9.041990 4.660 72.60 168.666670
9.02 9.033860 4.640 73.40 163.333330
9.01 9.017610 4.620 74.20 153.333330
9.00 9.009480 4.60 75.0 143.333330
8.99 9.001350 4.60 74.780 133.333330
8.98 8.993230 4.60 74.560 123.333330
8.97 8.98510 4.60 74.340 113.333330
8.96 8.968850 4.60 74.120 128.666670
8.95 8.960720 4.60 73.90 144.0
8.94 8.95260 4.60 73.680 159.333330
8.93 8.936340 4.60 73.460 174.666670
8.92 8.928220 4.60 73.240 190.0
8.91 8.920090 4.60 73.020 183.0
8.90 8.911960 4.60 72.80 176.0
8.89 8.903840 4.620 73.040 169.0
8.88 8.887580 4.640 73.280 162.0
8.87 8.879460 4.660 73.520 155.0
8.86 8.871330 4.680 73.760 151.250
8.85 8.863660 4.70 74.0 147.50
8.84 8.855980 4.720 73.980 143.750
8.83 8.839730 4.740 73.960 140.0
8.82 8.83160 4.760 73.940 140.0
8.81 8.823480 4.780 73.920 140.0
8.80 8.807220 4.80 73.90 140.0
8.79 8.79910 4.7750 73.150 140.0
8.78 8.790970 4.750 72.40 140.0
8.77 8.782840 4.7250 71.650 150.666670
8.76 8.774720 4.70 70.90 161.333330
8.75 8.758470 4.740 71.340 172.0
8.74 8.750790 4.780 71.780 182.666670
8.73 8.743120 4.820 72.220 193.333330
8.72 8.726860 4.860 72.660 188.666670
8.71 8.718740 4.90 73.10 184.0
8.70 8.710610 4.920 73.20 179.333330
8.69 8.702480 4.940 73.30 174.666670
8.68 8.694360 4.960 73.40 170.0
8.67 8.67810 4.980 73.50 168.666670
8.66 8.670430 5.0 73.60 167.333330
8.65 8.662750 4.990 73.390 166.0
8.64 8.64650 4.980 73.180 164.666670
8.63 8.638370 4.970 72.970 163.333330
8.62 8.630250 4.960 72.760 161.333330
8.61 8.622120 4.950 72.550 159.333330
8.60 8.6140 4.940 72.340 157.333330
8.59 8.597740 4.930 72.130 155.333330
8.58 8.589620 4.920 71.920 153.333330
8.57 8.581490 4.910 71.710 154.166670
8.56 8.573810 4.90 71.50 155.0
8.55 8.566140 4.90 71.90 155.833330
8.54 8.549890 4.90 72.30 156.666670
8.53 8.541760 4.90 72.70 146.666670
8.52 8.533630 4.90 73.10 136.666670
8.51 8.517380 4.90 73.50 126.666670
8.50 8.509260 4.880 73.40 116.666670
8.49 8.501130 4.860 73.30 106.666670
8.48 8.4930 4.840 73.20 118.666670
8.47 8.484880 4.820 73.10 130.666670
8.46 8.468620 4.80 73.0 142.666670
8.45 8.46050 4.80 73.0 154.666670
8.44 8.452370 4.80 73.0 166.666670
8.43 8.444240 4.80 73.0 163.333330
8.42 8.436120 4.80 73.0 160.0
8.41 8.419860 4.80 72.80 156.666670
8.40 8.411740 4.80 72.60 153.333330
8.39 8.403610 4.80 72.40 150.0
8.38 8.387360 4.80 72.20 144.0
8.37 8.379230 4.80 72.0 138.0
8.36 8.371110 4.80 71.980 132.0
8.35 8.362980 4.80 71.960 126.0
8.34 8.354850 4.80 71.940 120.0
8.33 8.33860 4.80 71.920 128.0
8.32 8.330020 4.80 71.90 136.0
8.31 8.321440 4.80 71.840 144.0
8.30 8.313320 4.80 71.780 152.0
8.29 8.305190 4.80 71.720 160.0
8.28 8.288940 4.80 71.660 160.258060
8.27 8.280810 4.80 71.60 160.516130
8.26 8.272690 4.80 72.080 160.774190
8.25 8.256430 4.80 72.560 161.032260
8.24 8.248310 4.80 73.040 161.290320
8.23 8.240180 4.80 73.520 154.365590
8.22 8.232050 4.80 74.0 147.440860
8.21 8.223930 4.80 73.280 140.516130
8.20 8.207670 4.80 72.560 133.59140
8.19 8.19910 4.80 71.840 126.666670
8.18 8.190520 4.80 71.120 130.0
8.17 8.182390 4.80 70.40 133.333330
8.16 8.174270 4.80 70.90 136.666670
8.15 8.158010 4.80 71.40 140.0
8.14 8.149440 4.80 71.90 143.333330
8.13 8.140860 4.80 72.40 152.666670
8.12 8.132730 4.80 71.920 162.0
8.11 8.12460 4.80 71.440 171.333330
8.10 8.108350 4.80 70.960 180.666670
8.09 8.100230 4.80 70.480 190.0
8.08 8.09210 4.80 70.0 180.833330
8.07 8.083970 4.80 70.90 171.666670
8.06 8.075850 4.80 71.80 162.50
8.05 8.059590 4.80 72.70 153.333330
8.04 8.051470 4.80 73.60 156.0
8.03 8.043340 4.80 74.50 158.666670
8.02 8.027090 4.780 74.060 161.333330
8.01 8.018960 4.760 73.620 164.0
8.00 8.010840 4.740 73.180 166.666670
7.99 8.002710 4.720 72.740 166.0
7.98 7.994580 4.70 72.30 165.333330
7.97 7.978330 4.680 71.820 164.666670
7.96 7.970650 4.660 71.340 164.0
7.95 7.962980 4.640 70.860 163.333330
7.94 7.946730 4.620 70.380 150.666670
7.93 7.93860 4.60 69.90 138.0
7.92 7.930470 4.60 69.880 125.333330
7.91 7.922350 4.60 69.860 112.666670
7.90 7.914220 4.60 69.840 100.0
7.89 7.897970 4.60 69.820 113.333330
7.88 7.889840 4.60 69.80 126.666670
7.87 7.881720 4.620 70.260 140.0
7.86 7.866370 4.640 70.720 153.333330
7.85 7.858240 4.660 71.180 166.666670
7.84 7.850110 4.680 71.640 160.666670
7.83 7.841990 4.70 72.10 154.666670
7.82 7.833860 4.680 72.120 148.666670
7.81 7.817610 4.660 72.140 142.666670
7.80 7.809480 4.640 72.160 136.666670
7.79 7.801350 4.620 72.180 158.333330
7.78 7.793230 4.60 72.20 180.0
7.77 7.78510 4.580 72.180 201.666670
7.76 7.769750 4.560 72.160 223.333330
7.75 7.761630 4.540 72.140 215.333330
7.74 7.75350 4.520 72.120 207.333330
7.73 7.737250 4.50 72.10 199.333330
7.72 7.729120 4.50 71.740 191.333330
7.71 7.720990 4.50 71.380 183.333330
7.70 7.712870 4.50 71.020 182.0
7.69 7.704740 4.50 70.660 180.666670
7.68 7.689390 4.50 70.30 179.333330
7.67 7.681260 4.5250 70.6750 178.0
7.66 7.673140 4.550 71.050 176.666670
7.65 7.656880 4.5750 71.4250 169.333330
7.64 7.648760 4.60 71.80 162.0
7.63 7.640630 4.580 72.50 154.666670
7.62 7.632510 4.560 73.20 147.333330
7.61 7.624380 4.540 73.90 140.0
7.60 7.608130 4.520 74.60 143.333330
7.59 7.60 4.50 75.30 146.666670
7.58 7.591870 4.50 74.340 150.0
7.57 7.576520 4.50 73.380 153.333330
7.56 7.56840 4.50 72.420 156.666670
7.55 7.560270 4.50 71.460 164.0
7.54 7.552140 4.50 70.50 171.333330
7.53 7.544020 4.50 70.50 178.666670
7.52 7.527770 4.50 70.50 186.0
7.51 7.519640 4.50 70.50 193.333330
7.50 7.511510 4.50 70.50 182.666670
7.49 7.503390 4.50 70.50 172.0
7.48 7.495260 4.50 70.940 161.333330
7.47 7.479010 4.50 71.380 150.666670
7.46 7.470880 4.50 71.820 140.0
7.45 7.462750 4.50 72.260 154.666670
7.44 7.44560 4.50 72.70 169.333330
7.43 7.437920 4.50 72.320 184.0
7.42 7.430250 4.50 71.940 198.666670
7.41 7.421670 4.50 71.560 213.333330
7.40 7.413090 4.50 71.180 199.166670
7.39 7.396840 4.50 70.80 185.0
7.38 7.388710 4.5250 71.30 170.833330
7.37 7.380590 4.550 71.80 156.666670
7.36 7.372460 4.5750 72.30 154.365590
7.35 7.364330 4.60 72.80 152.064520
7.34 7.348080 4.60 72.720 149.763440
7.33 7.339950 4.60 72.640 147.462370
7.32 7.331830 4.60 72.560 145.161290
