~VERSION INFORMATION SECTION
VERS. 2.0 : CWLS LAS-VERSION 2.0
WRAP. NO : One line per depth step
~WELL INFORMATION SECTION
# MNEM.UNIT VALUE/NAME DESCRIPTION
#-------- -------------- ---------------------
STRT.Metres 16 : Start
STOP.Metres -0.09 : Stop
STEP.Metres -0.01 : Step
NULL.  -999.25 :NULL VALUE
DATE. 2025-43-11 : DATE
~CURVE INFORMATION SECTION
DEPTH.Metres : 0 Depth
Depth. : 1 Depth
Incline.Deg : 2 Incline
Azimuth.Deg : 3 Azimuth
GR.CPS : 4 GR
~PARAMETER INFORMATION SECTION
~OTHER
#-------------------------------------------------
#Produced By: GeoVista Logger - Version 7.1.107.0
Natural Gamma Sonde - 6447
Verticality Sonde - 6292
#-------------------------------------------------
~ASCII LOG DATA
16.00 -999.25 -999.25 -999.25 -999.25
15.99 15.99910 -999.25 -999.25 -999.25
15.98 15.989620 -999.25 -999.25 -999.25
15.97 15.980140 1.6750 19.1250 -999.25
15.96 15.97020 3.350 38.250 -999.25
15.95 15.960270 5.0250 57.3750 -999.25
15.94 15.950790 6.70 76.50 -999.25
15.93 15.941310 6.680 76.60 -999.25
15.92 15.931380 6.660 76.70 -999.25
15.91 15.921440 6.640 76.80 -999.25
15.90 15.911960 6.620 76.90 -999.25
15.89 15.902480 6.60 77.0 -999.25
15.88 15.892550 6.60 77.066670 -999.25
15.87 15.882620 6.60 77.133330 -999.25
15.86 15.872690 6.60 77.20 -999.25
15.85 15.862750 6.60 77.266670 -999.25
15.84 15.852820 6.60 77.333330 -999.25
15.83 15.842890 6.60 77.40 -999.25
15.82 15.832960 6.60 76.860 -999.25
15.81 15.823020 6.60 76.320 -999.25
15.80 15.813090 6.60 75.780 -999.25
15.79 15.803160 6.60 75.240 -999.25
15.78 15.793230 6.60 74.70 -999.25
15.77 15.78330 6.60 75.20 -999.25
15.76 15.773360 6.60 75.70 -999.25
15.75 15.763430 6.60 76.20 -999.25
15.74 15.75350 6.60 76.70 -999.25
15.73 15.743570 6.60 77.20 -999.25
15.72 15.733630 6.60 77.70 -999.25
15.71 15.72370 6.580 77.480 -999.25
15.70 15.713320 6.560 77.260 -999.25
15.69 15.702930 6.540 77.040 -999.25
15.68 15.6930 6.520 76.820 -999.25
15.67 15.683070 6.50 76.60 -999.25
15.66 15.673140 6.450 76.216670 -999.25
15.65 15.663210 6.40 75.833330 -999.25
15.64 15.653270 6.350 75.450 -999.25
15.63 15.643340 6.30 75.066670 -999.25
15.62 15.632960 6.250 74.683330 -999.25
15.61 15.622570 6.20 74.30 148.7220
15.60 15.612190 6.233330 74.650 149.3610
15.59 15.601810 6.266670 75.0 150.0
15.58 15.591420 6.30 75.350 131.666670
15.57 15.581040 6.333330 75.70 113.333330
15.56 15.570650 6.366670 76.050 135.555560
15.55 15.560270 6.40 76.40 157.777780
15.54 15.550340 6.350 76.283330 180.0
15.53 15.540410 6.30 76.166670 166.666670
15.52 15.530470 6.250 76.050 153.333330
15.51 15.520540 6.20 75.933330 140.0
15.50 15.510610 6.150 75.816670 126.666670
15.49 15.500680 6.10 75.70 135.833330
15.48 15.490740 6.150 75.60 145.0
15.47 15.480810 6.20 75.50 154.166670
15.46 15.470880 6.250 75.40 163.333330
15.45 15.460950 6.30 75.30 166.666670
15.44 15.451020 6.350 75.20 170.0
15.43 15.441080 6.40 75.10 173.333330
15.42 15.431150 6.40 74.683330 176.666670
15.41 15.421220 6.40 74.266670 174.666670
15.40 15.410840 6.40 73.850 172.666670
15.39 15.400450 6.40 73.433330 170.666670
15.38 15.393830 6.40 73.016670 168.666670
15.37 15.387210 6.40 72.60 166.666670
15.36 15.380590 6.40 72.733330 173.333330
15.35 15.37020 6.40 72.866670 180.0
15.34 15.359820 6.40 73.0 186.666670
15.33 15.349440 6.40 73.133330 193.333330
15.32 15.339050 6.40 73.266670 200.0
15.31 15.328670 6.40 73.40 199.333330
15.30 15.318280 6.40 73.683330 198.666670
15.29 15.30790 6.40 73.966670 198.0
15.28 15.297520 6.40 74.250 197.333330
15.27 15.287130 6.40 74.533330 196.666670
15.26 15.276750 6.40 74.816670 193.333330
15.25 15.266370 6.40 75.10 190.0
15.24 15.255980 6.366670 74.666670 186.666670
15.23 15.24560 6.333330 74.233330 183.333330
15.22 15.235210 6.30 73.80 180.0
15.21 15.224380 6.266670 73.366670 193.888890
15.20 15.213540 6.233330 72.933330 207.777780
15.19 15.203160 6.20 72.50 221.666670
15.18 15.192780 6.216670 72.683330 235.555560
15.17 15.182840 6.233330 72.866670 249.444440
15.16 15.172910 6.250 73.050 263.333330
15.15 15.163430 6.266670 73.233330 254.666670
15.14 15.153950 6.283330 73.416670 246.0
15.13 15.144470 6.30 73.60 237.333330
15.12 15.134990 6.283330 73.416670 228.666670
15.11 15.125960 6.266670 73.233330 220.0
15.10 15.116930 6.250 73.050 213.333330
15.09 15.098870 6.233330 72.866670 206.666670
15.08 15.090290 6.216670 72.683330 200.0
15.07 15.081720 6.20 72.50 193.333330
15.06 15.072690 6.185710 72.742860 186.666670
15.05 15.063660 6.171430 72.985710 180.0
15.04 15.055080 6.157140 73.228570 172.222220
15.03 15.04650 6.142860 73.471430 164.444440
15.02 15.029350 6.128570 73.714290 156.666670
15.01 15.020770 6.114290 73.957140 148.888890
15.00 15.012190 6.10 74.20 141.111110
14.99 15.003610 6.10 74.933330 133.333330
14.98 14.995030 6.10 75.666670 137.037040
14.97 14.977880 6.10 76.40 140.740740
14.96 14.96930 6.10 77.133330 144.444440
14.95 14.960720 6.10 77.866670 148.148150
14.94 14.952140 6.10 78.60 151.851850
14.93 14.943570 6.10 77.650 155.555560
14.92 14.927310 6.10 76.70 157.407410
14.91 14.918740 6.10 75.750 159.259260
14.90 14.910160 6.10 74.80 161.111110
14.89 14.902030 6.10 73.850 162.962960
14.88 14.893910 6.10 72.90 164.814810
14.87 14.876750 6.066670 73.183330 166.666670
14.86 14.868620 6.033330 73.466670 162.007170
14.85 14.86050 6.0 73.750 157.347670
14.84 14.851920 5.966670 74.033330 152.688170
14.83 14.843340 5.933330 74.316670 148.028670
14.82 14.834760 5.90 74.60 143.369180
14.81 14.826190 5.80 74.240 138.709680
14.80 14.809930 5.70 73.880 142.258060
14.79 14.801350 5.60 73.520 145.806450
14.78 14.792780 5.50 73.160 149.354840
14.77 14.784650 5.40 72.80 152.903230
14.76 14.776520 5.420 73.320 156.451610
14.75 14.759370 5.440 73.840 160.0
14.74 14.751240 5.460 74.360 150.0
14.73 14.743120 5.480 74.880 140.0
14.72 14.734540 5.50 75.40 130.0
14.71 14.725960 5.60 75.120 120.0
14.70 14.709710 5.70 74.840 110.0
14.69 14.701580 5.80 74.560 100.0
14.68 14.693450 5.90 74.280 103.888890
14.67 14.67630 6.0 74.0 107.777780
14.66 14.668170 6.0 73.740 111.666670
14.65 14.660050 6.0 73.480 115.555560
14.64 14.651470 6.0 73.220 119.444440
14.63 14.642890 6.0 72.960 123.333330
14.62 14.634760 6.0 72.70 128.888890
14.61 14.626640 5.980 73.60 134.444440
14.60 14.609480 5.960 74.50 140.0
14.59 14.601350 5.940 75.40 145.555560
14.58 14.593230 5.920 76.30 151.111110
14.57 14.584650 5.90 77.20 156.666670
14.56 14.576070 5.90 76.60 155.0
14.55 14.559820 5.90 76.0 153.333330
14.54 14.551240 5.90 75.40 151.666670
14.53 14.542660 5.90 74.80 150.0
14.52 14.534540 5.90 74.20 148.333330
14.51 14.526410 5.883330 73.866670 146.666670
14.50 14.509260 5.866670 73.533330 150.0
14.49 14.501130 5.850 73.20 153.333330
14.48 14.4930 5.833330 72.866670 156.666670
14.47 14.483970 5.816670 72.533330 160.0
14.46 14.474940 5.80 72.20 163.333330
14.45 14.457790 5.80 72.860 166.666670
14.44 14.449660 5.80 73.520 170.0
14.43 14.441530 5.80 74.180 162.777780
14.42 14.432960 5.80 74.840 155.555560
14.41 14.424380 5.80 75.50 148.333330
14.40 14.408130 5.750 75.4750 141.111110
14.39 14.40 5.70 75.450 133.888890
14.38 14.391870 5.650 75.4250 126.666670
14.37 14.38330 5.60 75.40 127.222220
14.36 14.374720 5.616670 74.516670 127.777780
14.35 14.358470 5.633330 73.633330 128.333330
14.34 14.350340 5.650 72.750 128.888890
14.33 14.342210 5.666670 71.866670 129.444440
14.32 14.333630 5.683330 70.983330 130.0
14.31 14.325060 5.70 70.10 128.333330
14.30 14.30880 5.650 71.10 126.666670
14.29 14.300680 5.60 72.10 125.0
14.28 14.292550 5.550 73.10 123.333330
14.27 14.27630 5.50 74.10 121.666670
14.26 14.268170 5.533330 74.383330 120.0
14.25 14.260050 5.566670 74.666670 128.0
14.24 14.251920 5.60 74.950 136.0
14.23 14.243790 5.633330 75.233330 144.0
14.22 14.227540 5.666670 75.516670 152.0
14.21 14.219410 5.70 75.80 160.0
14.20 14.211290 5.60 75.340 157.777780
14.19 14.202710 5.50 74.880 155.555560
14.18 14.194130 5.40 74.420 153.333330
14.17 14.177880 5.30 73.960 151.111110
14.16 14.169750 5.20 73.50 148.888890
14.15 14.161630 5.260 73.60 146.666670
14.14 14.15350 5.320 73.70 138.0
14.13 14.145370 5.380 73.80 129.333330
14.12 14.129120 5.440 73.90 120.666670
14.11 14.120990 5.50 74.0 112.0
14.10 14.112870 5.520 75.320 103.333330
14.09 14.104290 5.540 76.640 108.0
14.08 14.095710 5.560 77.960 112.666670
14.07 14.079460 5.580 79.280 117.333330
14.06 14.071330 5.60 80.60 122.0
14.05 14.063210 5.60 80.380 126.666670
14.04 14.046950 5.60 80.160 130.0
14.03 14.038830 5.60 79.940 133.333330
14.02 14.03070 5.60 79.720 136.666670
14.01 14.022120 5.60 79.50 140.0
14.00 14.013540 5.60 77.6250 143.333330
13.99 13.997290 5.60 75.750 136.666670
13.98 13.989160 5.60 73.8750 130.0
13.97 13.981040 5.60 72.0 123.333330
13.96 13.972460 5.60 72.520 116.666670
13.95 13.963880 5.60 73.040 110.0
13.94 13.947630 5.60 73.560 111.809520
