~VERSION INFORMATION SECTION
VERS. 2.0 : CWLS LAS-VERSION 2.0
WRAP. NO : One line per depth step
~WELL INFORMATION SECTION
# MNEM.UNIT VALUE/NAME DESCRIPTION
#-------- -------------- ---------------------
STRT.Metres 16 : Start
STOP.Metres -0.09 : Stop
STEP.Metres -0.01 : Step
NULL.  -999.25 :NULL VALUE
DATE. 2025-43-11 : DATE
~CURVE INFORMATION SECTION
DEPTH.Metres : 0 Depth
Depth. : 1 Depth
Incline.Deg : 2 Incline
Azimuth.Deg : 3 Azimuth
GR.CPS : 4 GR
~PARAMETER INFORMATION SECTION
~OTHER
#-------------------------------------------------
#Produced By: GeoVista Logger - Version 7.1.107.0
Natural Gamma Sonde - 6447
Verticality Sonde - 6292
#-------------------------------------------------
~ASCII LOG DATA
# ...
2.79 2.79910 3.260 70.940 167.333330
2.78 2.790970 3.30 70.50 168.0
2.77 2.782840 3.260 70.660 168.666670
2.76 2.766590 3.220 70.820 169.333330
2.75 2.758470 3.180 70.980 170.0
2.74 2.750340 3.140 71.140 168.903230
2.73 2.742210 3.10 71.30 167.806450
2.72 2.734090 3.080 71.140 166.709680
2.71 2.717830 3.060 70.980 165.61290
2.70 2.709710 3.040 70.820 164.516130
2.69 2.701580 3.020 70.660 170.946240
2.68 2.6930 3.0 70.50 177.376340
2.67 2.684420 3.0 71.280 183.806450
2.66 2.668170 3.0 72.060 190.236560
2.65 2.660050 3.0 72.840 196.666670
2.64 2.651920 3.0 73.620 187.333330
2.63 2.643790 3.0 74.40 178.0
2.62 2.635670 3.0250 74.250 168.666670
2.61 2.619410 3.050 74.10 159.333330
2.60 2.611290 3.0750 73.950 150.0
2.59 2.603160 3.10 73.80 148.0
2.58 2.586910 3.060 73.50 146.0
2.57 2.578780 3.020 73.20 144.0
2.56 2.570650 2.980 72.90 142.0
2.55 2.562530 2.940 72.60 140.0
2.54 2.55440 2.90 72.30 137.50
2.53 2.539050 2.820 71.0 135.0
2.52 2.530470 2.740 69.70 132.50
2.51 2.52190 2.660 68.40 130.0
2.50 2.513770 2.580 67.10 129.454550
2.49 2.505640 2.50 65.80 128.909090
2.48 2.489390 2.560 67.620 128.363640
2.47 2.481260 2.620 69.440 127.818180
2.46 2.473140 2.680 71.260 127.272730
2.45 2.456880 2.740 73.080 132.34450
2.44 2.448760 2.80 74.90 137.416270
2.43 2.440630 2.760 75.460 142.488040
2.42 2.432510 2.720 76.020 147.559810
2.41 2.424380 2.680 76.580 152.631580
2.40 2.408130 2.640 77.140 140.105260
2.39 2.399550 2.60 77.70 127.578950
2.38 2.390970 2.640 76.480 115.052630
2.37 2.382840 2.680 75.260 102.526320
2.36 2.374720 2.720 74.040 90.0
2.35 2.359370 2.760 72.820 106.0
2.34 2.351240 2.80 71.60 122.0
2.33 2.343120 2.780 71.460 138.0
2.32 2.326860 2.760 71.320 154.0
2.31 2.318740 2.740 71.180 170.0
2.30 2.310610 2.720 71.040 170.0
2.29 2.302480 2.70 70.90 170.0
2.28 2.294360 2.680 71.260 170.0
2.27 2.27810 2.660 71.620 170.0
2.26 2.270430 2.640 71.980 166.0
2.25 2.262750 2.620 72.340 162.0
2.24 2.254180 2.60 72.70 158.0
2.23 2.24560 2.540 72.540 154.0
2.22 2.229350 2.480 72.380 150.0
2.21 2.221220 2.420 72.220 151.333330
2.20 2.213090 2.360 72.060 152.666670
2.19 2.196840 2.30 71.90 154.0
2.18 2.188710 2.3750 71.9250 155.333330
2.17 2.180590 2.450 71.950 156.666670
2.16 2.172010 2.5250 71.9750 150.0
2.15 2.163430 2.60 72.0 143.333330
2.14 2.147180 2.60 72.460 136.666670
2.13 2.139050 2.60 72.920 130.0
2.12 2.130930 2.60 73.380 123.333330
2.11 2.122350 2.60 73.840 123.333330
2.10 2.113770 2.60 74.30 123.333330
2.09 2.097520 2.540 74.420 123.333330
2.08 2.089390 2.480 74.540 123.333330
2.07 2.081260 2.420 74.660 123.333330
2.06 2.072690 2.360 74.780 122.666670
2.05 2.064110 2.30 74.90 122.0
2.04 2.047860 2.30 74.440 121.333330
2.03 2.039730 2.30 73.980 120.666670
2.02 2.03160 2.30 73.520 120.0
2.01 2.023020 2.30 73.060 126.666670
2.00 2.014450 2.30 72.60 133.333330
1.99 1.998190 2.30 71.640 140.0
1.98 1.990070 2.30 70.680 146.666670
1.97 1.981940 2.30 69.720 153.333330
1.96 1.973360 2.30 68.760 152.190480
1.95 1.964790 2.30 67.80 151.047620
1.94 1.948530 2.240 68.820 149.904760
1.93 1.940410 2.180 69.840 148.76190
1.92 1.932280 2.120 70.860 147.619050
1.91 1.92370 2.060 71.880 141.269840
1.90 1.915120 2.0 72.90 134.920630
1.89 1.898870 2.0 73.440 128.571430
1.88 1.890290 2.0 73.980 122.222220
1.87 1.881720 2.0 74.520 119.777780
1.86 1.873590 2.0 75.060 117.333330
1.85 1.865460 2.0 75.60 114.888890
1.84 1.849210 1.980 74.460 112.444440
1.83 1.840630 1.960 73.320 110.0
1.82 1.832050 1.940 72.180 114.451610
1.81 1.823930 1.920 71.040 118.903230
1.80 1.81580 1.90 69.90 123.354840
1.79 1.798650 1.90 72.060 127.806450
1.78 1.790520 1.90 74.220 132.258060
1.77 1.782390 1.90 76.380 132.473120
1.76 1.773810 1.90 78.540 132.688170
1.75 1.765240 1.90 80.70 132.903230
1.74 1.748980 1.920 79.520 133.118280
1.73 1.740410 1.940 78.340 133.333330
1.72 1.731830 1.960 77.160 132.666670
1.71 1.72370 1.980 75.980 132.0
1.70 1.715580 2.0 74.80 131.333330
1.69 1.699320 1.990 75.620 130.666670
1.68 1.69120 1.980 76.440 130.0
1.67 1.683070 1.970 77.260 138.0
1.66 1.674940 1.960 78.080 146.0
1.65 1.666820 1.950 78.90 154.0
1.64 1.649660 1.940 79.720 162.0
1.63 1.641530 1.930 80.540 170.0
1.62 1.633410 1.920 81.360 165.333330
1.61 1.617160 1.910 82.180 160.666670
1.60 1.609030 1.90 83.0 156.0
1.59 1.60090 1.90 80.460 151.333330
1.58 1.592780 1.90 77.920 146.666670
1.57 1.584650 1.90 75.380 149.333330
1.56 1.56840 1.90 72.840 152.0
1.55 1.559820 1.90 70.30 154.666670
1.54 1.551240 1.860 72.960 157.333330
1.53 1.543120 1.820 75.620 160.0
1.52 1.534990 1.780 78.280 156.666670
1.51 1.518740 1.740 80.940 153.333330
1.50 1.510160 1.70 83.60 150.0
1.49 1.501580 1.720 84.040 146.666670
1.48 1.493450 1.740 84.480 143.333330
1.47 1.485330 1.760 84.920 137.50
1.46 1.469070 1.780 85.360 131.666670
1.45 1.460950 1.80 85.80 125.833330
1.44 1.452820 1.780 84.460 120.0
1.43 1.44470 1.760 83.120 117.333330
1.42 1.436570 1.740 81.780 114.666670
1.41 1.419410 1.720 80.440 112.0
1.40 1.411290 1.70 79.10 109.333330
1.39 1.403160 1.70 80.30 106.666670
1.38 1.386910 1.70 81.50 110.0
1.37 1.378780 1.70 82.70 113.333330
1.36 1.370650 1.70 83.90 116.666670
1.35 1.362080 1.70 85.10 120.0
1.34 1.35350 1.7250 85.7250 123.333330
1.33 1.337250 1.750 86.350 128.666670
1.32 1.328670 1.7750 86.9750 134.0
1.31 1.320090 1.80 87.60 139.333330
1.30 1.311960 1.740 87.560 144.666670
1.29 1.303840 1.680 87.520 150.0
1.28 1.287580 1.620 87.480 151.333330
1.27 1.279010 1.560 87.440 152.666670
1.26 1.270430 1.50 87.40 154.0
1.25 1.26230 1.620 87.920 155.333330
1.24 1.254180 1.740 88.440 156.666670
1.23 1.237920 1.860 88.960 160.0
1.22 1.22980 1.980 89.480 163.333330
1.21 1.221670 2.10 90.0 166.666670
1.20 1.213540 2.0 91.120 170.0
1.19 1.205420 1.90 92.240 173.333330
1.18 1.189160 1.80 93.360 170.666670
1.17 1.181040 1.70 94.480 168.0
1.16 1.172910 1.60 95.60 165.333330
1.15 1.156660 1.660 90.920 162.666670
1.14 1.148530 1.720 86.240 160.0
1.13 1.140410 1.780 81.560 158.666670
1.12 1.132280 1.840 76.880 157.333330
1.11 1.124150 1.90 72.20 156.0
1.10 1.10790 1.920 76.320 154.666670
1.09 1.099320 1.940 80.440 153.333330
1.08 1.090740 1.960 84.560 160.666670
1.07 1.082620 1.980 88.680 168.0
1.06 1.074490 2.0 92.80 175.333330
1.05 1.058240 1.920 89.840 182.666670
1.04 1.050110 1.840 86.880 190.0
1.03 1.041990 1.760 83.920 173.818180
1.02 1.033410 1.680 80.960 157.636360
1.01 1.024830 1.60 78.0 141.454550
1.00 1.008580 1.620 78.80 125.272730
0.99 1.000450 1.640 79.60 109.090910
0.98 0.992330 1.660 80.40 116.746410
0.97 0.983750 1.680 81.20 124.401910
0.96 0.975170 1.70 82.0 132.057420
0.95 0.958920 1.640 82.980 139.712920
0.94 0.950340 1.580 83.960 147.368420
0.93 0.941760 1.520 84.940 153.228070
0.92 0.933630 1.460 85.920 159.087720
0.91 0.925510 1.40 86.90 164.947370
0.90 0.909260 1.440 86.340 170.807020
0.89 0.900680 1.480 85.780 176.666670
0.88 0.89210 1.520 85.220 169.720430
0.87 0.883970 1.560 84.660 162.774190
0.86 0.875850 1.60 84.10 155.827960
0.85 0.859590 1.540 85.80 148.881720
0.84 0.851470 1.480 87.50 141.935480
0.83 0.843340 1.420 89.20 136.881720
0.82 0.834760 1.360 90.90 131.827960
0.81 0.826190 1.30 92.60 126.774190
0.80 0.809930 1.260 91.840 121.720430
0.79 0.801810 1.220 91.080 116.666670
0.78 0.793680 1.180 90.320 122.0
0.77 0.777430 1.140 89.560 127.333330
0.76 0.76930 1.10 88.80 132.666670
0.75 0.761170 1.080 91.920 138.0
0.74 -999.25 1.060 95.040 143.333330
0.73 -999.25 1.040 98.160 139.333330
0.72 -999.25 1.020 101.280 135.333330
0.71 -999.25 1.0 104.40 131.333330
0.70 -999.25 0.980 105.60 127.333330
0.69 -999.25 0.960 106.80 123.333330
0.68 -999.25 0.940 108.0 124.666670
0.67 -999.25 0.920 109.20 126.0
0.66 -999.25 0.90 110.40 127.333330
0.65 -999.25 1.020 112.020 128.666670
0.64 -999.25 1.140 113.640 130.0
0.63 -999.25 1.260 115.260 132.0
0.62 -999.25 1.380 116.880 134.0
0.61 -999.25 1.50 118.50 136.0
0.60 -999.25 1.40 114.440 138.0
0.59 -999.25 1.30 110.380 140.0
0.58 -999.25 1.20 106.320 144.666670
0.57 -999.25 1.10 102.260 149.333330
0.56 -999.25 1.0 98.20 154.0
0.55 -999.25 1.0 104.1250 158.666670
0.54 -999.25 1.0 110.050 163.333330
