~VERSION INFORMATION SECTION
VERS. 2.0 : CWLS LAS-VERSION 2.0
WRAP. NO : One line per depth step
~WELL INFORMATION SECTION
# MNEM.UNIT VALUE/NAME DESCRIPTION
#-------- -------------- ---------------------
STRT.Metres 16 : Start
STOP.Metres -0.09 : Stop
STEP.Metres -0.01 : Step
NULL.  -999.25 :NULL VALUE
DATE. 2025-43-11 : DATE
~CURVE INFORMATION SECTION
DEPTH.Metres : 0 Depth
Depth. : 1 Depth
Incline.Deg : 2 Incline
Azimuth.Deg : 3 Azimuth
GR.CPS : 4 GR
~PARAMETER INFORMATION SECTION
~OTHER
#-------------------------------------------------
#Produced By: GeoVista Logger - Version 7.1.107.0
Natural Gamma Sonde - 6447
Verticality Sonde - 6292
#-------------------------------------------------
~ASCII LOG DATA
# ...
7.31 7.32370 4.60 72.480 150.79570
7.30 7.315580 4.60 72.40 156.430110
7.29 7.299320 4.580 72.180 162.064520
7.28 7.29120 4.560 71.960 167.698920
7.27 7.283070 4.540 71.740 173.333330
7.26 7.266820 4.520 71.520 174.0
7.25 7.258690 4.50 71.30 174.666670
7.24 7.250560 4.520 70.980 175.333330
7.23 7.242440 4.540 70.660 176.0
7.22 7.234310 4.560 70.340 176.666670
7.21 7.218060 4.580 70.020 168.666670
7.20 7.209480 4.60 69.70 160.666670
7.19 7.20090 4.60 70.380 152.666670
7.18 7.192780 4.60 71.060 144.666670
7.17 7.184650 4.60 71.740 136.666670
7.16 7.16840 4.60 72.420 144.666670
7.15 7.160270 4.60 73.10 152.666670
7.14 7.152140 4.60 72.780 160.666670
7.13 7.144020 4.60 72.460 168.666670
7.12 7.135890 4.60 72.140 176.666670
7.11 7.119640 4.60 71.820 168.666670
7.10 7.111510 4.60 71.50 160.666670
7.09 7.103390 4.60 71.40 152.666670
7.08 7.087130 4.60 71.30 144.666670
7.07 7.079010 4.60 71.20 136.666670
7.06 7.070880 4.60 71.10 143.333330
7.05 7.062750 4.60 71.0 150.0
7.04 7.054630 4.60 70.720 156.666670
7.03 7.038370 4.60 70.440 163.333330
7.02 7.030250 4.60 70.160 170.0
7.01 7.022120 4.60 69.880 165.0
7.00 7.0140 4.60 69.60 160.0
6.99 7.005870 4.60 70.4750 155.0
6.98 6.989620 4.60 71.350 150.0
6.97 6.981490 4.60 72.2250 156.666670
6.96 6.973360 4.60 73.10 163.333330
6.95 6.957110 4.580 72.660 170.0
6.94 6.948980 4.560 72.220 176.666670
6.93 6.940860 4.540 71.780 183.333330
6.92 6.932730 4.520 71.340 168.0
6.91 6.92460 4.50 70.90 152.666670
6.90 6.908350 4.50 71.20 137.333330
6.89 6.900230 4.50 71.50 122.0
6.88 6.89210 4.50 71.80 106.666670
6.87 6.876750 4.50 72.10 105.333330
6.86 6.868620 4.50 72.40 104.0
6.85 6.86050 4.520 72.70 102.666670
6.84 6.852370 4.540 73.0 101.333330
6.83 6.844240 4.560 73.30 100.0
6.82 6.827990 4.580 73.60 112.0
6.81 6.819860 4.60 73.90 124.0
6.80 6.811740 4.580 72.90 136.0
6.79 6.796390 4.560 71.90 148.0
6.78 6.788260 4.540 70.90 160.0
6.77 6.780140 4.520 69.90 155.333330
6.76 6.772010 4.50 68.90 150.666670
6.75 6.763880 4.480 69.080 146.0
6.74 6.747630 4.460 69.260 141.333330
6.73 6.73950 4.440 69.440 136.666670
6.72 6.731380 4.420 69.620 149.166670
6.71 6.723250 4.40 69.80 161.666670
6.70 6.715120 4.420 69.70 174.166670
6.69 6.698870 4.440 69.60 186.666670
6.68 6.690740 4.460 69.50 183.333330
6.67 6.682620 4.480 69.40 180.0
6.66 6.667270 4.50 69.30 176.666670
6.65 6.659140 4.50 69.740 173.333330
6.64 6.651020 4.50 70.180 170.0
6.63 6.642890 4.50 70.620 159.809520
6.62 6.634760 4.50 71.060 149.619050
6.61 6.618510 4.50 71.50 139.428570
6.60 6.610380 4.50 71.8250 129.23810
6.59 6.602260 4.50 72.150 119.047620
6.58 6.594130 4.50 72.4750 128.571430
6.57 6.5860 4.50 72.80 138.095240
6.56 6.569750 4.50 72.40 147.619050
6.55 6.561630 4.50 72.0 157.142860
6.54 6.55350 4.50 71.60 166.666670
6.53 6.537250 4.50 71.20 159.333330
6.52 6.529120 4.50 70.80 152.0
6.51 6.520990 4.480 70.980 144.666670
6.50 6.512870 4.460 71.160 137.333330
6.49 6.504740 4.440 71.340 130.0
6.48 6.488490 4.420 71.520 136.666670
6.47 6.480360 4.40 71.70 143.333330
6.46 6.472230 4.40 71.620 150.0
6.45 6.464110 4.40 71.540 156.666670
6.44 6.455980 4.40 71.460 163.333330
6.43 6.439730 4.40 71.380 164.215050
6.42 6.43160 4.40 71.30 165.096770
6.41 6.423480 4.420 70.720 165.978490
6.40 6.407220 4.440 70.140 166.860220
6.39 6.39910 4.460 69.560 167.741940
6.38 6.390970 4.480 68.980 174.193550
6.37 6.382840 4.50 68.40 180.645160
6.36 6.374720 4.480 68.920 187.096770
6.35 6.358470 4.460 69.440 193.548390
6.34 6.349890 4.440 69.960 200.0
6.33 6.341310 4.420 70.480 194.666670
6.32 6.333180 4.40 71.0 189.333330
6.31 6.325060 4.40 71.40 184.0
6.30 6.30880 4.40 71.80 178.666670
6.29 6.300680 4.40 72.20 173.333330
6.28 6.292550 4.40 72.60 177.50
6.27 6.27630 4.40 73.0 181.666670
6.26 6.268170 4.4250 72.750 185.833330
6.25 6.260050 4.450 72.50 190.0
6.24 6.251920 4.4750 72.250 186.0
6.23 6.243790 4.50 72.0 182.0
6.22 6.227540 4.40 71.380 178.0
6.21 6.219410 4.30 70.760 174.0
6.20 6.211290 4.20 70.140 170.0
6.19 6.203160 4.10 69.520 170.0
6.18 6.195030 4.0 68.90 170.0
6.17 6.178780 4.060 68.80 170.0
6.16 6.171110 4.120 68.70 170.0
6.15 6.163430 4.180 68.60 170.0
6.14 6.147180 4.240 68.50 168.666670
6.13 6.139050 4.30 68.40 167.333330
6.12 6.130930 4.30 69.720 166.0
6.11 6.12280 4.30 71.040 164.666670
6.10 6.114670 4.30 72.360 163.333330
6.09 6.098420 4.30 73.680 160.0
6.08 6.090290 4.30 75.0 156.666670
6.07 6.082170 4.30 72.920 153.333330
6.06 6.074040 4.30 70.840 150.0
6.05 6.065910 4.30 68.760 146.666670
6.04 6.049660 4.30 66.680 151.333330
6.03 6.041530 4.30 64.60 156.0
6.02 6.033410 4.30 66.420 160.666670
6.01 6.017160 4.30 68.240 165.333330
6.00 6.009030 4.30 70.060 170.0
5.99 6.00090 4.30 71.880 172.0
5.98 5.993230 4.30 73.70 174.0
5.97 5.985550 4.280 73.780 176.0
5.96 5.96930 4.260 73.860 178.0
5.95 5.961170 4.240 73.940 180.0
5.94 5.953050 4.220 74.020 179.166670
5.93 5.936790 4.20 74.10 178.333330
5.92 5.928670 4.180 72.660 177.50
5.91 5.920540 4.160 71.220 176.666670
5.90 5.912420 4.140 69.780 166.666670
5.89 5.904290 4.120 68.340 156.666670
5.88 5.888040 4.10 66.90 146.666670
5.87 5.879910 4.10 69.3750 136.666670
5.86 5.871780 4.10 71.850 126.666670
5.85 5.863660 4.10 74.3250 135.333330
5.84 5.855530 4.10 76.80 144.0
5.83 5.839280 4.140 74.780 152.666670
5.82 5.831150 4.180 72.760 161.333330
5.81 5.823020 4.220 70.740 170.0
5.80 5.806770 4.260 68.720 165.333330
5.79 5.798650 4.30 66.70 160.666670
5.78 5.790520 4.280 67.160 156.0
5.77 5.782390 4.260 67.620 151.333330
5.76 5.774270 4.240 68.080 146.666670
5.75 5.758920 4.220 68.540 144.0
5.74 5.750790 4.20 69.0 141.333330
5.73 5.742660 4.180 70.180 138.666670
5.72 5.727310 4.160 71.360 136.0
5.71 5.719190 4.140 72.540 133.333330
5.70 5.711060 4.120 73.720 133.333330
5.69 5.703390 4.10 74.90 133.333330
5.68 5.695710 4.120 73.820 133.333330
5.67 5.679460 4.140 72.740 133.333330
5.66 5.671330 4.160 71.660 133.333330
5.65 5.663210 4.180 70.580 142.0
5.64 5.646950 4.20 69.50 150.666670
5.63 5.638830 4.180 69.840 159.333330
5.62 5.63070 4.160 70.180 168.0
5.61 5.622570 4.140 70.520 176.666670
5.60 5.614450 4.120 70.860 155.833330
5.59 5.598190 4.10 71.20 135.0
5.58 5.590070 4.080 71.320 114.166670
5.57 5.581940 4.060 71.440 93.333330
5.56 5.573810 4.040 71.560 100.0
5.55 5.565690 4.020 71.680 106.666670
5.54 5.549440 4.0 71.80 113.333330
5.53 5.541310 4.0250 71.30 120.0
5.52 5.533180 4.050 70.80 126.666670
5.51 5.516930 4.0750 70.30 134.236560
5.50 5.50880 4.10 69.80 141.806450
5.49 5.500680 4.10 69.580 149.376340
5.48 5.492550 4.10 69.360 156.946240
5.47 5.484420 4.10 69.140 164.516130
5.46 5.468170 4.10 68.920 164.946240
5.45 5.460050 4.10 68.70 165.376340
5.44 5.451920 4.10 69.120 165.806450
5.43 5.443790 4.10 69.540 166.236560
5.42 5.435670 4.10 69.960 166.666670
5.41 5.419410 4.10 70.380 156.666670
5.40 5.411290 4.10 70.80 146.666670
5.39 5.403160 4.10 69.940 136.666670
5.38 5.386910 4.10 69.080 126.666670
5.37 5.378780 4.10 68.220 116.666670
5.36 5.370650 4.10 67.360 121.333330
5.35 5.362530 4.10 66.50 126.0
5.34 5.35440 4.080 67.0 130.666670
5.33 5.338150 4.060 67.50 135.333330
5.32 5.330020 4.040 68.0 140.0
5.31 5.32190 4.020 68.50 142.0
5.30 5.313770 4.0 69.0 144.0
5.29 5.305640 4.0 68.980 146.0
5.28 5.289390 4.0 68.960 148.0
5.27 5.281260 4.0 68.940 150.0
5.26 5.273140 4.0 68.920 149.333330
5.25 5.256880 4.0 68.90 148.666670
5.24 5.249210 4.0 69.3250 148.0
5.23 5.241530 4.0 69.750 147.333330
5.22 5.233410 4.0 70.1750 146.666670
5.21 5.225280 4.0 70.60 140.0
5.20 5.209030 3.960 71.40 133.333330
5.19 5.20090 3.920 72.20 126.666670
5.18 5.192780 3.880 73.0 120.0
5.17 5.177430 3.840 73.80 130.0
5.16 5.16930 3.80 74.60 140.0
5.15 5.161170 3.860 73.10 150.0
5.14 5.153050 3.920 71.60 160.0
5.13 5.144920 3.980 70.10 170.0
5.12 5.128670 4.040 68.60 170.0
5.11 5.120540 4.10 67.10 170.0
5.10 5.112420 4.10 67.620 170.0
5.09 5.096160 4.10 68.140 170.0
5.08 5.088490 4.10 68.660 170.0
5.07 5.080810 4.10 69.180 158.0
5.06 5.072690 4.10 69.70 146.0
5.05 5.064560 4.040 70.960 134.0
5.04 5.048310 3.980 72.220 122.0
5.03 5.040180 3.920 73.480 110.0
