~VERSION INFORMATION SECTION
VERS. 2.0 : CWLS LAS-VERSION 2.0
WRAP. NO : One line per depth step
~WELL INFORMATION SECTION
# MNEM.UNIT VALUE/NAME DESCRIPTION
#-------- -------------- ---------------------
STRT.Metres 16 : Start
STOP.Metres -0.09 : Stop
STEP.Metres -0.01 : Step
NULL.  -999.25 :NULL VALUE
DATE. 2025-43-11 : DATE
~CURVE INFORMATION SECTION
DEPTH.Metres : 0 Depth
Depth. : 1 Depth
Incline.Deg : 2 Incline
Azimuth.Deg : 3 Azimuth
GR.CPS : 4 GR
~PARAMETER INFORMATION SECTION
~OTHER
#-------------------------------------------------
#Produced By: GeoVista Logger - Version 7.1.107.0
Natural Gamma Sonde - 6447
Verticality Sonde - 6292
#-------------------------------------------------
~ASCII LOG DATA
# ...
5.02 5.032050 3.860 74.740 115.333330
5.01 5.023930 3.80 76.0 120.666670
5.00 5.01580 3.820 74.640 126.0
4.99 4.999550 3.840 73.280 131.333330
4.98 4.991870 3.860 71.920 136.666670
4.97 4.98420 3.880 70.560 140.0
4.96 4.967950 3.90 69.20 143.333330
4.95 4.959820 3.920 69.460 146.666670
4.94 4.951690 3.940 69.720 150.0
4.93 4.943570 3.960 69.980 153.333330
4.92 4.935440 3.980 70.240 150.0
4.91 4.919190 4.0 70.50 146.666670
4.90 4.911060 4.0250 71.10 143.333330
4.89 4.902930 4.050 71.70 140.0
4.88 4.886680 4.0750 72.30 136.666670
4.87 4.878560 4.10 72.90 150.833330
4.86 4.870430 4.10 72.260 165.0
4.85 4.86230 4.10 71.620 179.166670
4.84 4.854180 4.10 70.980 193.333330
4.83 4.837920 4.10 70.340 186.666670
4.82 4.82980 4.10 69.70 180.0
4.81 4.821670 4.080 70.020 173.333330
4.80 4.813540 4.060 70.340 166.666670
4.79 4.805420 4.040 70.660 160.0
4.78 4.789160 4.020 70.980 164.0
4.77 4.780590 4.0 71.30 168.0
4.76 4.772010 4.060 70.90 172.0
4.75 4.763880 4.120 70.50 176.0
4.74 4.755760 4.180 70.10 180.0
4.73 4.73950 4.240 69.70 167.333330
4.72 4.730930 4.30 69.30 154.666670
4.71 4.722350 4.180 68.380 142.0
4.70 4.714220 4.060 67.460 129.333330
4.69 4.706090 3.940 66.540 116.666670
4.68 4.689840 3.820 65.620 117.333330
4.67 4.681720 3.70 64.70 118.0
4.66 4.673590 3.740 65.0 118.666670
4.65 4.657340 3.780 65.30 119.333330
4.64 4.649210 3.820 65.60 120.0
4.63 4.641080 3.860 65.90 120.666670
4.62 4.633410 3.90 66.20 121.333330
4.61 4.625730 3.9250 65.5250 122.0
4.60 4.609480 3.950 64.850 122.666670
4.59 4.601350 3.9750 64.1750 123.333330
4.58 4.593230 4.0 63.50 133.505380
4.57 4.577880 3.980 64.660 143.677420
4.56 4.569750 3.960 65.820 153.849460
4.55 4.561630 3.940 66.980 164.021510
4.54 4.55350 3.920 68.140 174.193550
4.53 4.545370 3.90 69.30 179.395160
4.52 4.529120 3.920 69.760 184.596770
4.51 4.520990 3.940 70.220 189.798390
4.50 4.512870 3.960 70.680 195.0
4.49 4.497520 3.980 71.140 190.0
4.48 4.489390 4.0 71.60 185.0
4.47 4.481260 3.960 71.720 180.0
4.46 4.473140 3.920 71.840 175.0
4.45 4.465010 3.880 71.960 170.0
4.44 4.448760 3.840 72.080 168.0
4.43 4.440630 3.80 72.20 166.0
4.42 4.432510 3.80 71.630 164.0
4.41 4.424380 3.80 71.060 162.0
4.40 4.416250 3.80 70.490 160.0
4.39 4.40 3.80 69.920 155.272730
4.38 4.391870 3.80 69.350 150.545450
4.37 4.383750 3.80 68.780 145.818180
4.36 4.367490 3.80 68.210 141.090910
4.35 4.359820 3.80 67.640 136.363640
4.34 4.352140 3.80 67.070 141.722490
4.33 4.344020 3.80 66.50 147.081340
4.32 4.335890 3.820 66.360 152.440190
4.31 4.319640 3.840 66.220 157.799040
4.30 4.311510 3.860 66.080 163.157890
4.29 4.303390 3.880 65.940 157.192980
4.28 4.287130 3.90 65.80 151.228070
4.27 4.279460 3.90 67.740 145.263160
4.26 4.271780 3.90 69.680 139.298250
4.25 4.263660 3.90 71.620 133.333330
4.24 4.255530 3.90 73.560 129.166670
4.23 4.239280 3.90 75.50 125.0
4.22 4.231150 3.90 73.650 120.833330
4.21 4.223020 3.90 71.80 116.666670
4.20 4.206770 3.90 69.950 126.0
4.19 4.19910 3.90 68.10 135.333330
4.18 4.191420 3.860 69.30 144.666670
4.17 4.18330 3.820 70.50 154.0
4.16 4.175170 3.780 71.70 163.333330
4.15 4.158920 3.740 72.90 154.666670
4.14 4.150790 3.70 74.10 146.0
4.13 4.142660 3.70 72.780 137.333330
4.12 4.126410 3.70 71.460 128.666670
4.11 4.118280 3.70 70.140 120.0
4.10 4.110160 3.70 68.820 136.666670
4.09 4.102480 3.70 67.50 153.333330
4.08 4.094810 3.740 68.760 170.0
4.07 4.078560 3.780 70.020 186.666670
4.06 4.070430 3.820 71.280 203.333330
4.05 4.06230 3.860 72.540 194.666670
4.04 4.054180 3.90 73.80 186.0
4.03 4.046050 3.880 73.880 177.333330
4.02 4.02980 3.860 73.960 168.666670
4.01 4.021670 3.840 74.040 160.0
4.00 4.013540 3.820 74.120 158.666670
3.99 3.997290 3.80 74.20 157.333330
3.98 3.989620 3.840 71.960 156.0
3.97 3.981940 3.880 69.720 154.666670
3.96 3.973810 3.920 67.480 153.333330
3.95 3.965690 3.960 65.240 157.333330
3.94 3.949440 4.0 63.0 161.333330
3.93 3.941310 3.950 65.4250 165.333330
3.92 3.933180 3.90 67.850 169.333330
3.91 3.916930 3.850 70.2750 173.333330
3.90 3.90880 3.80 72.70 171.666670
3.89 3.900680 3.810 71.750 170.0
3.88 3.892550 3.820 70.80 168.333330
3.87 3.884420 3.830 69.850 166.666670
3.86 3.868170 3.840 68.90 164.666670
3.85 3.859590 3.850 67.950 162.666670
3.84 3.851020 3.860 67.0 160.666670
3.83 3.842890 3.870 66.050 158.666670
3.82 3.834760 3.880 65.10 156.666670
3.81 3.818510 3.890 64.150 160.666670
3.80 3.810380 3.90 63.20 164.666670
3.79 3.802260 3.880 63.860 168.666670
3.78 3.794130 3.860 64.520 172.666670
3.77 3.7860 3.840 65.180 176.666670
3.76 3.769750 3.820 65.840 183.151520
3.75 3.761630 3.80 66.50 189.636360
3.74 3.75350 3.80 67.660 196.121210
3.73 3.737250 3.80 68.820 202.606060
3.72 3.729120 3.80 69.980 209.090910
3.71 3.720990 3.80 71.140 209.090910
3.70 3.712420 3.80 72.30 209.090910
3.69 3.703840 3.780 71.320 209.090910
3.68 3.687580 3.760 70.340 209.090910
3.67 3.679460 3.740 69.360 209.090910
3.66 3.671330 3.720 68.380 199.272730
3.65 3.663210 3.70 67.40 189.454550
3.64 3.655080 3.7250 67.50 179.636360
3.63 3.637920 3.750 67.60 169.818180
3.62 3.62980 3.7750 67.70 160.0
3.61 3.621670 3.80 67.80 154.666670
3.60 3.613540 3.780 67.660 149.333330
3.59 3.605420 3.760 67.520 144.0
3.58 3.589160 3.740 67.380 138.666670
3.57 3.580590 3.720 67.240 133.333330
3.56 3.572010 3.70 67.10 155.833330
3.55 3.563880 3.70 67.240 178.333330
3.54 3.555760 3.70 67.380 200.833330
3.53 3.53950 3.70 67.520 223.333330
3.52 3.531380 3.70 67.660 206.666670
3.51 3.523250 3.70 67.80 190.0
3.50 3.50790 3.680 67.920 173.333330
3.49 3.499770 3.660 68.040 156.666670
3.48 3.491650 3.640 68.160 140.0
3.47 3.47540 3.620 68.280 154.666670
3.46 3.467720 3.60 68.40 169.333330
3.45 3.460050 3.60 68.780 184.0
3.44 3.452370 3.60 69.160 198.666670
3.43 3.44470 3.60 69.540 213.333330
3.42 3.428440 3.60 69.920 208.0
3.41 3.420770 3.60 70.30 202.666670
3.40 3.413090 3.60 68.940 197.333330
3.39 3.396840 3.60 67.580 192.0
3.38 3.389160 3.60 66.220 186.666670
3.37 3.381490 3.60 64.860 177.333330
3.36 3.373360 3.60 63.50 168.0
3.35 3.365240 3.580 64.760 158.666670
3.34 3.348980 3.560 66.020 149.333330
3.33 3.340860 3.540 67.280 140.0
3.32 3.332730 3.520 68.540 140.0
3.31 3.317380 3.50 69.80 140.0
3.30 3.309260 3.50 68.780 140.0
3.29 3.301130 3.50 67.760 140.0
3.28 3.2930 3.50 66.740 140.0
3.27 3.284880 3.50 65.720 154.166670
3.26 3.268620 3.50 64.70 168.333330
3.25 3.26050 3.50 65.440 182.50
3.24 3.252370 3.50 66.180 196.666670
3.23 3.236120 3.50 66.920 191.878790
3.22 3.228440 3.50 67.660 187.090910
3.21 3.220770 3.50 68.40 182.303030
3.20 3.212640 3.5250 69.6750 177.515150
3.19 3.204510 3.550 70.950 172.727270
3.18 3.188260 3.5750 72.2250 167.65550
3.17 3.180140 3.60 73.50 162.583730
3.16 3.172010 3.60 71.820 157.511960
3.15 3.155760 3.60 70.140 152.440190
3.14 3.148080 3.60 68.460 147.368420
3.13 3.140410 3.60 66.780 151.228070
3.12 3.132280 3.60 65.10 155.087720
3.11 3.124150 3.540 67.680 158.947370
3.10 3.10790 3.480 70.260 162.807020
3.09 3.099770 3.420 72.840 166.666670
3.08 3.091650 3.360 75.420 156.666670
3.07 3.083520 3.30 78.0 146.666670
3.06 3.07540 3.30 74.940 136.666670
3.05 3.059140 3.30 71.880 126.666670
3.04 3.051020 3.30 68.820 116.666670
3.03 3.042890 3.30 65.760 125.333330
3.02 3.026640 3.30 62.70 134.0
3.01 3.018960 3.30 65.060 142.666670
3.00 3.011290 3.30 67.420 151.333330
2.99 3.003160 3.30 69.780 160.0
2.98 2.995030 3.30 72.140 160.666670
2.97 2.978780 3.30 74.50 161.333330
2.96 2.970650 3.311110 73.722220 162.0
2.95 2.962530 3.322220 72.944440 162.666670
2.94 2.953950 3.333330 72.166670 163.333330
2.93 2.945370 3.344440 71.388890 169.166670
2.92 2.929120 3.355560 70.611110 175.0
2.91 2.920990 3.366670 69.833330 180.833330
2.90 2.912870 3.377780 69.055560 186.666670
2.89 2.896610 3.388890 68.277780 183.333330
2.88 2.888490 3.40 67.50 180.0
2.87 2.880360 3.340 68.540 176.666670
2.86 2.872230 3.280 69.580 173.333330
2.85 2.864110 3.220 70.620 170.0
2.84 2.847860 3.160 71.660 169.333330
2.83 2.839730 3.10 72.70 168.666670
2.82 2.83160 3.140 72.260 168.0
2.81 2.823480 3.180 71.820 167.333330
2.80 2.815350 3.220 71.380 166.666670
