~VERSION INFORMATION SECTION
VERS. 2.0 : CWLS LAS-VERSION 2.0
WRAP. NO : One line per depth step
~WELL INFORMATION SECTION
# MNEM.UNIT VALUE/NAME DESCRIPTION
#-------- -------------- ---------------------
STRT.Metres 16 : Start
STOP.Metres -0.09 : Stop
STEP.Metres -0.01 : Step
NULL.  -999.25 :NULL VALUE
DATE. 2025-43-11 : DATE
~CURVE INFORMATION SECTION
DEPTH.Metres : 0 Depth
Depth. : 1 Depth
Incline.Deg : 2 Incline
Azimuth.Deg : 3 Azimuth
GR.CPS : 4 GR
~PARAMETER INFORMATION SECTION
~OTHER
#-------------------------------------------------
#Produced By: GeoVista Logger - Version 7.1.107.0
Natural Gamma Sonde - 6447
Verticality Sonde - 6292
#-------------------------------------------------
~ASCII LOG DATA
# ...
13.93 13.93950 5.60 74.080 113.619050
13.92 13.931380 5.60 74.60 115.428570
13.91 13.923250 5.580 74.740 117.23810
13.90 13.915120 5.560 74.880 119.047620
13.89 13.897970 5.540 75.020 119.682540
13.88 13.889840 5.520 75.160 120.317460
13.87 13.881720 5.50 75.30 120.952380
13.86 13.873590 5.540 75.240 121.58730
13.85 13.865460 5.580 75.180 122.222220
13.84 13.848310 5.620 75.120 127.777780
13.83 13.840180 5.660 75.060 133.333330
13.82 13.832050 5.70 75.0 138.888890
13.81 13.823480 5.70 75.480 144.444440
13.80 13.81490 5.70 75.960 150.0
13.79 13.797740 5.70 76.440 143.870970
13.78 13.789620 5.70 76.920 137.741940
13.77 13.781490 5.70 77.40 131.61290
13.76 13.772910 5.680 77.380 125.483870
13.75 13.764330 5.660 77.360 119.354840
13.74 13.748080 5.640 77.340 122.81720
13.73 13.73950 5.620 77.320 126.279570
13.72 13.730930 5.60 77.30 129.741940
13.71 13.72280 5.580 76.280 133.20430
13.70 13.714670 5.560 75.260 136.666670
13.69 13.698420 5.540 74.240 136.666670
13.68 13.69120 5.520 73.220 136.666670
13.67 13.683970 5.50 72.20 136.666670
13.66 13.666820 5.50 72.820 136.666670
13.65 13.659140 5.50 73.440 136.666670
13.64 13.651470 5.50 74.060 134.666670
13.63 13.642890 5.50 74.680 132.666670
13.62 13.634310 5.50 75.30 130.666670
13.61 13.618960 5.480 75.460 128.666670
13.60 13.610840 5.460 75.620 126.666670
13.59 13.602710 5.440 75.780 132.0
13.58 13.586460 5.420 75.940 137.333330
13.57 13.578330 5.40 76.10 142.666670
13.56 13.57020 5.420 75.740 148.0
13.55 13.562080 5.440 75.380 153.333330
13.54 13.553950 5.460 75.020 155.333330
13.53 13.53770 5.480 74.660 157.333330
13.52 13.529570 5.50 74.30 159.333330
13.51 13.521440 5.50 74.520 161.333330
13.50 13.513320 5.50 74.740 163.333330
13.49 13.505190 5.50 74.960 160.0
13.48 13.488040 5.50 75.180 156.666670
13.47 13.480360 5.50 75.40 153.333330
13.46 13.472690 5.40 74.620 150.0
13.45 13.456430 5.30 73.840 146.666670
13.44 13.448310 5.20 73.060 141.333330
13.43 13.440180 5.10 72.280 136.0
13.42 13.432050 5.0 71.50 130.666670
13.41 13.423930 5.080 72.320 125.333330
13.40 13.407670 5.160 73.140 120.0
13.39 13.40 5.240 73.960 118.666670
13.38 13.392330 5.320 74.780 117.333330
13.37 13.38420 5.40 75.60 116.0
13.36 13.376070 5.380 75.50 114.666670
13.35 13.359820 5.360 75.40 113.333330
13.34 13.352140 5.340 75.30 116.0
13.33 13.344470 5.320 75.20 118.666670
13.32 13.328220 5.30 75.10 121.333330
13.31 13.320090 5.2250 75.450 124.0
13.30 13.311960 5.150 75.80 126.666670
13.29 13.296610 5.0750 76.150 129.333330
13.28 13.288490 5.0 76.50 132.0
13.27 13.280360 5.040 76.960 134.666670
13.26 13.272230 5.080 77.420 137.333330
13.25 13.264110 5.120 77.880 140.0
13.24 13.247860 5.160 78.340 137.333330
13.23 13.240180 5.20 78.80 134.666670
13.22 13.232510 5.160 77.540 132.0
13.21 13.224380 5.120 76.280 129.333330
13.20 13.216250 5.080 75.020 126.666670
13.19 13.20 5.040 73.760 115.833330
13.18 13.191870 5.0 72.50 105.0
13.17 13.183750 5.060 73.440 94.166670
13.16 13.167490 5.120 74.380 83.333330
13.15 13.159820 5.180 75.320 91.333330
13.14 13.152140 5.240 76.260 99.333330
13.13 13.144020 5.30 77.20 107.333330
13.12 13.135890 5.30 77.720 115.333330
13.11 13.119640 5.30 78.240 123.333330
13.10 13.111510 5.30 78.760 119.333330
13.09 13.103390 5.30 79.280 115.333330
13.08 13.088040 5.30 79.80 111.333330
13.07 13.079910 5.280 78.060 107.333330
13.06 13.071780 5.260 76.320 103.333330
13.05 13.063660 5.240 74.580 117.333330
13.04 13.055530 5.220 72.840 131.333330
13.03 13.039280 5.20 71.10 145.333330
13.02 13.031150 5.250 71.6750 159.333330
13.01 13.023020 5.30 72.250 173.333330
13.00 13.007670 5.350 72.8250 170.0
12.99 12.999550 5.40 73.40 166.666670
12.98 12.991420 5.40 74.660 163.333330
12.97 12.98330 5.40 75.920 160.0
12.96 12.975170 5.40 77.180 156.666670
12.95 12.958920 5.40 78.440 154.0
12.94 12.950790 5.40 79.70 151.333330
12.93 12.942660 5.40 79.180 148.666670
12.92 12.926410 5.40 78.660 146.0
12.91 12.918280 5.40 78.140 143.333330
12.90 12.910160 5.40 77.620 140.0
12.89 12.902030 5.40 77.10 136.666670
12.88 12.893910 5.40 76.660 133.333330
12.87 12.877650 5.40 76.220 130.0
12.86 12.869530 5.40 75.780 126.666670
12.85 12.86140 5.40 75.340 120.043010
12.84 12.853270 5.40 74.90 113.419350
12.83 12.845150 5.380 74.960 106.79570
12.82 12.828890 5.360 75.020 100.172040
12.81 12.820770 5.340 75.080 93.548390
12.80 12.812640 5.320 75.140 92.838710
12.79 12.796390 5.30 75.20 92.129030
12.78 12.788260 5.30 75.720 91.419350
12.77 12.780140 5.30 76.240 90.709680
12.76 12.772010 5.30 76.760 90.0
12.75 12.763880 5.30 77.280 100.666670
12.74 12.747630 5.30 77.80 111.333330
12.73 12.739050 5.30 77.1750 122.0
12.72 12.730470 5.30 76.550 132.666670
12.71 12.722350 5.30 75.9250 143.333330
12.70 12.714220 5.30 75.30 136.0
12.69 12.697970 5.30 75.280 128.666670
12.68 12.689840 5.30 75.260 121.333330
12.67 12.681720 5.30 75.240 114.0
12.66 12.673590 5.30 75.220 106.666670
12.65 12.665460 5.30 75.20 110.0
12.64 12.648310 5.280 76.040 113.333330
12.63 12.640180 5.260 76.880 116.666670
12.62 12.632050 5.240 77.720 120.0
12.61 12.624380 5.220 78.560 123.333330
12.60 12.61670 5.20 79.40 120.0
12.59 12.599550 5.180 78.20 116.666670
12.58 12.591420 5.160 77.0 113.333330
12.57 12.58330 5.140 75.80 110.0
12.56 12.567040 5.120 74.60 108.666670
12.55 12.559370 5.10 73.40 107.333330
12.54 12.551690 5.120 74.10 106.0
12.53 12.543570 5.140 74.80 104.666670
12.52 12.535440 5.160 75.50 103.333330
12.51 12.519190 5.180 76.20 108.666670
12.50 12.511060 5.20 76.90 114.0
12.49 12.502930 5.20 77.20 119.333330
12.48 12.486680 5.20 77.50 124.666670
12.47 12.479010 5.20 77.80 130.0
12.46 12.471330 5.20 78.10 128.666670
12.45 12.463210 5.20 78.40 127.333330
12.44 12.455080 5.20 77.70 126.0
12.43 12.438830 5.20 77.0 124.666670
12.42 12.43070 5.20 76.30 123.333330
12.41 12.422570 5.20 75.60 119.333330
12.40 12.406320 5.20 74.90 115.333330
12.39 12.398650 5.180 74.720 111.333330
12.38 12.390970 5.160 74.540 107.333330
12.37 12.382840 5.140 74.360 103.333330
12.36 12.374720 5.120 74.180 107.50
12.35 12.358470 5.10 74.0 111.666670
12.34 12.350340 5.120 74.120 115.833330
12.33 12.342210 5.140 74.240 120.0
12.32 12.326860 5.160 74.360 120.0
12.31 12.318740 5.180 74.480 120.0
12.30 12.310610 5.20 74.60 120.0
12.29 12.302480 5.20 74.950 120.0
12.28 12.294360 5.20 75.30 120.0
12.27 12.279010 5.20 75.650 124.0
12.26 12.270880 5.20 76.0 128.0
12.25 12.262750 5.160 75.740 132.0
12.24 12.24650 5.120 75.480 136.0
12.23 12.238830 5.080 75.220 140.0
12.22 12.231150 5.040 74.960 136.0
12.21 12.223020 5.0 74.70 132.0
12.20 12.21490 5.020 74.560 128.0
12.19 12.198650 5.040 74.420 124.0
12.18 12.190520 5.060 74.280 120.0
12.17 12.182390 5.080 74.140 124.666670
12.16 12.166140 5.10 74.0 129.333330
12.15 12.158470 5.10 74.080 134.0
12.14 12.150790 5.10 74.160 138.666670
12.13 12.142660 5.10 74.240 143.333330
12.12 12.134540 5.10 74.320 142.666670
12.11 12.118280 5.10 74.40 142.0
12.10 12.110160 5.120 74.660 141.333330
12.09 12.102030 5.140 74.920 140.666670
12.08 12.085780 5.160 75.180 140.0
12.07 12.07810 5.180 75.440 143.333330
12.06 12.070430 5.20 75.70 146.666670
12.05 12.06230 5.050 74.950 150.0
12.04 12.054180 4.90 74.20 153.333330
12.03 12.037920 4.750 73.450 145.333330
12.02 12.02980 4.60 72.70 137.333330
12.01 12.021670 4.620 71.920 129.333330
12.00 12.013540 4.640 71.140 121.333330
11.99 12.005420 4.660 70.360 113.333330
11.98 11.989160 4.680 69.580 112.0
11.97 11.981040 4.70 68.80 110.666670
11.96 11.972910 4.780 69.280 109.333330
11.95 11.956660 4.860 69.760 108.0
11.94 11.948530 4.940 70.240 106.666670
11.93 11.940410 5.020 70.720 109.849460
11.92 11.932280 5.10 71.20 113.032260
11.91 11.924150 5.080 71.940 116.215050
11.90 11.90790 5.060 72.680 119.397850
11.89 11.899770 5.040 73.420 122.580650
11.88 11.891650 5.020 74.160 121.397850
11.87 11.883520 5.0 74.90 120.215050
11.86 11.87540 4.980 74.980 119.032260
11.85 11.859140 4.960 75.060 117.849460
11.84 11.851020 4.940 75.140 116.666670
11.83 11.842890 4.920 75.220 120.0
11.82 11.826640 4.90 75.30 123.333330
11.81 11.818510 4.9250 74.4250 126.666670
