~VERSION INFORMATION SECTION
VERS. 2.0 : CWLS LAS-VERSION 2.0
WRAP. NO : One line per depth step
~WELL INFORMATION SECTION
# MNEM.UNIT VALUE/NAME DESCRIPTION
#-------- -------------- ---------------------
STRT.Metres 26 : Start
STOP.Metres -2.05 : Stop
STEP.Metres -0.01 : Step
NULL.  -999.25 :NULL VALUE
DATE. 2026-29-09 : DATE
~CURVE INFORMATION SECTION
DEPTH.Metres : 0 Depth
Depth. : 1 Depth
Tension. : 2 Tension
Time. : 3 Time
Speed. : 4 Speed
Voltage. : 5 Voltage
Current. : 6 Current
WET. : 7 WET
Sig. : 8 Sig
Vth. : 9 Vth
GR.CPS : 10 GR
Timebase.ms : 11 Timebase
HeadVoltage.V : 12 Head Voltage
API.API : 13 API
Conductivity.uS : 14 Conductivity
PT100.Ohms : 15 PT100
Vmon.mV : 16 Vmon
Status. : 17 Status
Temperature.C : 18 Temperature
Incline.Deg : 19 Incline
Azimuth.Deg : 20 Azimuth
RelativeBearing.Deg : 21 Relative Bearing
MagneticToolFace.Deg : 22 Magnetic Tool Face
GravityMagnitude.G : 23 Gravity Magnitude
MagnetometerMagnitude.H : 24 Magnetometer Magnitude
Temperature.C : 25 Temperature
GX. : 26 GX
GY. : 27 GY
GZ. : 28 GZ
HX. : 29 HX
HY. : 30 HY
HZ. : 31 HZ
~PARAMETER INFORMATION SECTION
~OTHER
#-------------------------------------------------
#Produced By: GeoVista Logger - Version 7.1.107.0
Verticality Sonde - 9605
Temperature and Conductivity Sonde - Inline - 8974
Natural Gamma Sonde - 9931
WLIS - 10021
#-------------------------------------------------
~ASCII LOG DATA
# ...
9.36 9.378940 0.0 165.333330 14.970 0.0960 0.1020 1.0 40.0 200.0 4.769230 500.0 197.0 4.769230 2019.0 890030.0 161.0 43.0 840342924.209710 0.0 0.0 0.0 0.0 0.0 0.0 0.0 -3.27680 -3.27680 -3.27680 -3.27680 -3.27680 -3.27680
9.35 9.370540 0.0 165.366670 14.970 0.0960 0.1020 1.0 40.0 200.0 4.615380 500.0 197.0 4.615380 2017.583330 890031.846150 161.0 43.0 840346406.109640 0.0 0.0 0.0 0.0 0.0 0.0 0.0 -3.27680 -3.27680 -3.27680 -3.27680 -3.27680 -3.27680
9.34 9.362140 0.0 165.40 14.970 0.0960 0.1020 1.0 40.0 200.0 4.461540 500.0 197.0 4.461540 2016.166670 890033.692310 161.0 43.0 840349888.009560 0.0 0.0 0.0 0.0 0.0 0.0 0.0 -3.27680 -3.27680 -3.27680 -3.27680 -3.27680 -3.27680
9.33 9.349540 0.0 165.450 14.970 0.0960 0.1010 1.0 40.0 200.0 4.307690 500.0 197.0 4.307690 2014.750 890035.538460 161.0 43.0 840353369.909480 0.0 0.0 0.0 0.0 0.0 0.0 0.0 -3.27680 -3.27680 -3.27680 -3.27680 -3.27680 -3.27680
9.32 9.336940 0.0 165.50 14.970 0.0960 0.10 1.0 40.0 200.0 4.153850 500.0 197.0 4.153850 2013.333330 890037.384620 161.0 43.0 840356851.80940 0.0 0.0 0.0 0.0 0.0 0.0 0.0 -3.27680 -3.27680 -3.27680 -3.27680 -3.27680 -3.27680
9.31 9.32880 0.0 165.533330 14.976670 0.0960 0.100670 1.0 40.0 200.0 4.0 500.0 197.0 4.0 2011.916670 890039.230770 161.0 43.0 840360333.709330 0.0 0.0 0.0 0.0 0.0 0.0 0.0 -3.27680 -3.27680 -3.27680 -3.27680 -3.27680 -3.27680
9.30 9.320660 0.0 165.566670 14.983330 0.0960 0.101330 1.0 40.0 200.0 4.50 500.0 197.0 4.50 2010.50 890041.076920 161.0 43.0 840363815.609250 0.0 0.0 0.0 0.0 0.0 0.0 0.0 -3.27680 -3.27680 -3.27680 -3.27680 -3.27680 -3.27680
9.29 9.312520 0.0 165.60 14.990 0.0960 0.1020 1.0 40.0 200.0 5.0 500.0 197.0 5.0 2009.083330 890042.923080 161.0 43.0 840367297.509170 0.0 0.0 0.0 0.0 0.0 0.0 0.0 -3.27680 -3.27680 -3.27680 -3.27680 -3.27680 -3.27680
9.28 9.299920 0.0 165.650 14.996670 0.0960 0.1020 1.0 40.0 200.0 5.50 500.769230 197.0 5.50 2007.666670 890044.769230 161.0 43.0 840370779.40910 0.0 0.0 0.0 0.0 0.0 0.0 0.0 -3.27680 -3.27680 -3.27680 -3.27680 -3.27680 -3.27680
9.27 9.287320 0.0 165.70 15.003330 0.0960 0.1020 1.0 40.0 200.0 6.0 501.538460 197.0 6.0 2006.250 890046.615380 161.0 43.0 840374261.309020 0.0 0.0 0.0 0.0 0.0 0.0 0.0 -3.27680 -3.27680 -3.27680 -3.27680 -3.27680 -3.27680
9.26 9.278920 0.0 165.733330 15.010 0.0960 0.1020 1.0 40.076920 200.0 6.50 502.307690 197.0 6.50 2004.833330 890048.461540 161.0 43.0 840377743.208940 0.0 0.0 0.0 0.0 0.0 0.0 0.0 -3.27680 -3.27680 -3.27680 -3.27680 -3.27680 -3.27680
9.25 9.270520 0.0 165.766670 15.016670 0.0960 0.1020 1.0 40.153850 200.0 7.0 503.076920 197.0 7.0 2003.416670 890050.307690 161.0 43.0 840381225.108860 0.0 0.0 0.0 0.0 0.0 0.0 0.0 -3.27680 -3.27680 -3.27680 -3.27680 -3.27680 -3.27680
9.24 9.262120 0.0 165.80 15.023330 0.0960 0.1020 1.0 40.230770 200.0 7.50 503.846150 197.0 7.50 2002.0 890052.153850 161.0 43.0 840384707.008790 0.0 0.0 0.0 0.0 0.0 0.0 0.0 -3.27680 -3.27680 -3.27680 -3.27680 -3.27680 -3.27680
9.23 9.249520 0.0 165.850 15.030 0.0960 0.1020 1.0 40.307690 200.0 8.0 504.615380 197.0 8.0 2002.153850 890054.0 161.0 43.0 840388188.908710 0.0 0.0 0.0 0.0 0.0 0.0 0.0 -3.27680 -3.27680 -3.27680 -3.27680 -3.27680 -3.27680
9.22 9.236910 0.0 165.90 15.036670 0.0960 0.1020 1.0 40.384620 200.0 8.50 505.384620 197.0 8.50 2002.307690 890055.750 161.0 43.0 840391489.543010 0.0 0.0 0.0 0.0 0.0 0.0 0.0 -3.27680 -3.27680 -3.27680 -3.27680 -3.27680 -3.27680
9.21 9.228510 0.0 165.933330 15.043330 0.0960 0.1020 1.0 40.461540 200.0 9.0 506.153850 197.0 9.0 2002.461540 890057.50 161.0 43.0 840394790.177310 0.0 0.0 0.0 0.0 0.0 0.0 0.0 -3.27680 -3.27680 -3.27680 -3.27680 -3.27680 -3.27680
9.20 9.220110 0.0 165.966670 15.050 0.0960 0.1020 1.0 40.538460 200.0 9.50 506.923080 197.0 9.50 2002.615380 890059.250 161.0 43.0 840398090.811610 0.0 0.0 0.0 0.0 0.0 0.0 0.0 -3.27680 -3.27680 -3.27680 -3.27680 -3.27680 -3.27680
9.19 9.211710 0.0 166.0 15.056670 0.0960 0.1020 1.0 40.615380 200.0 10.0 507.692310 197.0 10.0 2002.769230 890061.0 161.0 43.0 840401391.445920 0.0 0.0 0.0 0.0 0.0 0.0 0.0 -3.27680 -3.27680 -3.27680 -3.27680 -3.27680 -3.27680
9.18 9.19950 0.0 166.050 15.063330 0.0960 0.1020 1.0 40.692310 200.0 10.135750 508.461540 197.0 10.135750 2002.923080 890062.750 161.0 43.0 840404692.080220 0.0 0.0 0.0 0.0 0.0 0.0 0.0 -3.27680 -3.27680 -3.27680 -3.27680 -3.27680 -3.27680
9.17 9.18730 0.0 166.10 15.070 0.0960 0.1020 1.0 40.769230 200.0 10.271490 509.230770 197.0 10.271490 2003.076920 890064.50 161.0 43.0 840407992.714520 0.0 0.0 0.0 0.0 0.0 0.0 0.0 -3.27680 -3.27680 -3.27680 -3.27680 -3.27680 -3.27680
9.16 9.178890 0.0 166.133330 15.063330 0.0960 0.1020 1.0 40.846150 200.0 10.407240 510.0 197.0 10.407240 2003.230770 890066.250 161.0 43.0 840411293.348820 0.0 0.0 0.0 0.0 0.0 0.0 0.0 -3.27680 -3.27680 -3.27680 -3.27680 -3.27680 -3.27680
9.15 9.170490 0.0 166.166670 15.056670 0.0960 0.1020 1.0 40.923080 200.0 10.542990 509.166670 197.0 10.542990 2003.384620 890068.0 161.0 43.0 840414593.983120 0.0 0.0 0.0 0.0 0.0 0.0 0.0 -3.27680 -3.27680 -3.27680 -3.27680 -3.27680 -3.27680
9.14 9.162090 0.0 166.20 15.050 0.0960 0.1020 1.0 41.0 200.0 10.678730 508.333330 197.0 10.678730 2003.538460 890069.750 161.0 43.0 840417894.617420 0.0 0.0 0.0 0.0 0.0 0.0 0.0 -3.27680 -3.27680 -3.27680 -3.27680 -3.27680 -3.27680
9.13 9.149880 0.0 166.250 15.043330 0.0960 0.1010 1.0 40.916670 200.0 10.814480 507.50 197.0 10.814480 2003.692310 890071.50 161.0 43.0 840421195.251730 0.0 0.0 0.0 0.0 0.0 0.0 0.0 -3.27680 -3.27680 -3.27680 -3.27680 -3.27680 -3.27680
9.12 9.137680 0.0 166.30 15.036670 0.0960 0.10 1.0 40.833330 200.0 10.950230 506.666670 197.0 10.950230 2003.846150 890073.250 161.0 43.0 840424495.886030 0.0 0.0 0.0 0.0 0.0 0.0 0.0 -3.27680 -3.27680 -3.27680 -3.27680 -3.27680 -3.27680
9.11 9.129280 0.0 166.333330 15.030 0.0960 0.100670 1.0 40.750 200.0 11.085970 505.833330 197.0 11.085970 2004.0 890075.0 161.0 43.0 840427796.520330 0.0 0.0 0.0 0.0 0.0 0.0 0.0 -3.27680 -3.27680 -3.27680 -3.27680 -3.27680 -3.27680
9.10 9.120880 0.0 166.366670 15.023330 0.0960 0.101330 1.0 40.666670 200.0 11.221720 505.0 197.0 11.221720 2001.166670 890076.615380 161.0 43.0 840430843.331480 0.0 0.0 0.0 0.0 0.0 0.0 0.0 -3.27680 -3.27680 -3.27680 -3.27680 -3.27680 -3.27680
9.09 9.112470 0.0 166.40 15.016670 0.0960 0.1020 1.0 40.583330 200.0 11.357470 504.166670 197.0 11.357470 1998.333330 890078.230770 161.0 43.0 840433890.142630 0.0 0.0 0.0 0.0 0.0 0.0 0.0 -3.27680 -3.27680 -3.27680 -3.27680 -3.27680 -3.27680
9.08 9.099870 0.0 166.450 15.010 0.0960 0.1020 1.0 40.50 200.0 11.493210 503.333330 197.0 11.493210 1995.50 890079.846150 161.0 43.0 840436936.953780 0.0 0.0 0.0 0.0 0.0 0.0 0.0 -3.27680 -3.27680 -3.27680 -3.27680 -3.27680 -3.27680
9.07 9.087270 0.0 166.50 15.003330 0.0960 0.1020 1.0 40.416670 200.0 11.628960 502.50 197.0 11.628960 1992.666670 890081.461540 161.0 43.0 840439983.764930 0.0 0.0 0.0 0.0 0.0 0.0 0.0 -3.27680 -3.27680 -3.27680 -3.27680 -3.27680 -3.27680
9.06 9.079130 0.0 166.533330 14.996670 0.0960 0.1020 1.0 40.333330 200.0 11.764710 501.666670 197.0 11.764710 1989.833330 890083.076920 161.0 43.0 840443030.576080 0.0 0.0 0.0 0.0 0.0 0.0 0.0 -3.27680 -3.27680 -3.27680 -3.27680 -3.27680 -3.27680
9.05 9.070990 0.0 166.566670 14.990 0.0960 0.1020 1.0 40.250 200.0 11.450980 500.833330 197.0 11.450980 1987.0 890084.692310 161.0 43.0 840446077.387230 0.0 0.0 0.0 0.0 0.0 0.0 0.0 -3.27680 -3.27680 -3.27680 -3.27680 -3.27680 -3.27680
9.04 9.062860 0.0 166.60 14.983330 0.0960 0.1020 1.0 40.166670 200.0 11.137250 500.0 197.0 11.137250 1984.166670 890086.307690 161.0 43.0 840449124.198380 0.0 0.0 0.0 0.0 0.0 0.0 0.0 -3.27680 -3.27680 -3.27680 -3.27680 -3.27680 -3.27680
9.03 9.050250 0.0 166.650 14.976670 0.0960 0.1020 1.0 40.083330 200.0 10.823530 500.0 197.0 10.823530 1981.333330 890087.923080 161.0 43.0 840452171.009530 0.0 0.0 0.0 0.0 0.0 0.0 0.0 -3.27680 -3.27680 -3.27680 -3.27680 -3.27680 -3.27680
9.02 9.037650 0.0 166.70 14.970 0.0960 0.1020 1.0 40.0 200.0 10.50980 500.0 197.0 10.50980 1978.50 890089.538460 161.0 43.0 840455217.820680 0.0 0.0 0.0 0.0 0.0 0.0 0.0 -3.27680 -3.27680 -3.27680 -3.27680 -3.27680 -3.27680
