~VERSION INFORMATION SECTION
VERS. 2.0 : CWLS LAS-VERSION 2.0
WRAP. NO : One line per depth step
~WELL INFORMATION SECTION
# MNEM.UNIT VALUE/NAME DESCRIPTION
#-------- -------------- ---------------------
STRT.Metres 26 : Start
STOP.Metres -2.05 : Stop
STEP.Metres -0.01 : Step
NULL.  -999.25 :NULL VALUE
DATE. 2026-48-09 : DATE
~CURVE INFORMATION SECTION
DEPTH.Metres : 0 Depth
Depth. : 1 Depth
Tension. : 2 Tension
Time. : 3 Time
Speed. : 4 Speed
Voltage. : 5 Voltage
Current. : 6 Current
WET. : 7 WET
Sig. : 8 Sig
Vth. : 9 Vth
GR.CPS : 10 GR
Timebase.ms : 11 Timebase
HeadVoltage.V : 12 Head Voltage
API.API : 13 API
Conductivity.uS : 14 Conductivity
PT100.Ohms : 15 PT100
Vmon.mV : 16 Vmon
Status. : 17 Status
Temperature.C : 18 Temperature
Incline.Deg : 19 Incline
Azimuth.Deg : 20 Azimuth
RelativeBearing.Deg : 21 Relative Bearing
MagneticToolFace.Deg : 22 Magnetic Tool Face
GravityMagnitude.G : 23 Gravity Magnitude
MagnetometerMagnitude.H : 24 Magnetometer Magnitude
Temperature.C : 25 Temperature
GX. : 26 GX
GY. : 27 GY
GZ. : 28 GZ
HX. : 29 HX
HY. : 30 HY
HZ. : 31 HZ
~PARAMETER INFORMATION SECTION
~OTHER
#-------------------------------------------------
#Produced By: GeoVista Logger - Version 7.1.107.0
Verticality Sonde - 9605
Temperature and Conductivity Sonde - Inline - 8974
Natural Gamma Sonde - 9931
WLIS - 10021
#-------------------------------------------------
~ASCII LOG DATA
# ...
2.46 2.484860 0.0 104.90 15.013330 0.0960 0.1020 1.0 42.0 200.0 41.846150 500.0 197.0 41.846150 1726.250 890671.846150 151.833330 41.0 841553884.395810 0.0 0.0 0.0 0.0 0.0 0.0 0.0 -3.27680 -3.27680 -3.27680 -3.27680 -3.27680 -3.27680
2.45 2.472260 0.0 104.950 15.016670 0.0960 0.1020 1.0 42.0 200.0 42.461540 500.0 197.0 42.461540 1725.0 890671.538460 151.750 41.0 841553303.66890 0.0 0.0 0.0 0.0 0.0 0.0 0.0 -3.27680 -3.27680 -3.27680 -3.27680 -3.27680 -3.27680
2.44 2.459660 0.0 105.0 15.020 0.0960 0.1020 1.0 42.0 200.0 43.076920 500.0 197.0 43.076920 1723.750 890671.230770 151.666670 41.0 841552722.941990 0.0 0.0 0.0 0.0 0.0 0.0 0.0 -3.27680 -3.27680 -3.27680 -3.27680 -3.27680 -3.27680
2.43 2.447450 0.0 105.050 15.016670 0.0960 0.1020 1.0 42.0 200.0 43.692310 500.0 197.0 43.692310 1722.50 890670.923080 151.583330 41.0 841552142.215080 0.0 0.0 0.0 0.0 0.0 0.0 0.0 -3.27680 -3.27680 -3.27680 -3.27680 -3.27680 -3.27680
2.42 2.435240 0.0 105.10 15.013330 0.0960 0.1020 1.0 42.0 200.0 44.307690 500.0 197.0 44.307690 1721.250 890670.615380 151.50 41.0 841551561.488170 0.0 0.0 0.0 0.0 0.0 0.0 0.0 -3.27680 -3.27680 -3.27680 -3.27680 -3.27680 -3.27680
2.41 2.426840 0.0 105.133330 15.010 0.0960 0.1020 1.0 42.0 200.0 44.923080 500.0 197.0 44.923080 1720.0 890670.307690 151.416670 41.0 841550980.761260 0.0 0.0 0.0 0.0 0.0 0.0 0.0 -3.27680 -3.27680 -3.27680 -3.27680 -3.27680 -3.27680
2.40 2.418440 0.0 105.166670 15.006670 0.0960 0.1020 1.0 42.0 200.0 45.538460 500.0 197.0 45.538460 1721.0 890670.0 151.333330 41.0 841550400.034350 0.0 0.0 0.0 0.0 0.0 0.0 0.0 -3.27680 -3.27680 -3.27680 -3.27680 -3.27680 -3.27680
2.39 2.410040 0.0 105.20 15.003330 0.0960 0.1020 1.0 42.0 200.0 46.153850 500.0 197.0 46.153850 1722.0 890669.916670 151.250 41.0 841550242.754590 0.0 0.0 0.0 0.0 0.0 0.0 0.0 -3.27680 -3.27680 -3.27680 -3.27680 -3.27680 -3.27680
2.38 2.397440 0.0 105.250 15.0 0.0960 0.1010 1.0 42.0 200.0 46.769230 500.0 197.0 46.769230 1723.0 890669.833330 151.166670 41.0 841550085.474830 0.0 0.0 0.0 0.0 0.0 0.0 0.0 -3.27680 -3.27680 -3.27680 -3.27680 -3.27680 -3.27680
2.37 2.384840 0.0 105.30 14.996670 0.0960 0.10 1.0 42.0 200.0 47.384620 500.0 197.0 47.384620 1724.0 890669.750 151.083330 41.0 841549928.195060 0.0 0.0 0.0 0.0 0.0 0.0 0.0 -3.27680 -3.27680 -3.27680 -3.27680 -3.27680 -3.27680
2.36 2.37670 0.0 105.333330 14.993330 0.0960 0.100670 1.0 42.0 200.0 48.0 500.0 197.0 48.0 1725.0 890669.666670 151.0 41.0 841549770.91530 0.0 0.0 0.0 0.0 0.0 0.0 0.0 -3.27680 -3.27680 -3.27680 -3.27680 -3.27680 -3.27680
2.35 2.368560 0.0 105.366670 14.990 0.0960 0.101330 1.0 42.0 200.0 47.0 500.0 197.0 47.0 1726.0 890669.583330 151.0 41.0 841549613.635540 0.0 0.0 0.0 0.0 0.0 0.0 0.0 -3.27680 -3.27680 -3.27680 -3.27680 -3.27680 -3.27680
2.34 2.360420 0.0 105.40 14.986670 0.0960 0.1020 1.0 42.0 200.0 46.0 500.0 197.0 46.0 1727.0 890669.50 151.0 41.0 841549456.355770 0.0 0.0 0.0 0.0 0.0 0.0 0.0 -3.27680 -3.27680 -3.27680 -3.27680 -3.27680 -3.27680
2.33 2.347820 0.0 105.450 14.983330 0.0960 0.1020 1.0 42.0 200.0 45.0 500.0 197.0 45.0 1728.0 890669.416670 151.0 41.0 841549299.076010 0.0 0.0 0.0 0.0 0.0 0.0 0.0 -3.27680 -3.27680 -3.27680 -3.27680 -3.27680 -3.27680
2.32 2.335220 0.0 105.50 14.980 0.0960 0.1020 1.0 42.0 200.0 44.0 500.0 197.0 44.0 1729.0 890669.333330 151.0 41.0 841549141.796240 0.0 0.0 0.0 0.0 0.0 0.0 0.0 -3.27680 -3.27680 -3.27680 -3.27680 -3.27680 -3.27680
2.31 2.327080 0.0 105.533330 14.976670 0.0960 0.1020 1.0 42.0 200.0 43.0 500.0 197.0 43.0 1730.0 890669.250 151.0 41.0 841548984.516480 0.0 0.0 0.0 0.0 0.0 0.0 0.0 -3.27680 -3.27680 -3.27680 -3.27680 -3.27680 -3.27680
2.30 2.318940 0.0 105.566670 14.973330 0.0960 0.1020 1.0 42.0 200.0 42.0 500.0 197.0 42.0 1731.0 890669.166670 151.0 41.0 841548827.236720 0.0 0.0 0.0 0.0 0.0 0.0 0.0 -3.27680 -3.27680 -3.27680 -3.27680 -3.27680 -3.27680
2.29 2.31080 0.0 105.60 14.970 0.0960 0.1020 1.0 42.0 200.0 41.0 500.0 197.0 41.0 1732.0 890669.083330 151.0 41.0 841548669.956950 0.0 0.0 0.0 0.0 0.0 0.0 0.0 -3.27680 -3.27680 -3.27680 -3.27680 -3.27680 -3.27680
2.28 2.29820 0.0 105.650 14.9640 0.0960 0.1020 1.0 42.0 200.0 40.0 500.0 197.0 40.0 1733.0 890669.0 151.0 41.0 841548512.677190 0.0 0.0 0.0 0.0 0.0 0.0 0.0 -3.27680 -3.27680 -3.27680 -3.27680 -3.27680 -3.27680
2.27 2.28560 0.0 105.70 14.9580 0.0960 0.1020 1.0 42.0 200.0 39.0 500.0 197.0 39.0 1730.833330 890668.461540 151.0 41.0 841547496.41250 0.0 0.0 0.0 0.0 0.0 0.0 0.0 -3.27680 -3.27680 -3.27680 -3.27680 -3.27680 -3.27680
2.26 2.27720 0.0 105.733330 14.9520 0.0960 0.1020 1.0 42.0 200.0 38.0 500.0 197.0 38.0 1728.666670 890667.923080 151.0 41.0 841546480.147820 0.0 0.0 0.0 0.0 0.0 0.0 0.0 -3.27680 -3.27680 -3.27680 -3.27680 -3.27680 -3.27680
2.25 2.26880 0.0 105.766670 14.9460 0.0960 0.1020 1.0 42.0 200.0 37.0 500.0 197.0 37.0 1726.50 890667.384620 151.0 41.0 841545463.883130 0.0 0.0 0.0 0.0 0.0 0.0 0.0 -3.27680 -3.27680 -3.27680 -3.27680 -3.27680 -3.27680
2.24 2.26040 0.0 105.80 14.940 0.0960 0.1020 1.0 42.0 200.0 36.0 500.0 197.0 36.0 1724.333330 890666.846150 151.0 41.0 841544447.618450 0.0 0.0 0.0 0.0 0.0 0.0 0.0 -3.27680 -3.27680 -3.27680 -3.27680 -3.27680 -3.27680
2.23 2.248190 0.0 105.850 14.9340 0.0960 0.1020 1.0 42.0 200.0 36.153850 500.0 197.0 36.153850 1722.166670 890666.307690 151.0 41.0 841543431.353770 0.0 0.0 0.0 0.0 0.0 0.0 0.0 -3.27680 -3.27680 -3.27680 -3.27680 -3.27680 -3.27680
2.22 2.235980 0.0 105.90 14.9280 0.0960 0.1020 1.0 42.0 200.0 36.307690 500.0 197.0 36.307690 1720.0 890665.769230 151.0 41.0 841542415.089080 0.0 0.0 0.0 0.0 0.0 0.0 0.0 -3.27680 -3.27680 -3.27680 -3.27680 -3.27680 -3.27680
2.21 2.227580 0.0 105.933330 14.9220 0.0960 0.101330 1.0 42.0 200.0 36.461540 500.0 197.0 36.461540 1717.833330 890665.230770 151.0 41.0 841541398.82440 0.0 0.0 0.0 0.0 0.0 0.0 0.0 -3.27680 -3.27680 -3.27680 -3.27680 -3.27680 -3.27680
2.20 2.219180 0.0 105.966670 14.9160 0.0960 0.100670 1.0 42.0 200.0 36.615380 500.0 197.0 36.615380 1715.666670 890664.692310 151.0 41.0 841540382.559710 0.0 0.0 0.0 0.0 0.0 0.0 0.0 -3.27680 -3.27680 -3.27680 -3.27680 -3.27680 -3.27680
2.19 2.210780 0.0 106.0 14.910 0.0960 0.10 1.0 42.0 200.0 36.769230 500.0 197.0 36.769230 1713.50 890664.153850 151.0 41.0 841539366.295030 0.0 0.0 0.0 0.0 0.0 0.0 0.0 -3.27680 -3.27680 -3.27680 -3.27680 -3.27680 -3.27680
2.18 2.198180 0.0 106.050 14.9040 0.0960 0.1010 1.0 42.083330 200.0 36.923080 500.0 197.0 36.923080 1711.333330 890663.615380 151.0 41.0 841538350.030340 0.0 0.0 0.0 0.0 0.0 0.0 0.0 -3.27680 -3.27680 -3.27680 -3.27680 -3.27680 -3.27680
2.17 2.185580 0.0 106.10 14.8980 0.0960 0.1020 1.0 42.166670 200.0 37.076920 500.0 197.0 37.076920 1709.166670 890663.076920 151.0 41.0 841537333.765660 0.0 0.0 0.0 0.0 0.0 0.0 0.0 -3.27680 -3.27680 -3.27680 -3.27680 -3.27680 -3.27680
2.16 2.177180 0.0 106.133330 14.8920 0.0960 0.1020 1.0 42.250 200.0 37.230770 500.0 197.0 37.230770 1707.0 890662.538460 151.0 41.0 841536317.500970 0.0 0.0 0.0 0.0 0.0 0.0 0.0 -3.27680 -3.27680 -3.27680 -3.27680 -3.27680 -3.27680
2.15 2.168770 0.0 106.166670 14.8860 0.0960 0.1020 1.0 42.333330 200.0 37.384620 500.0 197.0 37.384620 1708.307690 890662.0 151.0 41.0 841535301.236290 0.0 0.0 0.0 0.0 0.0 0.0 0.0 -3.27680 -3.27680 -3.27680 -3.27680 -3.27680 -3.27680
2.14 2.160370 0.0 106.20 14.880 0.0960 0.1020 1.0 42.416670 200.0 37.538460 500.0 197.0 37.538460 1709.615380 890661.833330 151.0 41.0 841534986.679760 0.0 0.0 0.0 0.0 0.0 0.0 0.0 -3.27680 -3.27680 -3.27680 -3.27680 -3.27680 -3.27680
2.13 2.148170 0.0 106.250 14.8860 0.0960 0.1020 1.0 42.50 200.0 37.692310 500.0 197.0 37.692310 1710.923080 890661.666670 151.0 41.0 841534672.123230 0.0 0.0 0.0 0.0 0.0 0.0 0.0 -3.27680 -3.27680 -3.27680 -3.27680 -3.27680 -3.27680
2.12 2.135960 0.0 106.30 14.8920 0.0960 0.1020 1.0 42.583330 200.0 37.846150 500.0 197.0 37.846150 1712.230770 890661.50 151.0 41.0 841534357.56670 0.0 0.0 0.0 0.0 0.0 0.0 0.0 -3.27680 -3.27680 -3.27680 -3.27680 -3.27680 -3.27680
2.11 2.127560 0.0 106.333330 14.8980 0.0960 0.1020 1.0 42.666670 200.0 38.0 500.0 197.0 38.0 1713.538460 890661.333330 151.0 41.0 841534043.010170 0.0 0.0 0.0 0.0 0.0 0.0 0.0 -3.27680 -3.27680 -3.27680 -3.27680 -3.27680 -3.27680
