~VERSION INFORMATION SECTION
VERS. 2.0 : CWLS LAS-VERSION 2.0
WRAP. NO : One line per depth step
~WELL INFORMATION SECTION
# MNEM.UNIT VALUE/NAME DESCRIPTION
#-------- -------------- ---------------------
STRT.Metres 26 : Start
STOP.Metres -2.05 : Stop
STEP.Metres -0.01 : Step
NULL.  -999.25 :NULL VALUE
DATE. 2026-40-09 : DATE
~CURVE INFORMATION SECTION
DEPTH.Metres : 0 Depth
Depth. : 1 Depth
Tension. : 2 Tension
Time. : 3 Time
Speed. : 4 Speed
Voltage. : 5 Voltage
Current. : 6 Current
WET. : 7 WET
Sig. : 8 Sig
Vth. : 9 Vth
GR.CPS : 10 GR
Timebase.ms : 11 Timebase
HeadVoltage.V : 12 Head Voltage
API.API : 13 API
Conductivity.uS : 14 Conductivity
PT100.Ohms : 15 PT100
Vmon.mV : 16 Vmon
Status. : 17 Status
Temperature.C : 18 Temperature
Incline.Deg : 19 Incline
Azimuth.Deg : 20 Azimuth
RelativeBearing.Deg : 21 Relative Bearing
MagneticToolFace.Deg : 22 Magnetic Tool Face
GravityMagnitude.G : 23 Gravity Magnitude
MagnetometerMagnitude.H : 24 Magnetometer Magnitude
Temperature.C : 25 Temperature
GX. : 26 GX
GY. : 27 GY
GZ. : 28 GZ
HX. : 29 HX
HY. : 30 HY
HZ. : 31 HZ
~PARAMETER INFORMATION SECTION
~OTHER
#-------------------------------------------------
#Produced By: GeoVista Logger - Version 7.1.107.0
Verticality Sonde - 9605
Temperature and Conductivity Sonde - Inline - 8974
Natural Gamma Sonde - 9931
WLIS - 10021
#-------------------------------------------------
~ASCII LOG DATA
# ...
22.98 22.997770 0.0 44.90 15.160 0.0960 0.1020 1.0 0.0 200.0 25.333330 500.0 197.0 25.333330 18072.50 889057.230770 138.0 42.0 838509279.185730 0.0 0.0 0.0 0.0 0.0 0.0 0.0 -3.27680 -3.27680 -3.27680 -3.27680 -3.27680 -3.27680
22.97 22.989370 0.0 44.933330 15.141330 0.0960 0.1020 1.0 0.0 200.0 25.166670 500.0 197.0 25.166670 18066.333330 889057.923080 138.0 42.0 838510583.452780 0.0 0.0 0.0 0.0 0.0 0.0 0.0 -3.27680 -3.27680 -3.27680 -3.27680 -3.27680 -3.27680
22.96 22.980970 0.0 44.966670 15.122670 0.0960 0.1020 1.0 0.0 200.0 25.0 500.0 197.0 25.0 18060.166670 889058.615380 138.0 42.0 838511887.719830 0.0 0.0 0.0 0.0 0.0 0.0 0.0 -3.27680 -3.27680 -3.27680 -3.27680 -3.27680 -3.27680
22.95 22.972570 0.0 45.0 15.1040 0.0960 0.1020 1.0 0.0 200.0 24.833330 500.0 197.0 24.833330 18054.0 889059.307690 138.0 42.0 838513191.986880 0.0 0.0 0.0 0.0 0.0 0.0 0.0 -3.27680 -3.27680 -3.27680 -3.27680 -3.27680 -3.27680
22.94 22.959970 0.0 45.050 15.085330 0.0960 0.1020 1.0 0.0 200.0 24.666670 500.0 197.0 24.666670 18053.846150 889060.0 138.0 42.0 838514496.253940 0.0 0.0 0.0 0.0 0.0 0.0 0.0 -3.27680 -3.27680 -3.27680 -3.27680 -3.27680 -3.27680
22.93 22.947370 0.0 45.10 15.066670 0.0960 0.1020 1.0 0.0 200.0 24.50 500.0 197.0 24.50 18053.692310 889060.250 138.0 42.0 838514967.242430 0.0 0.0 0.0 0.0 0.0 0.0 0.0 -3.27680 -3.27680 -3.27680 -3.27680 -3.27680 -3.27680
22.92 22.939230 0.0 45.133330 15.0480 0.0960 0.1020 1.0 0.0 200.0 24.333330 500.0 197.0 24.333330 18053.538460 889060.50 138.0 42.0 838515438.230930 0.0 0.0 0.0 0.0 0.0 0.0 0.0 -3.27680 -3.27680 -3.27680 -3.27680 -3.27680 -3.27680
22.91 22.931090 0.0 45.166670 15.029330 0.0960 0.1020 1.0 0.0 200.0 24.166670 500.0 197.0 24.166670 18053.384620 889060.750 138.0 42.0 838515909.219430 0.0 0.0 0.0 0.0 0.0 0.0 0.0 -3.27680 -3.27680 -3.27680 -3.27680 -3.27680 -3.27680
22.90 22.922950 0.0 45.20 15.010670 0.0960 0.1020 1.0 0.0 200.0 24.0 500.0 197.0 24.0 18053.230770 889061.0 138.0 42.0 838516380.207930 0.0 0.0 0.0 0.0 0.0 0.0 0.0 -3.27680 -3.27680 -3.27680 -3.27680 -3.27680 -3.27680
22.89 22.910740 0.0 45.250 14.9920 0.0960 0.1020 1.0 0.0 200.0 22.923080 500.0 197.0 22.923080 18053.076920 889061.250 137.923080 42.0 838516851.196430 0.0 0.0 0.0 0.0 0.0 0.0 0.0 -3.27680 -3.27680 -3.27680 -3.27680 -3.27680 -3.27680
22.88 22.898540 0.0 45.30 14.973330 0.0960 0.1020 1.0 0.0 200.0 21.846150 500.0 197.0 21.846150 18052.923080 889061.50 137.846150 42.0 838517322.184930 0.0 0.0 0.0 0.0 0.0 0.0 0.0 -3.27680 -3.27680 -3.27680 -3.27680 -3.27680 -3.27680
22.87 22.890140 0.0 45.333330 14.954670 0.0960 0.1020 1.0 0.0 200.0 20.769230 500.0 197.0 20.769230 18052.769230 889061.750 137.769230 42.0 838517793.173420 0.0 0.0 0.0 0.0 0.0 0.0 0.0 -3.27680 -3.27680 -3.27680 -3.27680 -3.27680 -3.27680
22.86 22.881740 0.0 45.366670 14.9360 0.0960 0.1020 1.0 0.0 200.0 19.692310 500.0 197.0 19.692310 18052.615380 889062.0 137.692310 42.0 838518264.161920 0.0 0.0 0.0 0.0 0.0 0.0 0.0 -3.27680 -3.27680 -3.27680 -3.27680 -3.27680 -3.27680
22.85 22.873330 0.0 45.40 14.917330 0.0960 0.1020 1.0 0.0 200.0 18.615380 500.0 197.0 18.615380 18052.461540 889062.250 137.615380 42.0 838518735.150420 0.0 0.0 0.0 0.0 0.0 0.0 0.0 -3.27680 -3.27680 -3.27680 -3.27680 -3.27680 -3.27680
22.84 22.860340 0.0 45.450 14.898670 0.0960 0.1020 1.0 0.083330 200.0 17.538460 500.0 197.0 17.538460 18052.307690 889062.50 137.538460 42.0 838519206.138920 0.0 0.0 0.0 0.0 0.0 0.0 0.0 -3.27680 -3.27680 -3.27680 -3.27680 -3.27680 -3.27680
22.83 22.847340 0.0 45.50 14.880 0.0960 0.1020 1.0 0.166670 200.0 16.461540 500.0 197.0 16.461540 18052.153850 889062.750 137.461540 42.0 838519677.127420 0.0 0.0 0.0 0.0 0.0 0.0 0.0 -3.27680 -3.27680 -3.27680 -3.27680 -3.27680 -3.27680
22.82 22.83920 0.0 45.533330 14.883330 0.0960 0.1020 1.0 0.250 200.0 15.384620 500.0 197.0 15.384620 18052.0 889063.0 137.384620 42.0 838520148.115920 0.0 0.0 0.0 0.0 0.0 0.0 0.0 -3.27680 -3.27680 -3.27680 -3.27680 -3.27680 -3.27680
22.81 22.831070 0.0 45.566670 14.886670 0.0960 0.1020 1.0 0.333330 200.0 14.307690 500.0 197.0 14.307690 18048.50 889063.076920 137.307690 42.0 838520293.035780 0.0 0.0 0.0 0.0 0.0 0.0 0.0 -3.27680 -3.27680 -3.27680 -3.27680 -3.27680 -3.27680
22.80 22.822930 0.0 45.60 14.890 0.0960 0.1020 1.0 0.416670 200.0 13.230770 500.0 197.0 13.230770 18045.0 889063.153850 137.230770 42.0 838520437.955650 0.0 0.0 0.0 0.0 0.0 0.0 0.0 -3.27680 -3.27680 -3.27680 -3.27680 -3.27680 -3.27680
22.79 22.810720 0.0 45.650 14.893330 0.0960 0.1020 1.0 0.50 200.0 12.153850 500.0 197.0 12.153850 18041.50 889063.230770 137.153850 42.0 838520582.875510 0.0 0.0 0.0 0.0 0.0 0.0 0.0 -3.27680 -3.27680 -3.27680 -3.27680 -3.27680 -3.27680
22.78 22.798510 0.0 45.70 14.896670 0.0960 0.1020 1.0 0.583330 200.0 11.076920 500.0 197.0 11.076920 18038.0 889063.307690 137.076920 42.0 838520727.795370 0.0 0.0 0.0 0.0 0.0 0.0 0.0 -3.27680 -3.27680 -3.27680 -3.27680 -3.27680 -3.27680
22.77 22.790110 0.0 45.733330 14.90 0.0960 0.1020 1.0 0.666670 200.0 10.0 500.0 197.0 10.0 18034.50 889063.384620 137.0 42.0 838520872.715240 0.0 0.0 0.0 0.0 0.0 0.0 0.0 -3.27680 -3.27680 -3.27680 -3.27680 -3.27680 -3.27680
22.76 22.781710 0.0 45.766670 14.903330 0.0960 0.1020 1.0 0.750 200.0 11.0 500.0 197.0 11.0 18031.0 889063.461540 137.083330 42.0 838521017.63510 0.0 0.0 0.0 0.0 0.0 0.0 0.0 -3.27680 -3.27680 -3.27680 -3.27680 -3.27680 -3.27680
22.75 22.773310 0.0 45.80 14.906670 0.0960 0.1020 1.0 0.833330 200.0 12.0 500.0 197.0 12.0 18027.50 889063.538460 137.166670 42.0 838521162.554960 0.0 0.0 0.0 0.0 0.0 0.0 0.0 -3.27680 -3.27680 -3.27680 -3.27680 -3.27680 -3.27680
22.74 22.76110 0.0 45.850 14.910 0.0960 0.1020 1.0 0.916670 200.0 13.0 500.0 197.0 13.0 18024.0 889063.615380 137.250 42.0 838521307.474830 0.0 0.0 0.0 0.0 0.0 0.0 0.0 -3.27680 -3.27680 -3.27680 -3.27680 -3.27680 -3.27680
22.73 22.748890 0.0 45.90 14.913330 0.0960 0.1020 1.0 1.0 200.0 14.0 500.0 197.0 14.0 18020.50 889063.692310 137.333330 42.0 838521452.394690 0.0 0.0 0.0 0.0 0.0 0.0 0.0 -3.27680 -3.27680 -3.27680 -3.27680 -3.27680 -3.27680
22.72 22.740230 0.0 45.933330 14.916670 0.0960 0.1020 1.0 1.0 200.0 15.0 500.0 197.0 15.0 18017.0 889063.769230 137.416670 42.0 838521597.314550 0.0 0.0 0.0 0.0 0.0 0.0 0.0 -3.27680 -3.27680 -3.27680 -3.27680 -3.27680 -3.27680
22.71 22.731570 0.0 45.966670 14.920 0.0960 0.1020 1.0 1.0 200.0 16.0 500.0 197.0 16.0 18013.50 889063.846150 137.50 42.0 838521742.234420 0.0 0.0 0.0 0.0 0.0 0.0 0.0 -3.27680 -3.27680 -3.27680 -3.27680 -3.27680 -3.27680
22.70 22.72290 0.0 46.0 14.923330 0.0960 0.1020 1.0 1.0 200.0 17.0 500.0 197.0 17.0 18010.0 889063.923080 137.583330 42.0 838521887.154280 0.0 0.0 0.0 0.0 0.0 0.0 0.0 -3.27680 -3.27680 -3.27680 -3.27680 -3.27680 -3.27680
22.69 22.71070 0.0 46.050 14.926670 0.0960 0.1020 1.0 1.0 200.0 18.0 500.0 197.0 18.0 18003.923080 889064.0 137.666670 42.0 838522032.074150 0.0 0.0 0.0 0.0 0.0 0.0 0.0 -3.27680 -3.27680 -3.27680 -3.27680 -3.27680 -3.27680
22.68 22.698490 0.0 46.10 14.930 0.0960 0.1020 1.0 1.0 200.0 19.0 500.0 197.0 19.0 17997.846150 889064.583330 137.750 42.0 838523131.054720 0.0 0.0 0.0 0.0 0.0 0.0 0.0 -3.27680 -3.27680 -3.27680 -3.27680 -3.27680 -3.27680
22.67 22.690090 0.0 46.133330 14.932670 0.0960 0.1020 1.0 1.0 200.0 20.0 500.0 197.0 20.0 17991.769230 889065.166670 137.833330 42.0 838524230.035290 0.0 0.0 0.0 0.0 0.0 0.0 0.0 -3.27680 -3.27680 -3.27680 -3.27680 -3.27680 -3.27680
22.66 22.681690 0.0 46.166670 14.935330 0.0960 0.1020 1.0 1.0 200.0 21.0 500.0 197.0 21.0 17985.692310 889065.750 137.916670 42.0 838525329.015860 0.0 0.0 0.0 0.0 0.0 0.0 0.0 -3.27680 -3.27680 -3.27680 -3.27680 -3.27680 -3.27680
22.65 22.673280 0.0 46.20 14.9380 0.0960 0.1020 1.0 1.0 200.0 22.0 500.0 197.0 22.0 17979.615380 889066.333330 138.0 42.0 838526427.996430 0.0 0.0 0.0 0.0 0.0 0.0 0.0 -3.27680 -3.27680 -3.27680 -3.27680 -3.27680 -3.27680
22.64 22.660680 0.0 46.250 14.940670 0.0960 0.1020 1.0 1.0 200.0 21.538460 500.0 197.0 21.538460 17973.538460 889066.916670 137.923080 42.0 838527526.9770 0.0 0.0 0.0 0.0 0.0 0.0 0.0 -3.27680 -3.27680 -3.27680 -3.27680 -3.27680 -3.27680
