~VERSION INFORMATION SECTION
VERS. 2.0 : CWLS LAS-VERSION 2.0
WRAP. NO : One line per depth step
~WELL INFORMATION SECTION
# MNEM.UNIT VALUE/NAME DESCRIPTION
#-------- -------------- ---------------------
STRT.Metres 26 : Start
STOP.Metres -2.05 : Stop
STEP.Metres -0.01 : Step
NULL.  -999.25 :NULL VALUE
DATE. 2026-40-09 : DATE
~CURVE INFORMATION SECTION
DEPTH.Metres : 0 Depth
Depth. : 1 Depth
Tension. : 2 Tension
Time. : 3 Time
Speed. : 4 Speed
Voltage. : 5 Voltage
Current. : 6 Current
WET. : 7 WET
Sig. : 8 Sig
Vth. : 9 Vth
GR.CPS : 10 GR
Timebase.ms : 11 Timebase
HeadVoltage.V : 12 Head Voltage
API.API : 13 API
Conductivity.uS : 14 Conductivity
PT100.Ohms : 15 PT100
Vmon.mV : 16 Vmon
Status. : 17 Status
Temperature.C : 18 Temperature
Incline.Deg : 19 Incline
Azimuth.Deg : 20 Azimuth
RelativeBearing.Deg : 21 Relative Bearing
MagneticToolFace.Deg : 22 Magnetic Tool Face
GravityMagnitude.G : 23 Gravity Magnitude
MagnetometerMagnitude.H : 24 Magnetometer Magnitude
Temperature.C : 25 Temperature
GX. : 26 GX
GY. : 27 GY
GZ. : 28 GZ
HX. : 29 HX
HY. : 30 HY
HZ. : 31 HZ
~PARAMETER INFORMATION SECTION
~OTHER
#-------------------------------------------------
#Produced By: GeoVista Logger - Version 7.1.107.0
Verticality Sonde - 9605
Temperature and Conductivity Sonde - Inline - 8974
Natural Gamma Sonde - 9931
WLIS - 10021
#-------------------------------------------------
~ASCII LOG DATA
# ...
18.10 18.121770 0.0 64.40 14.906670 0.0960 0.10 1.0 4.0 200.0 15.299150 500.0 197.0 15.299150 6205.076920 889224.0 148.384620 42.0 838823492.678330 0.0 0.0 0.0 0.0 0.0 0.0 0.0 -3.27680 -3.27680 -3.27680 -3.27680 -3.27680 -3.27680
18.09 18.108780 0.0 64.450 14.910 0.0960 0.1010 1.0 4.0 200.0 16.136750 500.0 197.0 16.136750 6174.384620 889225.0 148.461540 42.0 838825376.969890 0.0 0.0 0.0 0.0 0.0 0.0 0.0 -3.27680 -3.27680 -3.27680 -3.27680 -3.27680 -3.27680
18.08 18.095780 0.0 64.50 14.913330 0.0960 0.1020 1.0 4.0 200.0 16.974360 500.0 197.0 16.974360 6143.692310 889226.0 148.538460 42.0 838827261.261450 0.0 0.0 0.0 0.0 0.0 0.0 0.0 -3.27680 -3.27680 -3.27680 -3.27680 -3.27680 -3.27680
18.07 18.087380 0.0 64.533330 14.916670 0.0960 0.1020 1.0 4.0 200.0 17.811970 500.0 197.0 17.811970 6113.0 889227.0 148.615380 42.0 838829145.553020 0.0 0.0 0.0 0.0 0.0 0.0 0.0 -3.27680 -3.27680 -3.27680 -3.27680 -3.27680 -3.27680
18.06 18.078980 0.0 64.566670 14.920 0.0960 0.1020 1.0 4.0 200.0 18.649570 500.0 197.0 18.649570 6089.166670 889227.769230 148.692310 42.0 838830595.025970 0.0 0.0 0.0 0.0 0.0 0.0 0.0 -3.27680 -3.27680 -3.27680 -3.27680 -3.27680 -3.27680
18.05 18.070580 0.0 64.60 14.923330 0.0960 0.1020 1.0 4.0 200.0 19.487180 500.0 197.0 19.487180 6065.333330 889228.538460 148.769230 42.0 838832044.498920 0.0 0.0 0.0 0.0 0.0 0.0 0.0 -3.27680 -3.27680 -3.27680 -3.27680 -3.27680 -3.27680
18.04 18.057980 0.0 64.650 14.926670 0.0960 0.1020 1.0 4.0 200.0 20.324790 500.0 197.0 20.324790 6041.50 889229.307690 148.846150 42.0 838833493.971880 0.0 0.0 0.0 0.0 0.0 0.0 0.0 -3.27680 -3.27680 -3.27680 -3.27680 -3.27680 -3.27680
18.03 18.045380 0.0 64.70 14.930 0.0960 0.1020 1.0 4.0 200.0 21.162390 500.0 197.0 21.162390 6017.666670 889230.076920 148.923080 42.0 838834943.444830 0.0 0.0 0.0 0.0 0.0 0.0 0.0 -3.27680 -3.27680 -3.27680 -3.27680 -3.27680 -3.27680
18.02 18.03750 0.0 64.733330 14.9360 0.0960 0.1020 1.0 4.0 200.0 22.0 500.0 197.0 22.0 5993.833330 889230.846150 149.0 42.0 838836392.917790 0.0 0.0 0.0 0.0 0.0 0.0 0.0 -3.27680 -3.27680 -3.27680 -3.27680 -3.27680 -3.27680
18.01 18.029620 0.0 64.766670 14.9420 0.0960 0.1020 1.0 4.0 200.0 22.0 500.0 197.0 22.0 5970.0 889231.615380 149.083330 42.0 838837842.390740 0.0 0.0 0.0 0.0 0.0 0.0 0.0 -3.27680 -3.27680 -3.27680 -3.27680 -3.27680 -3.27680
18.00 18.021750 0.0 64.80 14.9480 0.0960 0.1020 1.0 4.0 200.0 22.0 500.0 197.0 22.0 5946.166670 889232.384620 149.166670 42.0 838839291.86370 0.0 0.0 0.0 0.0 0.0 0.0 0.0 -3.27680 -3.27680 -3.27680 -3.27680 -3.27680 -3.27680
17.99 18.009150 0.0 64.850 14.9540 0.0960 0.1020 1.0 4.0 200.0 22.0 500.0 197.0 22.0 5922.333330 889233.153850 149.250 42.0 838840741.336650 0.0 0.0 0.0 0.0 0.0 0.0 0.0 -3.27680 -3.27680 -3.27680 -3.27680 -3.27680 -3.27680
17.98 17.996550 0.0 64.90 14.960 0.0960 0.1020 1.0 4.0 200.0 22.0 500.0 197.0 22.0 5898.50 889233.923080 149.333330 42.0 838842190.80960 0.0 0.0 0.0 0.0 0.0 0.0 0.0 -3.27680 -3.27680 -3.27680 -3.27680 -3.27680 -3.27680
17.97 17.987880 0.0 64.933330 14.9660 0.0960 0.1020 1.0 4.0 200.0 22.0 500.0 197.0 22.0 5874.666670 889234.692310 149.416670 42.0 838843640.282560 0.0 0.0 0.0 0.0 0.0 0.0 0.0 -3.27680 -3.27680 -3.27680 -3.27680 -3.27680 -3.27680
17.96 17.979220 0.0 64.966670 14.9720 0.0960 0.1020 1.0 4.0 200.0 22.0 500.0 197.0 22.0 5850.833330 889235.461540 149.50 42.0 838845089.755510 0.0 0.0 0.0 0.0 0.0 0.0 0.0 -3.27680 -3.27680 -3.27680 -3.27680 -3.27680 -3.27680
17.95 17.970560 0.0 65.0 14.9780 0.0960 0.1020 1.0 4.0 200.0 22.0 500.0 197.0 22.0 5827.0 889236.230770 149.583330 42.0 838846539.228470 0.0 0.0 0.0 0.0 0.0 0.0 0.0 -3.27680 -3.27680 -3.27680 -3.27680 -3.27680 -3.27680
17.94 17.958350 0.0 65.050 14.9840 0.0960 0.1020 1.0 4.0 200.0 22.0 500.0 197.0 22.0 5807.538460 889237.0 149.666670 42.0 838847988.701420 0.0 0.0 0.0 0.0 0.0 0.0 0.0 -3.27680 -3.27680 -3.27680 -3.27680 -3.27680 -3.27680
17.93 17.946140 0.0 65.10 14.990 0.0960 0.1020 1.0 4.0 200.0 22.0 500.0 197.0 22.0 5788.076920 889237.916670 149.750 42.0 838849716.01040 0.0 0.0 0.0 0.0 0.0 0.0 0.0 -3.27680 -3.27680 -3.27680 -3.27680 -3.27680 -3.27680
17.92 17.9380 0.0 65.133330 14.9960 0.0960 0.1020 1.0 4.0 200.0 22.0 500.0 197.0 22.0 5768.615380 889238.833330 149.833330 42.0 838851443.319370 0.0 0.0 0.0 0.0 0.0 0.0 0.0 -3.27680 -3.27680 -3.27680 -3.27680 -3.27680 -3.27680
17.91 17.929860 0.0 65.166670 15.0020 0.0960 0.1020 1.0 4.0 200.0 22.0 500.0 197.0 22.0 5749.153850 889239.750 149.916670 42.0 838853170.628350 0.0 0.0 0.0 0.0 0.0 0.0 0.0 -3.27680 -3.27680 -3.27680 -3.27680 -3.27680 -3.27680
17.90 17.921720 0.0 65.20 15.0080 0.0960 0.1020 1.0 4.0 200.0 22.0 500.0 197.0 22.0 5729.692310 889240.666670 150.0 42.0 838854897.937320 0.0 0.0 0.0 0.0 0.0 0.0 0.0 -3.27680 -3.27680 -3.27680 -3.27680 -3.27680 -3.27680
17.89 17.909120 0.0 65.250 15.0140 0.0960 0.1030 1.0 4.0 200.0 21.384620 500.0 197.0 21.384620 5710.230770 889241.583330 149.923080 42.0 838856625.246290 0.0 0.0 0.0 0.0 0.0 0.0 0.0 -3.27680 -3.27680 -3.27680 -3.27680 -3.27680 -3.27680
17.88 17.896520 0.0 65.30 15.020 0.0960 0.1040 1.0 4.0 200.0 20.769230 500.0 197.0 20.769230 5690.769230 889242.50 149.846150 42.0 838858352.555270 0.0 0.0 0.0 0.0 0.0 0.0 0.0 -3.27680 -3.27680 -3.27680 -3.27680 -3.27680 -3.27680
17.87 17.888380 0.0 65.333330 15.016670 0.0960 0.103330 1.0 4.0 200.0 20.153850 500.0 197.0 20.153850 5671.307690 889243.416670 149.769230 42.0 838860079.864240 0.0 0.0 0.0 0.0 0.0 0.0 0.0 -3.27680 -3.27680 -3.27680 -3.27680 -3.27680 -3.27680
17.86 17.880240 0.0 65.366670 15.013330 0.0960 0.102670 1.0 4.0 200.0 19.538460 500.833330 197.0 19.538460 5651.846150 889244.333330 149.692310 42.0 838861807.173220 0.0 0.0 0.0 0.0 0.0 0.0 0.0 -3.27680 -3.27680 -3.27680 -3.27680 -3.27680 -3.27680
17.85 17.872110 0.0 65.40 15.010 0.0960 0.1020 1.0 4.0 200.0 18.923080 501.666670 197.0 18.923080 5632.384620 889245.250 149.615380 42.0 838863534.482190 0.0 0.0 0.0 0.0 0.0 0.0 0.0 -3.27680 -3.27680 -3.27680 -3.27680 -3.27680 -3.27680
17.84 17.859110 0.0 65.450 15.006670 0.0960 0.1020 1.0 4.166670 200.0 18.307690 502.50 197.0 18.307690 5612.923080 889246.166670 149.538460 42.0 838865261.791170 0.0 0.0 0.0 0.0 0.0 0.0 0.0 -3.27680 -3.27680 -3.27680 -3.27680 -3.27680 -3.27680
17.83 17.846120 0.0 65.50 15.003330 0.0960 0.1020 1.0 4.333330 200.0 17.692310 503.333330 197.0 17.692310 5593.461540 889247.083330 149.461540 42.0 838866989.100140 0.0 0.0 0.0 0.0 0.0 0.0 0.0 -3.27680 -3.27680 -3.27680 -3.27680 -3.27680 -3.27680
17.82 17.837710 0.0 65.533330 15.0 0.0960 0.1020 1.0 4.50 200.0 17.076920 504.166670 197.0 17.076920 5574.0 889248.0 149.384620 42.0 838868716.409110 0.0 0.0 0.0 0.0 0.0 0.0 0.0 -3.27680 -3.27680 -3.27680 -3.27680 -3.27680 -3.27680
17.81 17.829310 0.0 65.566670 14.996670 0.0960 0.1020 1.0 4.666670 200.0 16.461540 505.0 197.0 16.461540 5553.083330 889248.846150 149.307690 42.0 838870310.867870 0.0 0.0 0.0 0.0 0.0 0.0 0.0 -3.27680 -3.27680 -3.27680 -3.27680 -3.27680 -3.27680
17.80 17.820910 0.0 65.60 14.993330 0.0960 0.1020 1.0 4.833330 200.0 15.846150 505.833330 197.0 15.846150 5532.166670 889249.692310 149.230770 42.0 838871905.326620 0.0 0.0 0.0 0.0 0.0 0.0 0.0 -3.27680 -3.27680 -3.27680 -3.27680 -3.27680 -3.27680
17.79 17.80870 0.0 65.650 14.990 0.0960 0.1020 1.0 5.0 200.0 15.230770 506.666670 197.0 15.230770 5511.250 889250.538460 149.153850 42.0 838873499.785370 0.0 0.0 0.0 0.0 0.0 0.0 0.0 -3.27680 -3.27680 -3.27680 -3.27680 -3.27680 -3.27680
17.78 17.79650 0.0 65.70 14.986670 0.0960 0.1020 1.0 5.166670 200.0 14.615380 507.50 197.0 14.615380 5490.333330 889251.384620 149.076920 42.0 838875094.244120 0.0 0.0 0.0 0.0 0.0 0.0 0.0 -3.27680 -3.27680 -3.27680 -3.27680 -3.27680 -3.27680
17.77 17.788360 0.0 65.733330 14.983330 0.0960 0.1020 1.0 5.333330 200.0 14.0 508.333330 197.0 14.0 5469.416670 889252.230770 149.0 42.0 838876688.702880 0.0 0.0 0.0 0.0 0.0 0.0 0.0 -3.27680 -3.27680 -3.27680 -3.27680 -3.27680 -3.27680
17.76 17.780220 0.0 65.766670 14.980 0.0960 0.1020 1.0 5.50 200.0 15.284310 509.166670 197.0 15.284310 5448.50 889253.076920 149.083330 42.0 838878283.161630 0.0 0.0 0.0 0.0 0.0 0.0 0.0 -3.27680 -3.27680 -3.27680 -3.27680 -3.27680 -3.27680
