~VERSION INFORMATION SECTION
VERS. 2.0 : CWLS LAS-VERSION 2.0
WRAP. NO : One line per depth step
~WELL INFORMATION SECTION
# MNEM.UNIT VALUE/NAME DESCRIPTION
#-------- -------------- ---------------------
STRT.Metres 2 : Start
STOP.Metres 22.45 : Stop
STEP.Metres 0.01 : Step
NULL.  -999.25 :NULL VALUE
DATE. 2026-02-09 : DATE
~CURVE INFORMATION SECTION
DEPTH.Metres : 0 Depth
Depth. : 1 Depth
Tension. : 2 Tension
Time. : 3 Time
Speed. : 4 Speed
Voltage. : 5 Voltage
Current. : 6 Current
WET. : 7 WET
Sig. : 8 Sig
Vth. : 9 Vth
GR.CPS : 10 GR
Timebase.ms : 11 Timebase
HeadVoltage.V : 12 Head Voltage
API.API : 13 API
Conductivity.uS : 14 Conductivity
PT100.Ohms : 15 PT100
Vmon.mV : 16 Vmon
Status. : 17 Status
Temperature.C : 18 Temperature
Incline.Deg : 19 Incline
Azimuth.Deg : 20 Azimuth
RelativeBearing.Deg : 21 Relative Bearing
MagneticToolFace.Deg : 22 Magnetic Tool Face
GravityMagnitude.G : 23 Gravity Magnitude
MagnetometerMagnitude.H : 24 Magnetometer Magnitude
Temperature.C : 25 Temperature
GX. : 26 GX
GY. : 27 GY
GZ. : 28 GZ
HX. : 29 HX
HY. : 30 HY
HZ. : 31 HZ
~PARAMETER INFORMATION SECTION
~OTHER
#-------------------------------------------------
#Produced By: GeoVista Logger - Version 7.1.107.0
Verticality Sonde - 6292
Temperature and Conductivity Sonde - Inline - 8974
Natural Gamma Sonde - 9931
WLIS - 10024
#-------------------------------------------------
~ASCII LOG DATA
# ...
18.38 18.376560 0.0 109.250 10.0550 0.0960 0.1040 1.0 25.0 100.0 8.888890 500.0 196.0 8.888890 98.153950 109.524040 152.0 43.0 24.454110 0.10 279.0750 245.6750 165.050 1.791980 6.067750 21.810 -0.001640 -0.003420 1.791840 0.252010 -0.068930 -0.547920
18.39 18.384830 0.0 109.30 10.060 0.0960 0.1040 1.0 25.0 100.0 9.777780 500.0 196.0 9.777780 98.225670 109.523740 152.0 43.0 24.453340 0.10 279.28750 245.43750 165.0250 1.791990 6.067380 21.810 -0.001630 -0.003370 1.791830 0.252030 -0.06920 -0.547970
18.40 18.401370 0.0 109.40 10.0550 0.0960 0.1040 1.0 25.0 100.0 10.666670 500.0 196.0 10.666670 98.297390 109.523440 152.0 43.0 24.452560 0.10 279.50 245.20 165.0 1.7920 6.0670 21.810 -0.001620 -0.003310 1.791820 0.252060 -0.069470 -0.548010
18.41 18.409640 0.0 109.450 10.050 0.0960 0.1040 1.0 25.0 100.0 11.555560 500.0 196.0 11.555560 98.369110 109.523140 152.0 43.0 24.451790 0.10 279.36250 245.28750 164.950 1.7920 6.068750 21.810 -0.001610 -0.003260 1.791810 0.252080 -0.069730 -0.548060
18.42 18.417910 0.0 109.50 10.0450 0.0960 0.1040 1.0 25.0 100.0 12.444440 500.0 196.0 12.444440 98.440820 109.522840 152.0 43.0 24.451010 0.10 279.2250 245.3750 164.90 1.7920 6.07050 21.810 -0.00160 -0.00320 1.79180 0.25210 -0.070 -0.54810
18.43 18.426180 0.0 109.550 10.040 0.0960 0.1030 1.0 25.0 100.0 13.333330 500.0 196.0 13.333330 98.512540 109.522540 152.0 43.0 24.450230 0.10 279.08750 245.46250 164.850 1.7920 6.072250 21.810 -0.001570 -0.00320 1.79180 0.252230 -0.069510 -0.548070
18.44 18.434450 0.0 109.60 10.0350 0.0960 0.1020 1.0 25.0 100.0 14.222220 500.0 196.0 14.222220 98.761930 109.522240 152.0 43.0 24.449460 0.10 278.950 245.550 164.80 1.7920 6.0740 21.810 -0.001550 -0.00320 1.79180 0.252350 -0.069020 -0.548050
18.45 18.450990 0.0 109.70 10.030 0.0960 0.1040 1.0 25.0 100.0 15.111110 500.0 196.0 15.111110 99.011320 109.521930 152.0 43.0 24.448680 0.10 278.81250 245.63750 164.750 1.7920 6.075750 21.810 -0.001520 -0.00320 1.79180 0.252480 -0.068540 -0.548030
18.46 18.459650 0.0 109.750 10.0250 0.0960 0.1040 1.0 24.888890 100.0 16.0 500.0 196.0 16.0 99.260710 109.521630 152.0 43.0 24.44790 0.10 278.6750 245.7250 164.70 1.7920 6.07750 21.810 -0.00150 -0.00320 1.79180 0.25260 -0.068050 -0.5480
18.47 18.468320 0.0 109.80 10.020 0.0960 0.1040 1.0 24.777780 100.0 15.470590 500.0 196.0 15.470590 99.51010 109.521470 152.0 43.0 24.447470 0.10 278.53750 245.81250 164.650 1.7920 6.079250 21.810 -0.001470 -0.00320 1.79180 0.252730 -0.067560 -0.547980
18.48 18.476580 0.0 109.850 10.0150 0.0960 0.1040 1.0 24.666670 100.0 14.941180 500.0 196.0 14.941180 99.759490 109.52130 152.0 43.0 24.447040 0.10 278.40 245.90 164.60 1.7920 6.0810 21.810 -0.001450 -0.00320 1.79180 0.252850 -0.067080 -0.547950
18.49 18.484850 0.0 109.90 10.010 0.0960 0.1040 1.0 24.555560 100.0 14.411760 500.0 196.0 14.411760 100.008870 109.521130 152.0 43.0 24.446610 0.10 278.40 246.0 164.688890 1.791990 6.080 21.810 -0.001420 -0.00320 1.79180 0.252980 -0.066590 -0.547930
18.50 18.501390 0.0 110.0 10.0150 0.0960 0.1040 1.0 24.444440 100.0 13.882350 500.0 196.0 13.882350 100.258260 109.520960 152.0 43.0 24.446180 0.10 278.40 246.10 164.777780 1.791980 6.0790 21.810 -0.00140 -0.00320 1.79180 0.25310 -0.06610 -0.54790
18.51 18.510060 0.0 110.050 10.020 0.0960 0.1040 1.0 24.333330 100.0 13.352940 500.0 196.0 13.352940 100.507650 109.52080 152.0 43.0 24.445750 0.10 278.40 246.20 164.866670 1.791970 6.0780 21.810 -0.001460 -0.00320 1.791810 0.25320 -0.06580 -0.547790
18.52 18.518720 0.0 110.10 10.0250 0.0960 0.1040 1.0 24.222220 100.0 12.823530 500.0 196.0 12.823530 100.470980 109.520630 152.0 43.0 24.445320 0.10 278.40 246.30 164.955560 1.791960 6.0770 21.810 -0.001520 -0.00320 1.791830 0.25330 -0.06550 -0.547680
18.53 18.526990 0.0 110.150 10.030 0.0960 0.1040 1.0 24.111110 100.0 12.294120 500.0 196.0 12.294120 100.43430 109.520460 152.0 43.0 24.444890 0.10 278.40 246.40 165.044440 1.791940 6.0760 21.810 -0.001590 -0.00320 1.791840 0.25340 -0.06520 -0.547560
18.54 18.535260 0.0 110.20 10.0350 0.0960 0.1040 1.0 24.0 100.0 11.764710 500.0 196.0 11.764710 100.397630 109.520290 152.0 43.0 24.444450 0.10 278.40 246.50 165.133330 1.791930 6.0750 21.810 -0.001650 -0.00320 1.791850 0.25350 -0.06490 -0.547450
18.55 18.55180 0.0 110.30 10.040 0.0960 0.1040 1.0 23.8750 100.0 12.235290 500.0 196.0 12.235290 100.360950 109.520130 152.0 43.0 24.444020 0.10 278.40 246.60 165.222220 1.791920 6.0740 21.810 -0.001710 -0.00320 1.791860 0.25360 -0.06460 -0.547340
18.56 18.560460 0.0 110.350 10.0450 0.0960 0.1030 1.0 23.750 100.0 12.705880 500.0 196.0 12.705880 100.324280 109.519750 152.0 43.0 24.443050 0.10 278.40 246.70 165.311110 1.791910 6.0730 21.810 -0.001770 -0.00320 1.791880 0.25370 -0.06430 -0.547230
18.57 18.569130 0.0 110.40 10.050 0.0960 0.1020 1.0 23.6250 100.0 13.176470 501.250 196.0 13.176470 100.28760 109.519370 152.0 43.0 24.442080 0.10 278.40 246.80 165.40 1.79190 6.0720 21.810 -0.001840 -0.00320 1.791890 0.25380 -0.0640 -0.547110
18.58 18.57740 0.0 110.450 10.0550 0.0960 0.1020 1.0 23.50 100.0 13.647060 502.50 196.0 13.647060 100.250930 109.5190 152.0 43.0 24.441110 0.10 280.20 245.0250 165.4250 1.791910 6.069630 21.810 -0.00190 -0.00320 1.79190 0.25390 -0.06370 -0.5470
18.59 18.585670 0.0 110.50 10.060 0.0960 0.1020 1.0 23.3750 100.0 14.117650 503.750 196.0 14.117650 100.214250 109.518620 152.0 43.0 24.440140 0.10 282.0 243.250 165.450 1.791930 6.067250 21.810 -0.002040 -0.003170 1.79190 0.253810 -0.064460 -0.546810
18.60 18.602990 0.0 110.60 10.0650 0.0960 0.1040 1.0 23.250 100.0 14.588240 505.0 196.0 14.588240 100.233810 109.518240 152.0 43.0 24.439170 0.10 283.80 241.4750 165.4750 1.791940 6.064880 21.810 -0.002190 -0.003130 1.79190 0.253720 -0.065210 -0.546620
18.61 18.610870 0.0 110.650 10.070 0.0960 0.1040 1.0 23.1250 100.0 15.058820 506.250 196.0 15.058820 100.253370 109.517870 152.0 43.0 24.43820 0.10 285.60 239.70 165.50 1.791950 6.06250 21.810 -0.002330 -0.00310 1.79190 0.253630 -0.065970 -0.546430
18.62 18.618750 0.0 110.70 10.0750 0.0960 0.1040 1.0 23.0 100.0 15.529410 507.50 196.0 15.529410 100.272930 109.517490 152.0 43.0 24.437230 0.10 287.40 237.9250 165.5250 1.791960 6.060130 21.810 -0.002480 -0.003070 1.79190 0.253540 -0.066720 -0.546240
18.63 18.627020 0.0 110.750 10.080 0.0960 0.1040 1.0 23.0 100.0 16.0 508.750 196.0 16.0 100.292490 109.517110 152.0 43.0 24.436260 0.10 289.20 236.150 165.550 1.791980 6.057750 21.810 -0.002620 -0.003030 1.79190 0.253460 -0.067480 -0.546060
18.64 18.635290 0.0 110.80 10.0850 0.0960 0.1040 1.0 23.0 100.0 16.0 510.0 196.0 16.0 100.312050 109.516810 152.1250 43.0 24.435480 0.10 291.0 234.3750 165.5750 1.791990 6.055380 21.810 -0.002770 -0.0030 1.79190 0.253370 -0.068230 -0.545870
18.65 18.651820 0.0 110.90 10.090 0.0960 0.1040 1.0 23.0 100.0 16.0 508.888890 196.0 16.0 100.331610 109.516510 152.250 43.0 24.434710 0.10 292.80 232.60 165.60 1.7920 6.0530 21.810 -0.002910 -0.002970 1.79190 0.253280 -0.068990 -0.545680
18.66 18.660490 0.0 110.950 10.0950 0.0960 0.1030 1.0 23.0 100.0 16.0 507.777780 196.0 16.0 100.351170 109.516210 152.3750 43.0 24.433930 0.10 293.93750 231.31250 165.450 1.7920 6.053130 21.810 -0.003060 -0.002930 1.79190 0.253190 -0.069740 -0.545490
18.67 18.669150 0.0 111.0 10.10 0.0960 0.1020 1.0 23.0 100.0 16.0 506.666670 196.0 16.0 100.370730 109.515910 152.50 43.0 24.433150 0.10 295.0750 230.0250 165.30 1.7920 6.053250 21.810 -0.00320 -0.00290 1.79190 0.25310 -0.07050 -0.54530
18.68 18.677420 0.0 111.050 10.1050 0.0960 0.1030 1.0 23.0 100.0 16.0 505.555560 196.0 16.0 100.390290 109.515610 152.6250 43.0 24.432380 0.10 296.21250 228.73750 165.150 1.7920 6.053380 21.810 -0.003050 -0.002960 1.79190 0.253430 -0.069680 -0.545450
18.69 18.685690 0.0 111.10 10.110 0.0960 0.1040 1.0 23.0 100.0 16.0 504.444440 196.0 16.0 100.448970 109.51530 152.750 43.0 24.43160 0.10 297.350 227.450 165.0 1.7920 6.05350 21.810 -0.00290 -0.003020 1.79190 0.253750 -0.068850 -0.54560
18.70 18.702230 0.0 111.20 10.0950 0.0960 0.1020 1.0 23.0 100.0 16.0 503.333330 196.0 16.0 100.507650 109.5150 152.8750 43.0 24.430820 0.10 298.48750 226.16250 164.850 1.7920 6.053630 21.810 -0.002750 -0.003090 1.79190 0.254080 -0.068020 -0.545750
