~VERSION INFORMATION SECTION
VERS. 2.0 : CWLS LAS-VERSION 2.0
WRAP. NO : One line per depth step
~WELL INFORMATION SECTION
# MNEM.UNIT VALUE/NAME DESCRIPTION
#-------- -------------- ---------------------
STRT.Metres 25 : Start
STOP.Metres -2.12 : Stop
STEP.Metres -0.01 : Step
NULL.  -999.25 :NULL VALUE
DATE. 2026-13-09 : DATE
~CURVE INFORMATION SECTION
DEPTH.Metres : 0 Depth
Depth. : 1 Depth
Tension. : 2 Tension
Time. : 3 Time
Speed. : 4 Speed
Voltage. : 5 Voltage
Current. : 6 Current
WET. : 7 WET
Sig. : 8 Sig
Vth. : 9 Vth
GR.CPS : 10 GR
Timebase.ms : 11 Timebase
HeadVoltage.V : 12 Head Voltage
API.API : 13 API
Conductivity.uS : 14 Conductivity
PT100.Ohms : 15 PT100
Vmon.mV : 16 Vmon
Status. : 17 Status
Temperature.C : 18 Temperature
Incline.Deg : 19 Incline
Azimuth.Deg : 20 Azimuth
RelativeBearing.Deg : 21 Relative Bearing
MagneticToolFace.Deg : 22 Magnetic Tool Face
GravityMagnitude.G : 23 Gravity Magnitude
MagnetometerMagnitude.H : 24 Magnetometer Magnitude
Temperature.C : 25 Temperature
GX. : 26 GX
GY. : 27 GY
GZ. : 28 GZ
HX. : 29 HX
HY. : 30 HY
HZ. : 31 HZ
~PARAMETER INFORMATION SECTION
~OTHER
#-------------------------------------------------
#Produced By: GeoVista Logger - Version 7.1.107.0
Verticality Sonde - 9605
Temperature and Conductivity Sonde - Inline - 8974
Natural Gamma Sonde - 9931
WLIS - 10021
#-------------------------------------------------
~ASCII LOG DATA
# ...
23.65 23.674320 0.0 20.60 14.970 0.0960 0.1020 1.0 0.0 200.0 26.0 462.50 196.0 26.0 -999.25 -999.25 153.416670 -999.25 -999.25 -999.25 -999.25 -999.25 -999.25 -999.25 -999.25 -999.25 -999.25 -999.25 -999.25 -999.25 -999.25 -999.25
23.64 23.661720 0.0 20.650 14.970 0.0960 0.1020 1.0 0.0 200.0 26.0 455.0 196.0 26.0 -999.25 -999.25 153.333330 -999.25 -999.25 -999.25 -999.25 -999.25 -999.25 -999.25 -999.25 -999.25 -999.25 -999.25 -999.25 -999.25 -999.25 -999.25
23.63 23.649120 0.0 20.70 14.970 0.0960 0.1020 1.0 0.0 200.0 26.0 447.50 196.0 26.0 -999.25 -999.25 153.250 -999.25 -999.25 -999.25 -999.25 -999.25 -999.25 -999.25 -999.25 -999.25 -999.25 -999.25 -999.25 -999.25 -999.25 -999.25
23.62 23.640980 0.0 20.733330 14.976670 0.0960 0.101330 1.0 0.0 200.0 26.0 440.0 196.0 26.0 6355.966670 -999.25 153.166670 15.666670 -999.25 -999.25 -999.25 -999.25 -999.25 -999.25 -999.25 -999.25 -999.25 -999.25 -999.25 -999.25 -999.25 -999.25
23.61 23.632840 0.0 20.766670 14.983330 0.0960 0.100670 1.0 0.0 200.0 26.0 432.50 196.0 26.0 12711.933330 -999.25 153.083330 31.333330 -999.25 -999.25 -999.25 -999.25 -999.25 -999.25 -999.25 -999.25 -999.25 -999.25 -999.25 -999.25 -999.25 -999.25
23.60 23.62470 0.0 20.80 14.990 0.0960 0.10 1.0 0.0 200.0 26.0 425.0 196.0 26.0 19067.90 -999.25 153.0 47.0 -999.25 -999.25 -999.25 -999.25 -999.25 -999.25 -999.25 -999.25 -999.25 -999.25 -999.25 -999.25 -999.25 -999.25
23.59 23.61210 0.0 20.850 14.996670 0.0960 0.1010 1.0 0.0 200.0 25.66260 417.50 196.0 25.66260 19066.16250 -999.25 153.0 47.0 -999.25 -999.25 -999.25 -999.25 -999.25 -999.25 -999.25 -999.25 -999.25 -999.25 -999.25 -999.25 -999.25 -999.25
23.58 23.59950 0.0 20.90 15.003330 0.0960 0.1020 1.0 0.0 200.0 25.32520 410.0 196.0 25.32520 19064.4250 -999.25 153.0 47.0 -999.25 -999.25 -999.25 -999.25 -999.25 -999.25 -999.25 -999.25 -999.25 -999.25 -999.25 -999.25 -999.25 -999.25
23.57 23.59110 0.0 20.933330 15.010 0.0960 0.1020 1.0 0.0 200.0 24.98780 385.384620 196.0 24.98780 19062.68750 -999.25 153.0 47.0 -999.25 -999.25 -999.25 -999.25 -999.25 -999.25 -999.25 -999.25 -999.25 -999.25 -999.25 -999.25 -999.25 -999.25
23.56 23.582690 0.0 20.966670 15.016670 0.0960 0.1020 1.0 0.0 200.0 24.650410 360.769230 196.0 24.650410 19060.950 -999.25 153.0 47.0 -999.25 -999.25 -999.25 -999.25 -999.25 -999.25 -999.25 -999.25 -999.25 -999.25 -999.25 -999.25 -999.25 -999.25
23.55 23.574290 0.0 21.0 15.023330 0.0960 0.1020 1.0 0.0 200.0 24.313010 336.153850 196.0 24.313010 19059.21250 -999.25 153.0 47.0 -999.25 -999.25 -999.25 -999.25 -999.25 -999.25 -999.25 -999.25 -999.25 -999.25 -999.25 -999.25 -999.25 -999.25
23.54 23.561690 0.0 21.050 15.030 0.0960 0.1020 1.0 0.0 200.0 23.975610 311.538460 196.0 23.975610 19057.4750 -999.25 153.0 47.0 -999.25 -999.25 -999.25 -999.25 -999.25 -999.25 -999.25 -999.25 -999.25 -999.25 -999.25 -999.25 -999.25 -999.25
23.53 23.549090 0.0 21.10 15.036670 0.0960 0.1020 1.0 0.0 200.0 23.638210 286.923080 196.0 23.638210 19055.73750 -999.25 153.0 47.0 -999.25 -999.25 -999.25 -999.25 -999.25 -999.25 -999.25 -999.25 -999.25 -999.25 -999.25 -999.25 -999.25 -999.25
23.52 23.540690 0.0 21.133330 15.043330 0.0960 0.1020 1.0 0.0 200.0 23.300810 262.307690 196.0 23.300810 19054.0 -999.25 153.0 47.0 -999.25 -999.25 -999.25 -999.25 -999.25 -999.25 -999.25 -999.25 -999.25 -999.25 -999.25 -999.25 -999.25 -999.25
23.51 23.532290 0.0 21.166670 15.050 0.0960 0.1020 1.0 0.0 200.0 22.963410 237.692310 196.076920 22.963410 19043.750 -999.25 153.0 47.0 -999.25 -999.25 -999.25 -999.25 -999.25 -999.25 -999.25 -999.25 -999.25 -999.25 -999.25 -999.25 -999.25 -999.25
23.50 23.523890 0.0 21.20 15.056670 0.0960 0.1020 1.0 0.0 200.0 22.626020 213.076920 196.153850 22.626020 19033.50 -999.25 153.0 47.0 -999.25 -999.25 -999.25 -999.25 -999.25 -999.25 -999.25 -999.25 -999.25 -999.25 -999.25 -999.25 -999.25 -999.25
23.49 23.511680 0.0 21.250 15.063330 0.0960 0.1020 1.0 0.0 200.0 22.288620 188.461540 196.230770 22.288620 19023.250 296314.20 153.0 47.0 279431111.671370 -999.25 -999.25 -999.25 -999.25 -999.25 -999.25 -999.25 -999.25 -999.25 -999.25 -999.25 -999.25 -999.25
23.48 23.499470 0.0 21.30 15.070 0.0960 0.1020 1.0 0.0 200.0 21.951220 163.846150 196.307690 21.951220 19013.0 592628.40 153.0 47.0 558862223.342740 -999.25 -999.25 -999.25 -999.25 -999.25 -999.25 -999.25 -999.25 -999.25 -999.25 -999.25 -999.25 -999.25
23.47 23.491330 0.0 21.333330 15.060670 0.0960 0.1020 1.0 0.0 200.0 21.117370 139.230770 196.384620 21.117370 19002.750 888942.60 153.0 47.0 838293335.014110 -999.25 -999.25 -999.25 -999.25 -999.25 -999.25 -999.25 -999.25 -999.25 -999.25 -999.25 -999.25 -999.25
23.46 23.48320 0.0 21.366670 15.051330 0.0960 0.1020 1.0 0.0 200.0 20.283510 114.615380 196.461540 20.283510 18992.50 888942.5250 153.166670 47.0 838293193.736290 -999.25 -999.25 -999.25 -999.25 -999.25 -999.25 -999.25 -999.25 -999.25 -999.25 -999.25 -999.25 -999.25
23.45 23.475060 0.0 21.40 15.0420 0.0960 0.1020 1.0 0.0 200.0 19.449660 90.0 196.538460 19.449660 18982.250 888942.450 153.333330 47.0 838293052.458470 -999.25 -999.25 -999.25 -999.25 -999.25 -999.25 -999.25 -999.25 -999.25 -999.25 -999.25 -999.25 -999.25
23.44 23.462460 0.0 21.450 15.032670 0.0960 0.1020 1.0 0.0 200.0 18.61580 124.166670 196.615380 18.61580 18972.0 888942.3750 153.50 47.0 838292911.180650 -999.25 -999.25 -999.25 -999.25 -999.25 -999.25 -999.25 -999.25 -999.25 -999.25 -999.25 -999.25 -999.25
23.43 23.449850 0.0 21.50 15.023330 0.0960 0.1020 1.0 0.0 200.0 17.781950 158.333330 196.692310 17.781950 18961.750 888942.30 153.666670 47.0 838292769.902830 -999.25 -999.25 -999.25 -999.25 -999.25 -999.25 -999.25 -999.25 -999.25 -999.25 -999.25 -999.25 -999.25
23.42 23.437250 0.0 21.550 15.0140 0.0960 0.1010 1.0 0.0 200.0 16.948090 192.50 196.769230 16.948090 18951.50 888942.2250 153.833330 47.0 838292628.625010 -999.25 -999.25 -999.25 -999.25 -999.25 -999.25 -999.25 -999.25 -999.25 -999.25 -999.25 -999.25 -999.25
23.41 23.424650 0.0 21.60 15.004670 0.0960 0.10 1.0 0.0 200.0 16.114240 226.666670 196.846150 16.114240 18941.250 888942.150 154.0 47.0 838292487.347190 -999.25 -999.25 -999.25 -999.25 -999.25 -999.25 -999.25 -999.25 -999.25 -999.25 -999.25 -999.25 -999.25
23.40 23.416510 0.0 21.633330 14.995330 0.0960 0.100670 1.0 0.0 200.0 15.280380 260.833330 196.923080 15.280380 18931.0 888942.0750 154.166670 47.0 838292346.069370 -999.25 -999.25 -999.25 -999.25 -999.25 -999.25 -999.25 -999.25 -999.25 -999.25 -999.25 -999.25 -999.25
23.39 23.408370 0.0 21.666670 14.9860 0.0960 0.101330 1.0 0.0 200.0 14.446530 295.0 197.0 14.446530 18933.769230 888942.0 154.333330 47.0 838292204.791550 -999.25 -999.25 -999.25 -999.25 -999.25 -999.25 -999.25 -999.25 -999.25 -999.25 -999.25 -999.25 -999.25
23.38 23.400240 0.0 21.70 14.976670 0.0960 0.1020 1.0 0.0 200.0 13.612670 329.166670 197.0 13.612670 18936.538460 888942.166670 154.50 47.0 838292518.742080 -999.25 -999.25 -999.25 -999.25 -999.25 -999.25 -999.25 -999.25 -999.25 -999.25 -999.25 -999.25 -999.25
23.37 23.391830 0.0 21.733330 14.967330 0.0960 0.1020 1.0 0.0 200.0 12.778820 363.333330 197.0 12.778820 18939.307690 888942.333330 154.666670 47.0 838292832.692620 -999.25 -999.25 -999.25 -999.25 -999.25 -999.25 -999.25 -999.25 -999.25 -999.25 -999.25 -999.25 -999.25
23.36 23.383430 0.0 21.766670 14.9580 0.0960 0.1020 1.0 0.0 200.0 11.944970 397.50 197.0 11.944970 18942.076920 888942.50 154.833330 47.0 838293146.643150 -999.25 -999.25 -999.25 -999.25 -999.25 -999.25 -999.25 -999.25 -999.25 -999.25 -999.25 -999.25 -999.25
23.35 23.375030 0.0 21.80 14.948670 0.0960 0.1020 1.0 0.0 200.0 11.111110 431.666670 197.0 11.111110 18944.846150 888942.666670 155.0 47.0 838293460.593690 -999.25 -999.25 -999.25 -999.25 -999.25 -999.25 -999.25 -999.25 -999.25 -999.25 -999.25 -999.25 -999.25
23.34 23.362430 0.0 21.850 14.939330 0.0960 0.1020 1.0 0.0 200.0 11.685190 465.833330 197.0 11.685190 18947.615380 888942.833330 154.846150 47.0 838293774.544220 -999.25 -999.25 -999.25 -999.25 -999.25 -999.25 -999.25 -999.25 -999.25 -999.25 -999.25 -999.25 -999.25
