~VERSION INFORMATION SECTION
VERS. 2.0 : CWLS LAS-VERSION 2.0
WRAP. NO : One line per depth step
~WELL INFORMATION SECTION
# MNEM.UNIT VALUE/NAME DESCRIPTION
#-------- -------------- ---------------------
STRT.Metres 19 : Start
STOP.Metres -2.05 : Stop
STEP.Metres -0.01 : Step
NULL.  -999.25 :NULL VALUE
DATE. 2026-03-09 : DATE
~CURVE INFORMATION SECTION
DEPTH.Metres : 0 Depth
Depth. : 1 Depth
Tension. : 2 Tension
Time. : 3 Time
Speed. : 4 Speed
Voltage. : 5 Voltage
Current. : 6 Current
WET. : 7 WET
Sig. : 8 Sig
Vth. : 9 Vth
GR.CPS : 10 GR
Timebase.ms : 11 Timebase
HeadVoltage.V : 12 Head Voltage
API.API : 13 API
Conductivity.uS : 14 Conductivity
PT100.Ohms : 15 PT100
Vmon.mV : 16 Vmon
Status. : 17 Status
Temperature.C : 18 Temperature
Incline.Deg : 19 Incline
Azimuth.Deg : 20 Azimuth
RelativeBearing.Deg : 21 Relative Bearing
MagneticToolFace.Deg : 22 Magnetic Tool Face
GravityMagnitude.G : 23 Gravity Magnitude
MagnetometerMagnitude.H : 24 Magnetometer Magnitude
Temperature.C : 25 Temperature
GX. : 26 GX
GY. : 27 GY
GZ. : 28 GZ
HX. : 29 HX
HY. : 30 HY
HZ. : 31 HZ
~PARAMETER INFORMATION SECTION
~OTHER
#-------------------------------------------------
#Produced By: GeoVista Logger - Version 7.1.107.0
Verticality Sonde - 9605
Temperature and Conductivity Sonde - Inline - 8974
Natural Gamma Sonde - 9931
WLIS - 10021
#-------------------------------------------------
~ASCII LOG DATA
# ...
17.57 17.572820 0.0 42.50 4.9760 0.0960 0.1020 1.0 6.60 200.0 26.0 500.0 197.0 26.0 3302.50 889659.80 145.50 41.0 839644870.656130 0.0 0.0 0.0 0.0 0.0 0.0 0.0 -3.27680 -3.27680 -3.27680 -3.27680 -3.27680 -3.27680
17.56 17.564940 0.0 42.60 4.9840 0.0960 0.1020 1.0 6.40 200.0 24.50 500.0 197.0 24.50 3307.0 889660.40 145.250 41.0 839646001.787890 0.0 0.0 0.0 0.0 0.0 0.0 0.0 -3.27680 -3.27680 -3.27680 -3.27680 -3.27680 -3.27680
17.55 17.556280 0.0 42.70 4.9920 0.0960 0.1020 1.0 6.20 200.0 23.0 500.0 197.0 23.0 3303.250 889661.0 145.0 41.0 839647132.919650 0.0 0.0 0.0 0.0 0.0 0.0 0.0 -3.27680 -3.27680 -3.27680 -3.27680 -3.27680 -3.27680
17.54 17.54840 0.0 42.80 5.0 0.0960 0.1020 1.0 6.0 200.0 21.50 500.0 197.0 21.50 3299.50 889661.50 145.0 41.0 839648075.53210 0.0 0.0 0.0 0.0 0.0 0.0 0.0 -3.27680 -3.27680 -3.27680 -3.27680 -3.27680 -3.27680
17.53 17.53580 0.0 42.950 4.990 0.0960 0.1020 1.0 6.0 200.0 20.0 500.0 197.0 20.0 3295.750 889662.0 145.0 41.0 839649018.144550 0.0 0.0 0.0 0.0 0.0 0.0 0.0 -3.27680 -3.27680 -3.27680 -3.27680 -3.27680 -3.27680
17.52 17.52320 0.0 43.10 4.980 0.0960 0.1020 1.0 6.0 200.0 24.0 500.0 197.0 24.0 3292.0 889662.50 145.0 41.0 839649960.756990 0.0 0.0 0.0 0.0 0.0 0.0 0.0 -3.27680 -3.27680 -3.27680 -3.27680 -3.27680 -3.27680
17.51 17.514540 0.0 43.20 4.970 0.0960 0.1020 1.0 6.0 200.0 28.0 500.0 197.0 28.0 3297.250 889663.0 145.0 41.0 839650903.369440 0.0 0.0 0.0 0.0 0.0 0.0 0.0 -3.27680 -3.27680 -3.27680 -3.27680 -3.27680 -3.27680
17.50 17.506660 0.0 43.30 4.960 0.0960 0.1020 1.0 6.0 200.0 32.0 500.0 197.0 32.0 3302.50 889663.750 145.0 41.0 839652317.292080 0.0 0.0 0.0 0.0 0.0 0.0 0.0 -3.27680 -3.27680 -3.27680 -3.27680 -3.27680 -3.27680
17.49 17.494060 0.0 43.450 4.966670 0.0960 0.1020 1.0 6.250 200.0 36.0 500.0 197.0 36.0 3307.750 889664.50 145.0 41.0 839653731.214710 0.0 0.0 0.0 0.0 0.0 0.0 0.0 -3.27680 -3.27680 -3.27680 -3.27680 -3.27680 -3.27680
17.48 17.481460 0.0 43.60 4.973330 0.0960 0.1020 1.0 6.50 200.0 34.0 500.0 197.0 34.0 3313.0 889665.250 145.0 41.0 839655145.137350 0.0 0.0 0.0 0.0 0.0 0.0 0.0 -3.27680 -3.27680 -3.27680 -3.27680 -3.27680 -3.27680
17.47 17.47280 0.0 43.70 4.980 0.0960 0.1020 1.0 6.750 200.0 32.0 500.0 197.0 32.0 3309.750 889666.0 145.0 41.0 839656559.059990 0.0 0.0 0.0 0.0 0.0 0.0 0.0 -3.27680 -3.27680 -3.27680 -3.27680 -3.27680 -3.27680
17.46 17.464920 0.0 43.80 4.986670 0.0960 0.1020 1.0 7.0 200.0 30.0 500.0 197.0 30.0 3306.50 889666.50 145.0 41.0 839657501.677730 0.0 0.0 0.0 0.0 0.0 0.0 0.0 -3.27680 -3.27680 -3.27680 -3.27680 -3.27680 -3.27680
17.45 17.456260 0.0 43.90 4.993330 0.0960 0.1020 1.0 7.0 200.0 28.0 500.0 197.0 28.0 3303.250 889667.0 145.0 41.0 839658444.295460 0.0 0.0 0.0 0.0 0.0 0.0 0.0 -3.27680 -3.27680 -3.27680 -3.27680 -3.27680 -3.27680
17.44 17.447590 0.0 44.0 5.0 0.0960 0.1020 1.0 7.0 200.0 24.50 500.0 197.0 24.50 3300.0 889667.50 145.0 41.0 839659386.91320 0.0 0.0 0.0 0.0 0.0 0.0 0.0 -3.27680 -3.27680 -3.27680 -3.27680 -3.27680 -3.27680
17.43 17.435780 0.0 44.150 5.0 0.0960 0.1020 1.0 7.0 200.0 21.0 500.0 197.0 21.0 3298.60 889668.0 145.0 41.0 839660329.530940 0.0 0.0 0.0 0.0 0.0 0.0 0.0 -3.27680 -3.27680 -3.27680 -3.27680 -3.27680 -3.27680
17.42 17.423180 0.0 44.30 5.0 0.0960 0.1020 1.0 7.0 200.0 17.50 500.0 197.0 17.50 3297.20 889668.0 145.0 41.0 839660329.530940 0.0 0.0 0.0 0.0 0.0 0.0 0.0 -3.27680 -3.27680 -3.27680 -3.27680 -3.27680 -3.27680
17.41 17.41530 0.0 44.40 5.0 0.0960 0.1020 1.0 7.0 200.0 14.0 502.50 197.0 14.0 3295.80 889668.0 145.0 41.0 839660329.530940 0.0 0.0 0.0 0.0 0.0 0.0 0.0 -3.27680 -3.27680 -3.27680 -3.27680 -3.27680 -3.27680
17.40 17.406640 0.0 44.50 5.0 0.0960 0.1020 1.0 7.0 200.0 14.40 505.0 197.0 14.40 3294.40 889668.0 145.0 41.0 839660329.530940 0.0 0.0 0.0 0.0 0.0 0.0 0.0 -3.27680 -3.27680 -3.27680 -3.27680 -3.27680 -3.27680
17.39 17.394430 0.0 44.650 4.9820 0.0960 0.1010 1.0 7.0 200.0 14.80 507.50 197.0 14.80 3293.0 889668.0 145.0 41.0 839660329.530940 0.0 0.0 0.0 0.0 0.0 0.0 0.0 -3.27680 -3.27680 -3.27680 -3.27680 -3.27680 -3.27680
17.38 17.381430 0.0 44.80 4.9640 0.0960 0.1020 1.0 7.0 200.0 15.20 510.0 197.0 15.20 3290.50 889668.0 145.0 41.0 839660329.530940 0.0 0.0 0.0 0.0 0.0 0.0 0.0 -3.27680 -3.27680 -3.27680 -3.27680 -3.27680 -3.27680
17.37 17.373560 0.0 44.90 4.9460 0.0960 0.1020 1.0 7.0 200.0 15.60 507.50 197.0 15.60 3288.0 889668.0 145.0 41.0 839660329.530940 0.0 0.0 0.0 0.0 0.0 0.0 0.0 -3.27680 -3.27680 -3.27680 -3.27680 -3.27680 -3.27680
17.36 17.365680 0.0 45.0 4.9280 0.0960 0.1020 1.0 7.0 200.0 16.0 505.0 197.0 16.0 3285.50 889668.0 145.0 41.0 839660329.530940 0.0 0.0 0.0 0.0 0.0 0.0 0.0 -3.27680 -3.27680 -3.27680 -3.27680 -3.27680 -3.27680
17.35 17.357020 0.0 45.10 4.910 0.0960 0.1020 1.0 7.0 200.0 24.0 502.50 197.0 24.0 3283.0 889668.0 145.0 41.0 839660329.530940 0.0 0.0 0.0 0.0 0.0 0.0 0.0 -3.27680 -3.27680 -3.27680 -3.27680 -3.27680 -3.27680
17.34 17.344420 0.0 45.250 4.920 0.0960 0.1020 1.0 7.0 200.0 32.0 500.0 197.0 32.0 3285.0 889669.50 145.0 41.0 839663157.396850 0.0 0.0 0.0 0.0 0.0 0.0 0.0 -3.27680 -3.27680 -3.27680 -3.27680 -3.27680 -3.27680
17.33 17.331820 0.0 45.40 4.930 0.0960 0.1020 1.0 7.0 200.0 40.0 500.0 197.0 40.0 3287.0 889671.0 145.0 41.0 839665985.262760 0.0 0.0 0.0 0.0 0.0 0.0 0.0 -3.27680 -3.27680 -3.27680 -3.27680 -3.27680 -3.27680
17.32 17.323940 0.0 45.50 4.940 0.0960 0.1020 1.0 7.0 200.0 48.0 500.0 197.0 48.0 3289.0 889672.50 145.0 41.0 839668813.128670 0.0 0.0 0.0 0.0 0.0 0.0 0.0 -3.27680 -3.27680 -3.27680 -3.27680 -3.27680 -3.27680
17.31 17.315280 0.0 45.60 4.950 0.0960 0.1020 1.0 7.0 200.0 42.862750 500.0 197.0 42.862750 3291.0 889674.0 145.0 41.0 839671640.994580 0.0 0.0 0.0 0.0 0.0 0.0 0.0 -3.27680 -3.27680 -3.27680 -3.27680 -3.27680 -3.27680
17.30 17.30740 0.0 45.70 4.960 0.0960 0.1020 1.0 7.0 200.0 37.725490 500.0 197.0 37.725490 3284.250 889674.20 145.0 41.0 839672018.044850 0.0 0.0 0.0 0.0 0.0 0.0 0.0 -3.27680 -3.27680 -3.27680 -3.27680 -3.27680 -3.27680
17.29 17.29480 0.0 45.850 4.9680 0.0960 0.1020 1.0 7.0 200.0 32.588240 500.0 197.0 32.588240 3277.50 889674.40 145.0 41.0 839672395.095120 0.0 0.0 0.0 0.0 0.0 0.0 0.0 -3.27680 -3.27680 -3.27680 -3.27680 -3.27680 -3.27680
17.28 17.28220 0.0 46.0 4.9760 0.0960 0.1020 1.0 7.0 200.0 27.450980 500.0 197.0 27.450980 3270.750 889674.60 145.0 41.0 839672772.145390 0.0 0.0 0.0 0.0 0.0 0.0 0.0 -3.27680 -3.27680 -3.27680 -3.27680 -3.27680 -3.27680
17.27 17.274320 0.0 46.10 4.9840 0.0960 0.1020 1.0 7.0 200.0 28.588240 500.0 197.0 28.588240 3264.0 889674.80 145.0 41.0 839673149.195660 0.0 0.0 0.0 0.0 0.0 0.0 0.0 -3.27680 -3.27680 -3.27680 -3.27680 -3.27680 -3.27680
17.26 17.265660 0.0 46.20 4.9920 0.0960 0.1020 1.0 7.0 200.0 29.725490 500.0 197.0 29.725490 3271.0 889675.0 145.0 41.0 839673526.245930 0.0 0.0 0.0 0.0 0.0 0.0 0.0 -3.27680 -3.27680 -3.27680 -3.27680 -3.27680 -3.27680
17.25 17.256990 0.0 46.30 5.0 0.0960 0.1020 1.0 7.0 200.0 30.862750 500.0 197.0 30.862750 3278.0 889676.0 145.0 41.0 839675411.502570 0.0 0.0 0.0 0.0 0.0 0.0 0.0 -3.27680 -3.27680 -3.27680 -3.27680 -3.27680 -3.27680
17.24 17.244790 0.0 46.450 4.9920 0.0960 0.1020 1.0 7.0 200.0 32.0 500.0 197.0 32.0 3285.0 889677.0 145.0 41.0 839677296.759210 0.0 0.0 0.0 0.0 0.0 0.0 0.0 -3.27680 -3.27680 -3.27680 -3.27680 -3.27680 -3.27680
17.23 17.232580 0.0 46.60 4.9840 0.0960 0.1020 1.0 7.0 200.0 31.50 500.0 197.0 31.50 3292.0 889678.0 145.0 41.0 839679182.015850 0.0 0.0 0.0 0.0 0.0 0.0 0.0 -3.27680 -3.27680 -3.27680 -3.27680 -3.27680 -3.27680
17.22 17.223920 0.0 46.70 4.9760 0.0960 0.1020 1.0 7.0 200.0 31.0 500.0 197.0 31.0 3281.750 889679.0 145.0 41.0 839681067.272480 0.0 0.0 0.0 0.0 0.0 0.0 0.0 -3.27680 -3.27680 -3.27680 -3.27680 -3.27680 -3.27680
17.21 17.216040 0.0 46.80 4.9680 0.0960 0.1020 1.0 7.0 200.0 30.50 500.0 197.0 30.50 3271.50 889678.750 145.0 41.0 839680595.957530 0.0 0.0 0.0 0.0 0.0 0.0 0.0 -3.27680 -3.27680 -3.27680 -3.27680 -3.27680 -3.27680
17.20 17.207380 0.0 46.90 4.960 0.0960 0.1020 1.0 6.750 200.0 30.0 500.0 197.0 30.0 3261.250 889678.50 145.0 41.0 839680124.642580 0.0 0.0 0.0 0.0 0.0 0.0 0.0 -3.27680 -3.27680 -3.27680 -3.27680 -3.27680 -3.27680
