~VERSION INFORMATION SECTION
VERS. 2.0 : CWLS LAS-VERSION 2.0
WRAP. NO : One line per depth step
~WELL INFORMATION SECTION
# MNEM.UNIT VALUE/NAME DESCRIPTION
#-------- -------------- ---------------------
STRT.Metres 2 : Start
STOP.Metres 22.45 : Stop
STEP.Metres 0.01 : Step
NULL.  -999.25 :NULL VALUE
DATE. 2026-02-09 : DATE
~CURVE INFORMATION SECTION
DEPTH.Metres : 0 Depth
Depth. : 1 Depth
Tension. : 2 Tension
Time. : 3 Time
Speed. : 4 Speed
Voltage. : 5 Voltage
Current. : 6 Current
WET. : 7 WET
Sig. : 8 Sig
Vth. : 9 Vth
GR.CPS : 10 GR
Timebase.ms : 11 Timebase
HeadVoltage.V : 12 Head Voltage
API.API : 13 API
Conductivity.uS : 14 Conductivity
PT100.Ohms : 15 PT100
Vmon.mV : 16 Vmon
Status. : 17 Status
Temperature.C : 18 Temperature
Incline.Deg : 19 Incline
Azimuth.Deg : 20 Azimuth
RelativeBearing.Deg : 21 Relative Bearing
MagneticToolFace.Deg : 22 Magnetic Tool Face
GravityMagnitude.G : 23 Gravity Magnitude
MagnetometerMagnitude.H : 24 Magnetometer Magnitude
Temperature.C : 25 Temperature
GX. : 26 GX
GY. : 27 GY
GZ. : 28 GZ
HX. : 29 HX
HY. : 30 HY
HZ. : 31 HZ
~PARAMETER INFORMATION SECTION
~OTHER
#-------------------------------------------------
#Produced By: GeoVista Logger - Version 7.1.107.0
Verticality Sonde - 6292
Temperature and Conductivity Sonde - Inline - 8974
Natural Gamma Sonde - 9931
WLIS - 10024
#-------------------------------------------------
~ASCII LOG DATA
# ...
12.11 12.106120 0.0 71.70 9.980 0.0960 0.1040 1.0 33.0 100.0 6.0 500.0 196.0 6.0 84.972230 109.680050 153.0 43.0 24.856030 0.30 307.866670 193.066670 141.433330 1.79120 6.0640 21.376670 -0.009570 -0.002830 1.791160 0.205270 -0.162740 -0.546610
12.12 12.122660 0.0 71.80 9.9850 0.0960 0.1040 1.0 33.0 100.0 6.444440 500.0 196.0 6.444440 84.781520 109.680150 153.0 43.0 24.856280 0.30 307.477780 193.544440 141.522220 1.79120 6.0630 21.377780 -0.009530 -0.002770 1.791140 0.205430 -0.162560 -0.546590
12.13 12.130930 0.0 71.850 9.990 0.0960 0.1040 1.0 33.0 100.0 6.888890 500.0 196.0 6.888890 84.590810 109.680120 153.0 43.0 24.856190 0.30 307.088890 194.022220 141.611110 1.79120 6.0620 21.378890 -0.00950 -0.00270 1.791130 0.20560 -0.162370 -0.546570
12.14 12.13920 0.0 71.90 9.9950 0.0960 0.1040 1.0 33.0 100.0 7.333330 500.0 196.0 7.333330 84.40010 109.680080 153.0 43.0 24.856090 0.30 306.70 194.50 141.70 1.79120 6.0610 21.380 -0.009470 -0.002630 1.791120 0.205770 -0.162180 -0.546540
12.15 12.147870 0.0 71.950 10.0 0.0960 0.1040 1.0 33.0 100.0 7.777780 500.0 196.0 7.777780 84.20940 109.680040 153.0 43.0 24.855990 0.30 306.71250 194.51250 141.7250 1.791210 6.0610 21.38250 -0.009430 -0.002570 1.791110 0.205930 -0.161990 -0.546520
12.16 12.156530 0.0 72.0 10.0050 0.0960 0.1040 1.0 33.0 100.0 8.222220 500.0 196.0 8.222220 84.018690 109.680 153.0 43.0 24.85590 0.30 306.7250 194.5250 141.750 1.791230 6.0610 21.3850 -0.00940 -0.00250 1.79110 0.20610 -0.16180 -0.54650
12.17 12.173070 0.0 72.10 10.010 0.0960 0.1040 1.0 33.0 100.0 8.666670 500.0 196.0 8.666670 84.253410 109.679960 153.0 43.0 24.85580 0.30 306.73750 194.53750 141.7750 1.791240 6.0610 21.38750 -0.009320 -0.00250 1.79110 0.205940 -0.161960 -0.54650
12.18 12.181340 0.0 72.150 10.0050 0.0960 0.1040 1.0 33.0 100.0 9.111110 500.0 196.0 9.111110 84.488120 109.679930 153.0 43.0 24.85570 0.30 306.750 194.550 141.80 1.791250 6.0610 21.390 -0.009250 -0.00250 1.79110 0.205780 -0.162130 -0.54650
12.19 12.189610 0.0 72.20 10.0 0.0960 0.1040 1.0 33.0 100.0 9.555560 500.0 196.0 9.555560 84.722840 109.679890 153.0 43.0 24.85560 0.30 306.76250 194.56250 141.8250 1.791260 6.0610 21.39250 -0.009170 -0.00250 1.79110 0.205610 -0.162290 -0.54650
12.20 12.198270 0.0 72.250 9.9950 0.0960 0.1040 1.0 33.0 100.0 10.0 500.0 196.0 10.0 84.957560 109.679850 153.0 43.0 24.855510 0.30 306.7750 194.5750 141.850 1.791280 6.0610 21.3950 -0.00910 -0.00250 1.79110 0.205450 -0.162450 -0.54650
12.21 12.206930 0.0 72.30 9.990 0.0960 0.1040 1.0 33.0 100.0 9.250 500.0 196.0 9.250 85.192280 109.679930 153.0 43.0 24.85570 0.30 306.78750 194.58750 141.8750 1.791290 6.0610 21.39750 -0.009020 -0.00250 1.79110 0.205290 -0.162610 -0.54650
12.22 12.21520 0.0 72.350 9.9850 0.0960 0.1040 1.0 33.0 100.0 8.50 500.0 196.0 8.50 85.4270 109.680 153.0 43.0 24.85590 0.30 306.80 194.60 141.90 1.79130 6.0610 21.40 -0.008950 -0.00250 1.79110 0.205130 -0.162780 -0.54650
12.23 12.223470 0.0 72.40 9.980 0.0960 0.1040 1.0 33.0 100.0 7.750 500.0 196.0 7.750 85.661710 109.680080 153.0 43.0 24.856090 0.30 306.822220 194.522220 141.844440 1.79130 6.060780 21.40 -0.008870 -0.00250 1.79110 0.204960 -0.162940 -0.54650
12.24 12.240010 0.0 72.50 9.9750 0.0960 0.1040 1.0 33.0 100.0 7.0 500.0 196.0 7.0 85.896430 109.680150 153.0 43.0 24.856280 0.30 306.844440 194.444440 141.788890 1.79130 6.060560 21.40 -0.00880 -0.00250 1.79110 0.20480 -0.16310 -0.54650
12.25 12.248280 0.0 72.550 9.970 0.0960 0.1040 1.0 33.0 100.0 6.250 500.0 196.0 6.250 86.131150 109.680230 153.0 43.0 24.856480 0.30 306.866670 194.366670 141.733330 1.79130 6.060330 21.40 -0.008840 -0.002490 1.79110 0.205040 -0.162840 -0.546490
12.26 12.256550 0.0 72.60 9.9650 0.0960 0.1040 1.0 33.0 100.0 5.50 500.0 196.0 5.50 85.955110 109.68030 153.0 43.0 24.856670 0.30 306.888890 194.288890 141.677780 1.79130 6.060110 21.40 -0.008870 -0.002480 1.79110 0.205280 -0.162580 -0.546480
12.27 12.273090 0.0 72.70 9.960 0.0960 0.1040 1.0 33.0 100.0 4.750 500.0 196.0 4.750 85.779070 109.680380 153.0 43.0 24.856870 0.30 306.911110 194.211110 141.622220 1.79130 6.059890 21.40 -0.008910 -0.002460 1.79110 0.205510 -0.162310 -0.546460
12.28 12.281360 0.0 72.750 9.960 0.0960 0.1040 1.0 33.0 100.0 4.0 500.0 196.0 4.0 85.603040 109.680450 153.0 43.0 24.857060 0.30 306.933330 194.133330 141.566670 1.79130 6.059670 21.40 -0.008950 -0.002450 1.79110 0.205750 -0.162050 -0.546450
12.29 12.289630 0.0 72.80 9.960 0.0960 0.1040 1.0 32.8750 100.0 4.0 500.0 196.0 4.0 85.4270 109.680350 153.0 43.0 24.85680 0.30 306.955560 194.055560 141.511110 1.79130 6.059440 21.40 -0.008990 -0.002440 1.79110 0.205990 -0.161790 -0.546440
12.30 12.29830 0.0 72.850 9.960 0.0960 0.1030 1.0 32.750 100.0 4.0 500.0 196.0 4.0 85.250960 109.680250 153.0 43.0 24.856540 0.30 306.977780 193.977780 141.455560 1.79130 6.059220 21.40 -0.009030 -0.002430 1.79110 0.206230 -0.161530 -0.546430
12.31 12.306960 0.0 72.90 9.960 0.0960 0.1020 1.0 32.6250 100.0 4.0 500.0 196.0 4.0 85.074920 109.680150 153.0 43.0 24.856280 0.30 307.0 193.90 141.40 1.79130 6.0590 21.40 -0.009060 -0.002410 1.79110 0.206460 -0.161260 -0.546410
12.32 12.315230 0.0 72.950 9.960 0.0960 0.1030 1.0 32.50 100.0 4.0 500.0 196.0 4.0 84.898880 109.680050 153.0 43.0 24.856030 0.30 306.98750 194.0 141.48750 1.79130 6.059130 21.403750 -0.00910 -0.00240 1.79110 0.20670 -0.1610 -0.54640
12.33 12.32350 0.0 73.0 9.960 0.0960 0.1040 1.0 32.3750 100.0 4.0 500.0 196.0 4.0 84.722840 109.679950 153.0 43.0 24.855770 0.30 306.9750 194.10 141.5750 1.79130 6.059250 21.40750 -0.009180 -0.00250 1.791110 0.20690 -0.160740 -0.546390
12.34 12.340830 0.0 73.10 9.960 0.0960 0.1040 1.0 32.250 100.0 4.0 500.0 196.0 4.0 84.605480 109.679850 153.0 43.0 24.855510 0.30 306.96250 194.20 141.66250 1.79130 6.059380 21.411250 -0.009260 -0.00260 1.791120 0.20710 -0.160490 -0.546380
12.35 12.34910 0.0 73.150 9.960 0.0960 0.1040 1.0 32.1250 100.0 4.0 500.0 196.0 4.0 84.488120 109.679750 153.0 43.0 24.855250 0.30 306.950 194.30 141.750 1.79130 6.05950 21.4150 -0.009330 -0.00270 1.791130 0.20730 -0.160230 -0.546370
12.36 12.357370 0.0 73.20 9.960 0.0960 0.1040 1.0 32.0 100.0 4.0 500.0 196.0 4.0 84.370760 109.679650 153.0 43.0 24.854990 0.30 306.93750 194.40 141.83750 1.79130 6.059630 21.418750 -0.009410 -0.00280 1.791140 0.20750 -0.159980 -0.546360
12.37 12.365640 0.0 73.250 9.960 0.0960 0.1040 1.0 32.1250 100.0 4.888890 500.0 196.0 4.888890 84.253410 109.679550 153.0 43.0 24.854730 0.30 306.9250 194.50 141.9250 1.79130 6.059750 21.42250 -0.009490 -0.00290 1.791160 0.20770 -0.159720 -0.546340
12.38 12.373910 0.0 73.30 9.960 0.0960 0.1040 1.0 32.250 100.0 5.777780 500.0 196.0 5.777780 84.136050 109.679590 153.0 43.0 24.854830 0.30 306.91250 194.60 142.01250 1.79130 6.059880 21.426250 -0.009570 -0.0030 1.791170 0.20790 -0.159470 -0.546330
12.39 12.390440 0.0 73.40 9.9750 0.0960 0.1040 1.0 32.3750 100.0 6.666670 500.0 196.0 6.666670 84.018690 109.679630 153.0 43.0 24.854930 0.30 306.90 194.70 142.10 1.79130 6.060 21.430 -0.009640 -0.00310 1.791180 0.20810 -0.159210 -0.546320
12.40 12.399110 0.0 73.450 9.990 0.0960 0.1040 1.0 32.50 100.0 7.555560 500.0 196.0 7.555560 83.901330 109.679660 153.0 43.0 24.855020 0.30 306.48750 195.1750 142.1750 1.79130 6.059880 21.433750 -0.009720 -0.00320 1.791190 0.20830 -0.158960 -0.546310
12.41 12.407770 0.0 73.50 10.0050 0.0960 0.1040 1.0 32.6250 100.0 8.444440 500.0 196.0 8.444440 83.783970 109.67970 153.0 43.0 24.855120 0.30 306.0750 195.650 142.250 1.79130 6.059750 21.43750 -0.00980 -0.00330 1.79120 0.20850 -0.15870 -0.54630
12.42 12.416040 0.0 73.550 10.020 0.0960 0.1030 1.0 32.750 100.0 9.333330 500.0 196.0 9.333330 83.960010 109.679740 153.0 43.0 24.855220 0.30 305.66250 196.1250 142.3250 1.79130 6.059630 21.441250 -0.009850 -0.003340 1.79120 0.208250 -0.159010 -0.54630
12.43 12.424310 0.0 73.60 10.0350 0.0960 0.1020 1.0 32.8750 100.0 10.222220 500.0 196.0 10.222220 84.136050 109.679780 153.0 43.0 24.855310 0.30 305.250 196.60 142.40 1.79130 6.05950 21.4450 -0.00990 -0.003370 1.79120 0.2080 -0.159330 -0.54630
12.44 12.440850 0.0 73.70 10.050 0.0960 0.1040 1.0 33.0 100.0 11.111110 500.0 196.0 11.111110 84.312080 109.679810 153.0 43.0 24.855410 0.30 304.83750 197.0750 142.4750 1.79130 6.059380 21.448750 -0.009950 -0.003410 1.79120 0.207750 -0.159640 -0.54630
