~VERSION INFORMATION SECTION
VERS. 2.0 : CWLS LAS-VERSION 2.0
WRAP. NO : One line per depth step
~WELL INFORMATION SECTION
# MNEM.UNIT VALUE/NAME DESCRIPTION
#-------- -------------- ---------------------
STRT.Metres 25 : Start
STOP.Metres -2.12 : Stop
STEP.Metres -0.01 : Step
NULL.  -999.25 :NULL VALUE
DATE. 2026-13-09 : DATE
~CURVE INFORMATION SECTION
DEPTH.Metres : 0 Depth
Depth. : 1 Depth
Tension. : 2 Tension
Time. : 3 Time
Speed. : 4 Speed
Voltage. : 5 Voltage
Current. : 6 Current
WET. : 7 WET
Sig. : 8 Sig
Vth. : 9 Vth
GR.CPS : 10 GR
Timebase.ms : 11 Timebase
HeadVoltage.V : 12 Head Voltage
API.API : 13 API
Conductivity.uS : 14 Conductivity
PT100.Ohms : 15 PT100
Vmon.mV : 16 Vmon
Status. : 17 Status
Temperature.C : 18 Temperature
Incline.Deg : 19 Incline
Azimuth.Deg : 20 Azimuth
RelativeBearing.Deg : 21 Relative Bearing
MagneticToolFace.Deg : 22 Magnetic Tool Face
GravityMagnitude.G : 23 Gravity Magnitude
MagnetometerMagnitude.H : 24 Magnetometer Magnitude
Temperature.C : 25 Temperature
GX. : 26 GX
GY. : 27 GY
GZ. : 28 GZ
HX. : 29 HX
HY. : 30 HY
HZ. : 31 HZ
~PARAMETER INFORMATION SECTION
~OTHER
#-------------------------------------------------
#Produced By: GeoVista Logger - Version 7.1.107.0
Verticality Sonde - 9605
Temperature and Conductivity Sonde - Inline - 8974
Natural Gamma Sonde - 9931
WLIS - 10021
#-------------------------------------------------
~ASCII LOG DATA
# ...
5.46 5.478770 0.0 93.366670 14.964670 0.0960 0.1020 1.0 42.0 200.0 25.833330 500.0 197.0 25.833330 1705.0 890740.692310 155.0 42.0 841683827.047730 0.0 0.0 0.0 0.0 0.0 0.0 0.0 -3.27680 -3.27680 -3.27680 -3.27680 -3.27680 -3.27680
5.45 5.470630 0.0 93.40 14.9620 0.0960 0.1020 1.0 42.0 200.0 25.666670 500.0 197.0 25.666670 1703.666670 890741.307690 155.0 42.0 841684988.591420 0.0 0.0 0.0 0.0 0.0 0.0 0.0 -3.27680 -3.27680 -3.27680 -3.27680 -3.27680 -3.27680
5.44 5.458030 0.0 93.450 14.959330 0.0960 0.1020 1.0 42.0 200.0 25.50 500.0 197.0 25.50 1702.333330 890741.923080 155.0 42.0 841686150.13510 0.0 0.0 0.0 0.0 0.0 0.0 0.0 -3.27680 -3.27680 -3.27680 -3.27680 -3.27680 -3.27680
5.43 5.445430 0.0 93.50 14.956670 0.0960 0.1020 1.0 42.0 200.0 25.333330 500.0 197.0 25.333330 1701.0 890742.538460 155.0 42.0 841687311.678790 0.0 0.0 0.0 0.0 0.0 0.0 0.0 -3.27680 -3.27680 -3.27680 -3.27680 -3.27680 -3.27680
5.42 5.437030 0.0 93.533330 14.9540 0.0960 0.1020 1.0 42.076920 200.0 25.166670 500.0 197.0 25.166670 1699.666670 890743.153850 155.0 42.0 841688473.222470 0.0 0.0 0.0 0.0 0.0 0.0 0.0 -3.27680 -3.27680 -3.27680 -3.27680 -3.27680 -3.27680
5.41 5.428630 0.0 93.566670 14.951330 0.0960 0.1020 1.0 42.153850 200.0 25.0 500.0 197.0 25.0 1698.333330 890743.769230 155.0 42.0 841689634.766160 0.0 0.0 0.0 0.0 0.0 0.0 0.0 -3.27680 -3.27680 -3.27680 -3.27680 -3.27680 -3.27680
5.40 5.420230 0.0 93.60 14.948670 0.0960 0.1020 1.0 42.230770 200.0 24.833330 500.0 197.0 24.833330 1697.0 890744.384620 155.0 42.0 841690796.309840 0.0 0.0 0.0 0.0 0.0 0.0 0.0 -3.27680 -3.27680 -3.27680 -3.27680 -3.27680 -3.27680
5.39 5.407630 0.0 93.650 14.9460 0.0960 0.1020 1.0 42.307690 200.0 24.666670 500.0 197.0 24.666670 1697.0 890745.0 155.0 42.0 841691957.853530 0.0 0.0 0.0 0.0 0.0 0.0 0.0 -3.27680 -3.27680 -3.27680 -3.27680 -3.27680 -3.27680
5.38 5.395030 0.0 93.70 14.943330 0.0960 0.1020 1.0 42.384620 200.0 24.50 500.0 197.0 24.50 1697.0 890746.0 155.0 42.0 841693845.383180 0.0 0.0 0.0 0.0 0.0 0.0 0.0 -3.27680 -3.27680 -3.27680 -3.27680 -3.27680 -3.27680
5.37 5.386890 0.0 93.733330 14.940670 0.0960 0.1020 1.0 42.461540 200.0 24.333330 500.0 197.0 24.333330 1697.0 890747.0 155.0 42.0 841695732.912830 0.0 0.0 0.0 0.0 0.0 0.0 0.0 -3.27680 -3.27680 -3.27680 -3.27680 -3.27680 -3.27680
5.36 5.378750 0.0 93.766670 14.9380 0.0960 0.1020 1.0 42.538460 200.0 24.166670 500.0 197.0 24.166670 1697.0 890748.0 155.0 42.0 841697620.442490 0.0 0.0 0.0 0.0 0.0 0.0 0.0 -3.27680 -3.27680 -3.27680 -3.27680 -3.27680 -3.27680
5.35 5.370610 0.0 93.80 14.935330 0.0960 0.1020 1.0 42.615380 200.0 24.0 500.0 197.0 24.0 1697.0 890749.0 155.0 42.0 841699507.972140 0.0 0.0 0.0 0.0 0.0 0.0 0.0 -3.27680 -3.27680 -3.27680 -3.27680 -3.27680 -3.27680
5.34 5.358010 0.0 93.850 14.932670 0.0960 0.1020 1.0 42.692310 200.0 23.076920 500.0 197.0 23.076920 1697.0 890750.0 155.0 42.0 841701395.501790 0.0 0.0 0.0 0.0 0.0 0.0 0.0 -3.27680 -3.27680 -3.27680 -3.27680 -3.27680 -3.27680
5.33 5.345410 0.0 93.90 14.930 0.0960 0.1020 1.0 42.769230 200.0 22.153850 500.0 197.0 22.153850 1697.0 890751.0 155.083330 42.0 841703283.031440 0.0 0.0 0.0 0.0 0.0 0.0 0.0 -3.27680 -3.27680 -3.27680 -3.27680 -3.27680 -3.27680
5.32 5.337010 0.0 93.933330 14.935630 0.0960 0.1020 1.0 42.846150 200.0 21.230770 500.0 197.0 21.230770 1697.0 890752.0 155.166670 42.0 841705170.56110 0.0 0.0 0.0 0.0 0.0 0.0 0.0 -3.27680 -3.27680 -3.27680 -3.27680 -3.27680 -3.27680
5.31 5.328610 0.0 93.966670 14.941250 0.0960 0.1020 1.0 42.923080 200.0 20.307690 500.0 197.0 20.307690 1697.0 890753.0 155.250 42.0 841707058.090750 0.0 0.0 0.0 0.0 0.0 0.0 0.0 -3.27680 -3.27680 -3.27680 -3.27680 -3.27680 -3.27680
5.30 5.32020 0.0 94.0 14.946880 0.0960 0.1020 1.0 43.0 200.0 19.384620 500.0 197.0 19.384620 1697.0 890754.0 155.333330 42.0 841708945.62040 0.0 0.0 0.0 0.0 0.0 0.0 0.0 -3.27680 -3.27680 -3.27680 -3.27680 -3.27680 -3.27680
5.29 5.30760 0.0 94.050 14.95250 0.0960 0.1020 1.0 43.0 200.0 18.461540 500.0 197.0 18.461540 1697.0 890755.0 155.416670 42.0 841710833.150050 0.0 0.0 0.0 0.0 0.0 0.0 0.0 -3.27680 -3.27680 -3.27680 -3.27680 -3.27680 -3.27680
5.28 5.2950 0.0 94.10 14.958130 0.0960 0.1020 1.0 43.0 200.0 17.538460 500.0 197.0 17.538460 1697.0 890756.0 155.50 42.0 841712720.679710 0.0 0.0 0.0 0.0 0.0 0.0 0.0 -3.27680 -3.27680 -3.27680 -3.27680 -3.27680 -3.27680
5.27 5.286860 0.0 94.133330 14.963750 0.0960 0.1020 1.0 43.0 200.0 16.615380 500.0 197.0 16.615380 1697.0 890757.0 155.583330 42.0 841714608.209360 0.0 0.0 0.0 0.0 0.0 0.0 0.0 -3.27680 -3.27680 -3.27680 -3.27680 -3.27680 -3.27680
5.26 5.278720 0.0 94.166670 14.969380 0.0960 0.1020 1.0 43.0 200.0 15.692310 500.0 197.0 15.692310 1697.615380 890757.538460 155.666670 42.0 841715624.582310 0.0 0.0 0.0 0.0 0.0 0.0 0.0 -3.27680 -3.27680 -3.27680 -3.27680 -3.27680 -3.27680
5.25 5.270590 0.0 94.20 14.9750 0.0960 0.1020 1.0 43.0 200.0 14.769230 500.0 197.0 14.769230 1698.230770 890758.076920 155.750 42.0 841716640.955250 0.0 0.0 0.0 0.0 0.0 0.0 0.0 -3.27680 -3.27680 -3.27680 -3.27680 -3.27680 -3.27680
5.24 5.257980 0.0 94.250 14.980630 0.0960 0.1020 1.0 43.0 200.0 13.846150 500.0 197.0 13.846150 1698.846150 890758.615380 155.833330 42.0 841717657.32820 0.0 0.0 0.0 0.0 0.0 0.0 0.0 -3.27680 -3.27680 -3.27680 -3.27680 -3.27680 -3.27680
5.23 5.245380 0.0 94.30 14.986250 0.0960 0.1020 1.0 43.0 200.0 12.923080 500.0 197.0 12.923080 1699.461540 890759.153850 155.916670 42.0 841718673.701150 0.0 0.0 0.0 0.0 0.0 0.0 0.0 -3.27680 -3.27680 -3.27680 -3.27680 -3.27680 -3.27680
5.22 5.236980 0.0 94.333330 14.991880 0.0960 0.101330 1.0 43.0 200.0 12.0 500.0 197.0 12.0 1700.076920 890759.692310 156.0 42.0 841719690.074090 0.0 0.0 0.0 0.0 0.0 0.0 0.0 -3.27680 -3.27680 -3.27680 -3.27680 -3.27680 -3.27680
5.21 5.228580 0.0 94.366670 14.99750 0.0960 0.100670 1.0 43.0 200.0 12.0 500.0 197.0 12.0 1700.692310 890760.230770 156.0 42.0 841720706.447040 0.0 0.0 0.0 0.0 0.0 0.0 0.0 -3.27680 -3.27680 -3.27680 -3.27680 -3.27680 -3.27680
5.20 5.220180 0.0 94.40 15.003130 0.0960 0.10 1.0 43.0 200.0 12.0 500.0 197.0 12.0 1701.307690 890760.769230 156.0 42.0 841721722.819990 0.0 0.0 0.0 0.0 0.0 0.0 0.0 -3.27680 -3.27680 -3.27680 -3.27680 -3.27680 -3.27680
5.19 5.211780 0.0 94.433330 15.008750 0.0960 0.100670 1.0 43.0 200.0 12.0 500.0 197.0 12.0 1701.923080 890761.307690 156.0 42.0 841722739.192930 0.0 0.0 0.0 0.0 0.0 0.0 0.0 -3.27680 -3.27680 -3.27680 -3.27680 -3.27680 -3.27680
5.18 5.203380 0.0 94.466670 15.014380 0.0960 0.101330 1.0 43.0 200.0 12.0 500.0 197.0 12.0 1702.538460 890761.846150 156.0 42.0 841723755.565880 0.0 0.0 0.0 0.0 0.0 0.0 0.0 -3.27680 -3.27680 -3.27680 -3.27680 -3.27680 -3.27680
5.17 5.194980 0.0 94.50 15.020 0.0960 0.1020 1.0 42.923080 200.0 12.0 500.0 197.0 12.0 1703.153850 890762.384620 156.0 42.0 841724771.938830 0.0 0.0 0.0 0.0 0.0 0.0 0.0 -3.27680 -3.27680 -3.27680 -3.27680 -3.27680 -3.27680
5.16 5.182380 0.0 94.550 15.023330 0.0960 0.1020 1.0 42.846150 200.0 12.0 500.0 197.0 12.0 1703.769230 890762.923080 156.0 42.0 841725788.311770 0.0 0.0 0.0 0.0 0.0 0.0 0.0 -3.27680 -3.27680 -3.27680 -3.27680 -3.27680 -3.27680
5.15 5.169770 0.0 94.60 15.026670 0.0960 0.1020 1.0 42.769230 200.0 12.0 500.0 197.0 12.0 1704.384620 890763.461540 156.0 42.0 841726804.684720 0.0 0.0 0.0 0.0 0.0 0.0 0.0 -3.27680 -3.27680 -3.27680 -3.27680 -3.27680 -3.27680
5.14 5.157170 0.0 94.650 15.030 0.0960 0.1020 1.0 42.692310 200.0 12.0 500.0 197.0 12.0 1705.0 890764.0 156.0 42.0 841727821.057670 0.0 0.0 0.0 0.0 0.0 0.0 0.0 -3.27680 -3.27680 -3.27680 -3.27680 -3.27680 -3.27680
5.13 5.144570 0.0 94.70 15.033330 0.0960 0.1020 1.0 42.615380 200.0 12.0 500.0 197.0 12.0 1704.833330 890764.692310 156.0 42.0 841729127.83460 0.0 0.0 0.0 0.0 0.0 0.0 0.0 -3.27680 -3.27680 -3.27680 -3.27680 -3.27680 -3.27680
5.12 5.136430 0.0 94.733330 15.036670 0.0960 0.1020 1.0 42.538460 200.0 12.0 500.0 197.0 12.0 1704.666670 890765.384620 156.0 42.0 841730434.611540 0.0 0.0 0.0 0.0 0.0 0.0 0.0 -3.27680 -3.27680 -3.27680 -3.27680 -3.27680 -3.27680
5.11 5.128290 0.0 94.766670 15.040 0.0960 0.1020 1.0 42.461540 200.0 12.0 500.0 197.0 12.0 1704.50 890766.076920 156.0 42.0 841731741.388480 0.0 0.0 0.0 0.0 0.0 0.0 0.0 -3.27680 -3.27680 -3.27680 -3.27680 -3.27680 -3.27680
