~VERSION INFORMATION SECTION
VERS. 2.0 : CWLS LAS-VERSION 2.0
WRAP. NO : One line per depth step
~WELL INFORMATION SECTION
# MNEM.UNIT VALUE/NAME DESCRIPTION
#-------- -------------- ---------------------
STRT.Metres 23 : Start
STOP.Metres -2.05 : Stop
STEP.Metres -0.01 : Step
NULL.  -999.25 :NULL VALUE
DATE. 2026-45-09 : DATE
~CURVE INFORMATION SECTION
DEPTH.Metres : 0 Depth
Depth. : 1 Depth
Tension. : 2 Tension
Time. : 3 Time
Speed. : 4 Speed
Voltage. : 5 Voltage
Current. : 6 Current
WET. : 7 WET
Sig. : 8 Sig
Vth. : 9 Vth
GR.CPS : 10 GR
Timebase.ms : 11 Timebase
HeadVoltage.V : 12 Head Voltage
API.API : 13 API
Conductivity.uS : 14 Conductivity
PT100.Ohms : 15 PT100
Vmon.mV : 16 Vmon
Status. : 17 Status
Temperature.C : 18 Temperature
Incline.Deg : 19 Incline
Azimuth.Deg : 20 Azimuth
RelativeBearing.Deg : 21 Relative Bearing
MagneticToolFace.Deg : 22 Magnetic Tool Face
GravityMagnitude.G : 23 Gravity Magnitude
MagnetometerMagnitude.H : 24 Magnetometer Magnitude
Temperature.C : 25 Temperature
GX. : 26 GX
GY. : 27 GY
GZ. : 28 GZ
HX. : 29 HX
HY. : 30 HY
HZ. : 31 HZ
~PARAMETER INFORMATION SECTION
~OTHER
#-------------------------------------------------
#Produced By: GeoVista Logger - Version 7.1.107.0
Verticality Sonde - 9605
Temperature and Conductivity Sonde - Inline - 8974
Natural Gamma Sonde - 9931
WLIS - 10021
#-------------------------------------------------
~ASCII LOG DATA
# ...
0.52 0.528480 0.0 108.20 6.013330 0.0960 0.1020 0.0 993.0 200.0 27.50 500.0 197.0 27.50 15.833330 890623.0 17.60 42.0 841461696.535390 0.0 0.0 0.0 0.0 0.0 0.0 0.0 -3.27680 -3.27680 -3.27680 -3.27680 -3.27680 -3.27680
0.51 0.518240 0.0 108.30 6.006670 0.0960 0.1040 0.0 993.0 200.0 26.0 500.0 197.0 26.0 16.666670 890622.166670 22.0 42.0 841460123.828580 0.0 0.0 0.0 0.0 0.0 0.0 0.0 -3.27680 -3.27680 -3.27680 -3.27680 -3.27680 -3.27680
0.50 0.508790 0.0 108.40 6.0 0.0960 0.1020 0.0 993.0 200.0 24.0 500.0 197.0 24.0 17.50 890621.333330 17.80 42.0 841458551.121770 0.0 0.0 0.0 0.0 0.0 0.0 0.0 -3.27680 -3.27680 -3.27680 -3.27680 -3.27680 -3.27680
0.49 0.497760 0.0 108.50 6.006670 0.0960 0.1020 0.0 993.0 200.0 22.0 500.0 197.0 22.0 18.333330 890620.50 13.60 42.0 841456978.414960 0.0 0.0 0.0 0.0 0.0 0.0 0.0 -3.27680 -3.27680 -3.27680 -3.27680 -3.27680 -3.27680
0.48 0.487520 0.0 108.60 6.013330 0.0960 0.1020 0.0 993.0 200.0 20.0 500.0 197.0 20.0 19.166670 890619.666670 9.40 42.0 841455405.708150 0.0 0.0 0.0 0.0 0.0 0.0 0.0 -3.27680 -3.27680 -3.27680 -3.27680 -3.27680 -3.27680
0.47 0.478070 0.0 108.70 6.020 0.0960 0.1020 0.0 993.0 200.0 18.0 500.0 197.0 18.0 20.0 890618.833330 5.20 42.0 841453833.001340 0.0 0.0 0.0 0.0 0.0 0.0 0.0 -3.27680 -3.27680 -3.27680 -3.27680 -3.27680 -3.27680
0.46 0.467830 0.0 108.80 6.026670 0.0960 0.1020 0.0 993.0 200.0 16.0 500.0 197.0 16.0 19.333330 890618.0 1.0 42.0 841452260.294530 0.0 0.0 0.0 0.0 0.0 0.0 0.0 -3.27680 -3.27680 -3.27680 -3.27680 -3.27680 -3.27680
0.45 0.458380 0.0 108.90 6.033330 0.0960 0.1020 0.0 993.0 200.0 14.0 500.0 197.0 14.0 18.666670 890617.166670 0.750 42.0 841450687.587720 0.0 0.0 0.0 0.0 0.0 0.0 0.0 -3.27680 -3.27680 -3.27680 -3.27680 -3.27680 -3.27680
0.44 0.448140 0.0 109.0 6.040 0.0960 0.1020 0.0 993.0 200.0 15.60 500.0 197.0 15.60 18.0 890616.333330 0.50 42.0 841449114.880920 0.0 0.0 0.0 0.0 0.0 0.0 0.0 -3.27680 -3.27680 -3.27680 -3.27680 -3.27680 -3.27680
0.43 0.43790 0.0 109.10 6.033330 0.0960 0.1020 0.0 993.0 200.0 17.20 500.0 197.0 17.20 17.333330 890615.50 0.250 42.0 841447542.174110 0.0 0.0 0.0 0.0 0.0 0.0 0.0 -3.27680 -3.27680 -3.27680 -3.27680 -3.27680 -3.27680
0.42 0.428450 0.0 109.20 6.026670 0.0960 0.1020 0.0 993.0 200.0 18.80 500.0 197.0 18.80 16.666670 890614.666670 0.0 42.0 841445969.46730 0.0 0.0 0.0 0.0 0.0 0.0 0.0 -3.27680 -3.27680 -3.27680 -3.27680 -3.27680 -3.27680
0.41 0.418210 0.0 109.30 6.020 0.0960 0.1020 0.0 993.20 200.0 20.40 500.0 197.0 20.40 16.0 890613.833330 0.166670 42.0 841444396.760490 0.0 0.0 0.0 0.0 0.0 0.0 0.0 -3.27680 -3.27680 -3.27680 -3.27680 -3.27680 -3.27680
0.40 0.407970 0.0 109.40 6.013330 0.0960 0.1020 0.0 993.40 200.0 22.0 500.0 197.0 22.0 15.40 890613.0 0.333330 42.0 841442824.053680 0.0 0.0 0.0 0.0 0.0 0.0 0.0 -3.27680 -3.27680 -3.27680 -3.27680 -3.27680 -3.27680
0.39 0.397740 0.0 109.50 6.006670 0.0960 0.1020 0.0 993.60 200.0 22.40 500.0 197.0 22.40 14.80 890612.0 0.50 42.0 841440936.822440 0.0 0.0 0.0 0.0 0.0 0.0 0.0 -3.27680 -3.27680 -3.27680 -3.27680 -3.27680 -3.27680
0.38 0.388280 0.0 109.60 6.0 0.0960 0.1020 0.0 993.80 200.0 22.80 500.0 197.0 22.80 14.20 890611.0 0.666670 42.0 841439049.59120 0.0 0.0 0.0 0.0 0.0 0.0 0.0 -3.27680 -3.27680 -3.27680 -3.27680 -3.27680 -3.27680
0.37 0.378050 0.0 109.70 6.0 0.0960 0.1020 0.0 994.0 200.0 23.20 500.0 197.0 23.20 13.60 890610.0 0.833330 42.0 841437162.359960 0.0 0.0 0.0 0.0 0.0 0.0 0.0 -3.27680 -3.27680 -3.27680 -3.27680 -3.27680 -3.27680
0.36 0.368590 0.0 109.80 6.0 0.0960 0.1040 0.0 994.0 200.0 23.60 500.0 197.0 23.60 13.0 890609.0 1.0 42.0 841435275.128720 0.0 0.0 0.0 0.0 0.0 0.0 0.0 -3.27680 -3.27680 -3.27680 -3.27680 -3.27680 -3.27680
0.35 0.358360 0.0 109.90 6.0 0.0960 0.1020 0.0 994.0 200.0 24.0 500.0 197.0 24.0 56.20 890608.0 0.80 42.0 841433387.897480 0.0 0.0 0.0 0.0 0.0 0.0 0.0 -3.27680 -3.27680 -3.27680 -3.27680 -3.27680 -3.27680
0.34 0.348120 0.0 110.0 6.0 0.0960 0.1020 0.0 994.0 200.0 24.80 500.0 197.0 24.80 99.40 890607.0 0.60 42.0 841431500.666240 0.0 0.0 0.0 0.0 0.0 0.0 0.0 -3.27680 -3.27680 -3.27680 -3.27680 -3.27680 -3.27680
0.33 0.337880 0.0 110.10 6.0 0.0960 0.1020 0.0 994.0 200.0 25.60 500.0 197.0 25.60 142.60 890605.666670 0.40 42.0 841428984.377670 0.0 0.0 0.0 0.0 0.0 0.0 0.0 -3.27680 -3.27680 -3.27680 -3.27680 -3.27680 -3.27680
0.32 0.327640 0.0 110.20 6.0 0.0960 0.1020 0.0 994.0 200.0 26.40 500.0 197.0 26.40 185.80 890604.333330 0.20 42.0 841426468.08910 0.0 0.0 0.0 0.0 0.0 0.0 0.0 -3.27680 -3.27680 -3.27680 -3.27680 -3.27680 -3.27680
0.31 0.318190 0.0 110.30 6.0 0.0960 0.1020 0.0 993.40 200.0 27.20 500.0 197.0 27.20 229.0 890603.0 0.0 42.0 841423951.800540 0.0 0.0 0.0 0.0 0.0 0.0 0.0 -3.27680 -3.27680 -3.27680 -3.27680 -3.27680 -3.27680
0.30 0.307950 0.0 110.40 6.0 0.0960 0.1020 0.0 992.80 200.0 28.0 500.0 197.0 28.0 184.20 890601.666670 0.0 42.0 841421435.511970 0.0 0.0 0.0 0.0 0.0 0.0 0.0 -3.27680 -3.27680 -3.27680 -3.27680 -3.27680 -3.27680
0.29 0.297710 0.0 110.50 6.0 0.0960 0.1020 0.0 992.20 200.0 28.0 500.0 197.0 28.0 139.40 890600.333330 0.0 42.0 841418919.22340 0.0 0.0 0.0 0.0 0.0 0.0 0.0 -3.27680 -3.27680 -3.27680 -3.27680 -3.27680 -3.27680
0.28 0.288260 0.0 110.60 6.0 0.0960 0.1020 0.0 991.60 200.0 28.0 500.0 197.0 28.0 94.60 890599.0 0.0 42.0 841416402.934840 0.0 0.0 0.0 0.0 0.0 0.0 0.0 -3.27680 -3.27680 -3.27680 -3.27680 -3.27680 -3.27680
0.27 0.278020 0.0 110.70 6.0 0.0960 0.1020 0.0 991.0 200.0 28.0 500.0 197.0 28.0 49.80 890597.60 0.0 42.0 841413760.854060 0.0 0.0 0.0 0.0 0.0 0.0 0.0 -3.27680 -3.27680 -3.27680 -3.27680 -3.27680 -3.27680
0.26 0.268570 0.0 110.80 6.0 0.0960 0.1040 0.0 991.20 200.0 28.0 500.0 197.0 28.0 5.0 890596.20 0.0 42.0 841411118.773290 0.0 0.0 0.0 0.0 0.0 0.0 0.0 -3.27680 -3.27680 -3.27680 -3.27680 -3.27680 -3.27680
0.25 0.258330 0.0 110.90 5.991670 0.0960 0.1020 0.0 991.40 200.0 28.0 500.0 197.0 28.0 5.0 890594.80 0.20 42.0 841408476.692520 0.0 0.0 0.0 0.0 0.0 0.0 0.0 -3.27680 -3.27680 -3.27680 -3.27680 -3.27680 -3.27680
0.24 0.248090 0.0 111.0 5.983330 0.0960 0.1020 0.0 991.60 200.0 28.80 500.0 197.0 28.80 5.0 890593.40 0.40 42.0 841405834.611740 0.0 0.0 0.0 0.0 0.0 0.0 0.0 -3.27680 -3.27680 -3.27680 -3.27680 -3.27680 -3.27680
0.23 0.238640 0.0 111.10 5.9750 0.0960 0.1020 0.0 991.80 200.0 29.60 500.0 197.0 29.60 5.0 890592.0 0.60 42.0 841403192.530970 0.0 0.0 0.0 0.0 0.0 0.0 0.0 -3.27680 -3.27680 -3.27680 -3.27680 -3.27680 -3.27680
0.22 0.22840 0.0 111.20 5.966670 0.0960 0.1020 0.0 992.0 200.0 30.40 500.0 197.0 30.40 5.0 890590.20 0.80 42.0 841399795.600450 0.0 0.0 0.0 0.0 0.0 0.0 0.0 -3.27680 -3.27680 -3.27680 -3.27680 -3.27680 -3.27680
0.21 0.218950 0.0 111.30 5.958330 0.0960 0.1020 0.0 992.20 200.0 31.20 500.0 197.0 31.20 8.0 890588.40 1.0 42.0 841396398.669940 0.0 0.0 0.0 0.0 0.0 0.0 0.0 -3.27680 -3.27680 -3.27680 -3.27680 -3.27680 -3.27680
0.20 0.208710 0.0 111.40 5.950 0.0960 0.1020 0.0 992.40 200.0 32.0 500.0 197.0 32.0 11.0 890586.60 0.80 42.0 841393001.739420 0.0 0.0 0.0 0.0 0.0 0.0 0.0 -3.27680 -3.27680 -3.27680 -3.27680 -3.27680 -3.27680
0.19 0.198470 0.0 111.50 5.958330 0.0960 0.1020 0.0 992.60 200.0 32.40 502.0 197.0 32.40 14.0 890584.80 0.60 42.0 841389604.80890 0.0 0.0 0.0 0.0 0.0 0.0 0.0 -3.27680 -3.27680 -3.27680 -3.27680 -3.27680 -3.27680
0.18 0.189020 0.0 111.60 5.966670 0.0960 0.1020 0.0 992.80 200.0 32.80 504.0 197.0 32.80 17.0 890583.0 0.40 42.0 841386207.878380 0.0 0.0 0.0 0.0 0.0 0.0 0.0 -3.27680 -3.27680 -3.27680 -3.27680 -3.27680 -3.27680
0.17 0.178780 0.0 111.70 5.9750 0.0960 0.1020 0.0 993.0 200.0 33.20 506.0 197.0 33.20 20.0 890581.60 0.20 42.0 841383565.845020 0.0 0.0 0.0 0.0 0.0 0.0 0.0 -3.27680 -3.27680 -3.27680 -3.27680 -3.27680 -3.27680
0.16 0.168550 0.0 111.80 5.983330 0.0960 0.1020 0.0 993.0 200.0 33.60 508.0 197.0 33.60 23.0 890580.20 0.0 42.0 841380923.811650 0.0 0.0 0.0 0.0 0.0 0.0 0.0 -3.27680 -3.27680 -3.27680 -3.27680 -3.27680 -3.27680
0.15 0.159090 0.0 111.90 5.991670 0.0960 0.1020 0.0 993.0 200.0 34.0 510.0 197.0 34.0 30.80 890578.80 0.0 42.0 841378281.778280 0.0 0.0 0.0 0.0 0.0 0.0 0.0 -3.27680 -3.27680 -3.27680 -3.27680 -3.27680 -3.27680
