~VERSION INFORMATION SECTION
VERS. 2.0 : CWLS LAS-VERSION 2.0
WRAP. NO : One line per depth step
~WELL INFORMATION SECTION
# MNEM.UNIT VALUE/NAME DESCRIPTION
#-------- -------------- ---------------------
STRT.Metres 2 : Start
STOP.Metres 22.45 : Stop
STEP.Metres 0.01 : Step
NULL.  -999.25 :NULL VALUE
DATE. 2026-02-09 : DATE
~CURVE INFORMATION SECTION
DEPTH.Metres : 0 Depth
Depth. : 1 Depth
Tension. : 2 Tension
Time. : 3 Time
Speed. : 4 Speed
Voltage. : 5 Voltage
Current. : 6 Current
WET. : 7 WET
Sig. : 8 Sig
Vth. : 9 Vth
GR.CPS : 10 GR
Timebase.ms : 11 Timebase
HeadVoltage.V : 12 Head Voltage
API.API : 13 API
Conductivity.uS : 14 Conductivity
PT100.Ohms : 15 PT100
Vmon.mV : 16 Vmon
Status. : 17 Status
Temperature.C : 18 Temperature
Incline.Deg : 19 Incline
Azimuth.Deg : 20 Azimuth
RelativeBearing.Deg : 21 Relative Bearing
MagneticToolFace.Deg : 22 Magnetic Tool Face
GravityMagnitude.G : 23 Gravity Magnitude
MagnetometerMagnitude.H : 24 Magnetometer Magnitude
Temperature.C : 25 Temperature
GX. : 26 GX
GY. : 27 GY
GZ. : 28 GZ
HX. : 29 HX
HY. : 30 HY
HZ. : 31 HZ
~PARAMETER INFORMATION SECTION
~OTHER
#-------------------------------------------------
#Produced By: GeoVista Logger - Version 7.1.107.0
Verticality Sonde - 6292
Temperature and Conductivity Sonde - Inline - 8974
Natural Gamma Sonde - 9931
WLIS - 10024
#-------------------------------------------------
~ASCII LOG DATA
# ...
5.70 5.69510 0.0 33.30 9.960 0.0960 0.1020 1.0 32.250 100.0 41.50 500.0 196.0 41.50 84.299040 109.506750 152.0 43.0 24.409570 0.21250 52.13750 72.48750 124.2250 1.79010 5.9640 21.320 0.00220 0.006890 1.790 0.137490 -0.203360 -0.54730
5.71 5.711640 0.0 33.40 9.960 0.0960 0.1040 1.0 32.3750 100.0 39.0 500.0 196.0 39.0 84.390320 109.506940 152.0 43.0 24.410060 0.20 52.30 72.40 124.30 1.79010 5.9650 21.320 0.00220 0.006820 1.790 0.137630 -0.203880 -0.54780
5.72 5.72030 0.0 33.450 9.960 0.0960 0.1030 1.0 32.50 100.0 36.50 500.0 196.0 36.50 84.48160 109.507130 152.0 43.0 24.410540 0.20 52.0750 72.5750 124.250 1.79010 5.971630 21.320 0.00220 0.006760 1.790 0.137760 -0.204390 -0.54830
5.73 5.728970 0.0 33.50 9.960 0.0960 0.1020 1.0 32.6250 100.0 34.0 500.0 196.0 34.0 84.572880 109.507320 152.0 43.0 24.411030 0.20 51.850 72.750 124.20 1.79010 5.978250 21.320 0.00220 0.00670 1.790 0.13790 -0.20490 -0.54880
5.74 5.737240 0.0 33.550 9.960 0.0960 0.1030 1.0 32.750 100.0 31.50 500.0 196.0 31.50 84.664160 109.507510 152.0 43.0 24.411510 0.20 51.6250 72.9250 124.150 1.79010 5.984880 21.320 0.002160 0.006650 1.790 0.138440 -0.205040 -0.548780
5.75 5.745510 0.0 33.60 9.960 0.0960 0.1040 1.0 32.8750 100.0 29.0 500.0 196.0 29.0 84.444110 109.507690 152.0 43.0 24.4120 0.20 51.40 73.10 124.10 1.79010 5.99150 21.320 0.002130 0.00660 1.790 0.138980 -0.205180 -0.548750
5.76 5.762050 0.0 33.70 9.960 0.0960 0.1040 1.0 33.0 100.0 26.50 500.0 196.0 26.50 84.224070 109.507880 152.0 43.0 24.412480 0.20 51.1750 73.2750 124.050 1.79010 5.998130 21.320 0.002090 0.006550 1.790 0.139510 -0.205310 -0.548730
5.77 5.770310 0.0 33.750 9.9650 0.0960 0.1040 1.0 32.888890 100.0 24.0 500.0 196.0 24.0 84.004020 109.508070 152.0 43.0 24.412970 0.20 50.950 73.450 124.0 1.79010 6.004750 21.320 0.002050 0.00650 1.790 0.140050 -0.205450 -0.54870
5.78 5.778580 0.0 33.80 9.970 0.0960 0.1040 1.0 32.777780 100.0 27.0 500.0 196.0 27.0 83.783970 109.507970 151.8750 43.0 24.412710 0.20 50.7250 73.6250 123.950 1.79010 6.011380 21.320 0.002010 0.006450 1.790 0.140590 -0.205590 -0.548680
5.79 5.786850 0.0 33.850 9.9750 0.0960 0.1040 1.0 32.666670 100.0 30.0 500.0 196.0 30.0 83.563920 109.507870 151.750 43.0 24.412450 0.20 50.50 73.80 123.90 1.79010 6.0180 21.320 0.001980 0.00640 1.790 0.141130 -0.205730 -0.548650
5.80 5.795120 0.0 33.90 9.980 0.0960 0.1040 1.0 32.555560 100.0 33.0 500.0 196.0 33.0 83.343870 109.507770 151.6250 43.0 24.412190 0.20 50.666670 73.711110 123.977780 1.79010 6.019330 21.320 0.001940 0.006350 1.790 0.141660 -0.205860 -0.548630
5.81 5.811660 0.0 34.0 9.9850 0.0960 0.1040 1.0 32.444440 100.0 36.0 500.0 196.0 36.0 83.123820 109.507670 151.50 43.0 24.411930 0.20 50.833330 73.622220 124.055560 1.79010 6.020670 21.320 0.00190 0.00630 1.790 0.14220 -0.2060 -0.54860
5.82 5.820330 0.0 34.050 9.990 0.0960 0.1040 1.0 32.333330 100.0 39.0 500.0 196.0 39.0 82.903780 109.507570 151.3750 43.0 24.411680 0.20 51.0 73.533330 124.133330 1.79010 6.0220 21.320 0.00190 0.006330 1.790 0.14240 -0.206320 -0.548540
5.83 5.828990 0.0 34.10 9.9950 0.0960 0.1040 1.0 32.222220 100.0 42.0 500.0 196.0 42.0 83.233850 109.507470 151.250 43.0 24.411420 0.20 51.166670 73.444440 124.211110 1.79010 6.023330 21.320 0.00190 0.006370 1.790 0.14260 -0.206640 -0.548490
5.84 5.837260 0.0 34.150 10.0 0.0960 0.1040 1.0 32.111110 100.0 45.0 500.0 196.0 45.0 83.563920 109.507370 151.1250 43.0 24.411160 0.20 51.333330 73.355560 124.288890 1.79010 6.024670 21.320 0.00190 0.00640 1.790 0.14280 -0.206970 -0.548430
5.85 5.845530 0.0 34.20 10.0050 0.0960 0.1040 1.0 32.0 100.0 48.0 500.0 196.0 48.0 83.893990 109.507270 151.0 43.0 24.41090 0.20 51.50 73.266670 124.366670 1.79010 6.0260 21.320 0.00190 0.006430 1.790 0.1430 -0.207290 -0.548380
5.86 5.862070 0.0 34.30 10.010 0.0960 0.1020 1.0 32.0 100.0 47.555560 500.0 196.0 47.555560 84.224070 109.507170 151.111110 43.0 24.410640 0.20 51.666670 73.177780 124.444440 1.79010 6.027330 21.320 0.00190 0.006470 1.790 0.14320 -0.207610 -0.548320
5.87 5.870340 0.0 34.350 10.010 0.0960 0.1030 1.0 32.0 100.0 47.111110 500.0 196.0 47.111110 84.554140 109.50720 151.222220 43.0 24.410740 0.20 51.833330 73.088890 124.522220 1.79010 6.028670 21.320 0.00190 0.00650 1.790 0.14340 -0.207930 -0.548270
5.88 5.878610 0.0 34.40 10.010 0.0960 0.1040 1.0 32.0 100.0 46.666670 500.0 196.0 46.666670 84.884210 109.507240 151.333330 43.0 24.410830 0.20 52.0 73.0 124.60 1.79010 6.030 21.320 0.00190 0.006530 1.790 0.14360 -0.208260 -0.548210
5.89 5.886880 0.0 34.450 10.010 0.0960 0.1040 1.0 32.0 100.0 46.222220 500.0 196.0 46.222220 85.214280 109.507280 151.444440 43.0 24.410930 0.20 51.91250 73.01250 124.5250 1.79010 6.029130 21.320 0.00190 0.006570 1.790 0.14380 -0.208580 -0.548160
5.90 5.895150 0.0 34.50 10.010 0.0960 0.1040 1.0 32.0 100.0 45.777780 500.0 196.0 45.777780 85.544360 109.507320 151.555560 43.0 24.411030 0.20 51.8250 73.0250 124.450 1.79010 6.028250 21.320 0.00190 0.00660 1.790 0.1440 -0.20890 -0.54810
5.91 5.912480 0.0 34.60 10.010 0.0960 0.1020 1.0 32.0 100.0 45.333330 500.0 196.0 45.333330 85.270520 109.507360 151.666670 43.0 24.411130 0.20 51.73750 73.03750 124.3750 1.79010 6.027380 21.320 0.001930 0.006580 1.790 0.143430 -0.208650 -0.54750
5.92 5.920750 0.0 34.650 10.010 0.0960 0.1030 1.0 32.0 100.0 44.888890 500.0 196.0 44.888890 84.996680 109.507390 151.777780 43.0 24.411220 0.20 51.650 73.050 124.30 1.79010 6.02650 21.320 0.001950 0.006550 1.790 0.142850 -0.20840 -0.54690
5.93 5.929020 0.0 34.70 10.010 0.0960 0.1040 1.0 32.0 100.0 44.444440 500.0 196.0 44.444440 84.722840 109.507430 151.888890 43.0 24.411320 0.20 51.56250 73.06250 124.2250 1.79010 6.025630 21.320 0.001980 0.006530 1.790 0.142280 -0.208150 -0.54630
5.94 5.937280 0.0 34.750 10.010 0.0960 0.1040 1.0 32.0 100.0 44.0 500.0 196.0 44.0 84.4490 109.507470 152.0 43.0 24.411420 0.20 51.4750 73.0750 124.150 1.79010 6.024750 21.320 0.0020 0.00650 1.790 0.14170 -0.20790 -0.54570
5.95 5.945550 0.0 34.80 10.010 0.0960 0.1040 1.0 32.0 100.0 40.750 500.0 196.0 40.750 84.175170 109.507470 152.0 43.0 24.411420 0.20 51.38750 73.08750 124.0750 1.79010 6.023880 21.320 0.002030 0.006480 1.790 0.141130 -0.207650 -0.54510
5.96 5.962880 0.0 34.90 10.010 0.0960 0.1040 1.0 32.0 100.0 37.50 500.0 196.0 37.50 83.901330 109.507470 152.0 43.0 24.411420 0.20 51.30 73.10 124.0 1.79010 6.0230 21.320 0.002050 0.006450 1.790 0.140550 -0.20740 -0.54450
5.97 5.971150 0.0 34.950 10.0150 0.0960 0.1030 1.0 32.0 100.0 34.250 500.0 196.0 34.250 83.627490 109.507470 152.0 43.0 24.411420 0.20 51.50 72.90 124.0 1.79010 6.018110 21.320 0.002070 0.006430 1.790 0.139980 -0.207150 -0.54390
5.98 5.979420 0.0 35.0 10.020 0.0960 0.1020 1.0 32.0 100.0 31.0 500.0 196.0 31.0 83.353650 109.507470 152.0 43.0 24.411420 0.20 51.70 72.70 124.0 1.79010 6.013220 21.320 0.00210 0.00640 1.790 0.13940 -0.20690 -0.54330
5.99 5.987690 0.0 35.050 10.0250 0.0960 0.1020 1.0 32.0 100.0 27.750 500.0 196.0 27.750 83.079810 109.507470 152.0 43.0 24.411420 0.20 51.90 72.50 124.0 1.79010 6.008330 21.320 0.002060 0.006410 1.790 0.139710 -0.2060 -0.544040
6.00 5.995960 0.0 35.10 10.030 0.0960 0.1020 1.0 32.0 100.0 24.50 500.0 196.0 24.50 83.123820 109.507470 152.0 43.0 24.411420 0.20 52.10 72.30 124.0 1.79010 6.003440 21.320 0.002020 0.006430 1.790 0.140030 -0.20510 -0.544780
6.01 6.013290 0.0 35.20 10.0350 0.0960 0.1040 1.0 32.0 100.0 21.250 500.0 196.0 21.250 83.167830 109.507470 152.0 43.0 24.411420 0.20 52.30 72.10 124.0 1.79010 5.998560 21.320 0.001990 0.006440 1.790 0.140340 -0.20420 -0.545510
6.02 6.021560 0.0 35.250 10.040 0.0960 0.1040 1.0 32.111110 100.0 18.0 500.0 196.0 18.0 83.211840 109.507470 152.0 43.0 24.411420 0.20 52.50 71.90 124.0 1.79010 5.993670 21.320 0.001950 0.006450 1.790 0.140650 -0.20330 -0.546250
6.03 6.029830 0.0 35.30 10.0450 0.0960 0.1040 1.0 32.222220 100.0 20.0 500.0 196.0 20.0 83.255850 109.507370 152.0 43.0 24.411160 0.20 52.70 71.70 124.0 1.79010 5.988780 21.320 0.001910 0.006460 1.790 0.140960 -0.20240 -0.546990
6.04 6.03810 0.0 35.350 10.050 0.0960 0.1030 1.0 32.333330 100.0 22.0 500.0 196.0 22.0 83.299860 109.507270 152.0 43.0 24.41090 0.20 52.90 71.50 124.0 1.79010 5.983890 21.320 0.001870 0.006480 1.790 0.141280 -0.20150 -0.547730
