~VERSION INFORMATION SECTION
VERS. 2.0 : CWLS LAS-VERSION 2.0
WRAP. NO : One line per depth step
~WELL INFORMATION SECTION
# MNEM.UNIT VALUE/NAME DESCRIPTION
#-------- -------------- ---------------------
STRT.Metres 23 : Start
STOP.Metres -2.05 : Stop
STEP.Metres -0.01 : Step
NULL.  -999.25 :NULL VALUE
DATE. 2026-45-09 : DATE
~CURVE INFORMATION SECTION
DEPTH.Metres : 0 Depth
Depth. : 1 Depth
Tension. : 2 Tension
Time. : 3 Time
Speed. : 4 Speed
Voltage. : 5 Voltage
Current. : 6 Current
WET. : 7 WET
Sig. : 8 Sig
Vth. : 9 Vth
GR.CPS : 10 GR
Timebase.ms : 11 Timebase
HeadVoltage.V : 12 Head Voltage
API.API : 13 API
Conductivity.uS : 14 Conductivity
PT100.Ohms : 15 PT100
Vmon.mV : 16 Vmon
Status. : 17 Status
Temperature.C : 18 Temperature
Incline.Deg : 19 Incline
Azimuth.Deg : 20 Azimuth
RelativeBearing.Deg : 21 Relative Bearing
MagneticToolFace.Deg : 22 Magnetic Tool Face
GravityMagnitude.G : 23 Gravity Magnitude
MagnetometerMagnitude.H : 24 Magnetometer Magnitude
Temperature.C : 25 Temperature
GX. : 26 GX
GY. : 27 GY
GZ. : 28 GZ
HX. : 29 HX
HY. : 30 HY
HZ. : 31 HZ
~PARAMETER INFORMATION SECTION
~OTHER
#-------------------------------------------------
#Produced By: GeoVista Logger - Version 7.1.107.0
Verticality Sonde - 9605
Temperature and Conductivity Sonde - Inline - 8974
Natural Gamma Sonde - 9931
WLIS - 10021
#-------------------------------------------------
~ASCII LOG DATA
# ...
19.26 19.274810 0.0 25.10 15.013330 0.0960 0.1020 1.0 1.769230 200.0 21.176470 504.615380 197.0 21.176470 10199.461540 889207.333330 142.0 42.0 838792087.979840 0.0 0.0 0.0 0.0 0.0 0.0 0.0 -3.27680 -3.27680 -3.27680 -3.27680 -3.27680 -3.27680
19.25 19.266670 0.0 25.133330 15.010 0.0960 0.1020 1.0 1.923080 200.0 21.307190 503.846150 197.0 21.307190 10162.692310 889207.666670 142.0 42.0 838792716.068560 0.0 0.0 0.0 0.0 0.0 0.0 0.0 -3.27680 -3.27680 -3.27680 -3.27680 -3.27680 -3.27680
19.24 19.258540 0.0 25.166670 15.006670 0.0960 0.1020 1.0 2.076920 200.0 21.437910 503.076920 197.0 21.437910 10125.923080 889208.0 142.0 42.0 838793344.157280 0.0 0.0 0.0 0.0 0.0 0.0 0.0 -3.27680 -3.27680 -3.27680 -3.27680 -3.27680 -3.27680
19.23 19.25040 0.0 25.20 15.003330 0.0960 0.1020 1.0 2.230770 200.0 21.568630 502.307690 197.0 21.568630 10089.153850 889208.333330 142.0 42.0 838793972.2460 0.0 0.0 0.0 0.0 0.0 0.0 0.0 -3.27680 -3.27680 -3.27680 -3.27680 -3.27680 -3.27680
19.22 19.2420 0.0 25.233330 15.0 0.0960 0.1020 1.0 2.384620 200.0 23.755660 501.538460 197.0 23.755660 10052.384620 889208.666670 142.0 42.0 838794600.334720 0.0 0.0 0.0 0.0 0.0 0.0 0.0 -3.27680 -3.27680 -3.27680 -3.27680 -3.27680 -3.27680
19.21 19.233590 0.0 25.266670 14.996670 0.0960 0.1020 1.0 2.538460 200.0 25.942680 500.769230 197.0 25.942680 10015.615380 889209.0 142.0 42.0 838795228.423450 0.0 0.0 0.0 0.0 0.0 0.0 0.0 -3.27680 -3.27680 -3.27680 -3.27680 -3.27680 -3.27680
19.20 19.225190 0.0 25.30 14.993330 0.0960 0.1020 1.0 2.692310 200.0 28.129710 500.0 197.0 28.129710 9978.846150 889209.333330 142.0 42.0 838795856.512170 0.0 0.0 0.0 0.0 0.0 0.0 0.0 -3.27680 -3.27680 -3.27680 -3.27680 -3.27680 -3.27680
19.19 19.212590 0.0 25.350 14.990 0.0960 0.1020 1.0 2.846150 200.0 30.316740 500.0 197.0 30.316740 9942.076920 889209.666670 142.0 42.0 838796484.600890 0.0 0.0 0.0 0.0 0.0 0.0 0.0 -3.27680 -3.27680 -3.27680 -3.27680 -3.27680 -3.27680
19.18 19.199990 0.0 25.40 14.986670 0.0960 0.1020 1.0 3.0 200.0 32.503770 500.0 197.0 32.503770 9905.307690 889210.0 142.0 42.0 838797112.689610 0.0 0.0 0.0 0.0 0.0 0.0 0.0 -3.27680 -3.27680 -3.27680 -3.27680 -3.27680 -3.27680
19.17 19.191590 0.0 25.433330 14.983330 0.0960 0.1020 1.0 3.0 200.0 34.69080 500.0 197.0 34.69080 9868.538460 889210.333330 142.0 42.0 838797740.778330 0.0 0.0 0.0 0.0 0.0 0.0 0.0 -3.27680 -3.27680 -3.27680 -3.27680 -3.27680 -3.27680
19.16 19.183190 0.0 25.466670 14.980 0.0960 0.1020 1.0 3.0 200.0 36.877830 500.0 197.0 36.877830 9831.769230 889210.666670 142.0 42.0 838798368.867050 0.0 0.0 0.0 0.0 0.0 0.0 0.0 -3.27680 -3.27680 -3.27680 -3.27680 -3.27680 -3.27680
19.15 19.174790 0.0 25.50 14.976670 0.0960 0.1020 1.0 3.0 200.0 39.064860 500.0 197.0 39.064860 9795.0 889211.0 142.0 42.0 838798996.955770 0.0 0.0 0.0 0.0 0.0 0.0 0.0 -3.27680 -3.27680 -3.27680 -3.27680 -3.27680 -3.27680
19.14 19.161790 0.0 25.550 14.973330 0.0960 0.1020 1.0 3.0 200.0 41.251890 500.0 197.0 41.251890 9761.166670 889211.615380 142.0 42.0 838800156.5120 0.0 0.0 0.0 0.0 0.0 0.0 0.0 -3.27680 -3.27680 -3.27680 -3.27680 -3.27680 -3.27680
19.13 19.14880 0.0 25.60 14.970 0.0960 0.1020 1.0 3.0 200.0 43.438910 500.0 197.0 43.438910 9727.333330 889212.230770 142.0 42.0 838801316.068220 0.0 0.0 0.0 0.0 0.0 0.0 0.0 -3.27680 -3.27680 -3.27680 -3.27680 -3.27680 -3.27680
19.12 19.140660 0.0 25.633330 14.980 0.0960 0.1020 1.0 3.0 200.0 45.625940 500.0 197.0 45.625940 9693.50 889212.846150 142.0 42.0 838802475.624440 0.0 0.0 0.0 0.0 0.0 0.0 0.0 -3.27680 -3.27680 -3.27680 -3.27680 -3.27680 -3.27680
19.11 19.132520 0.0 25.666670 14.990 0.0960 0.1020 1.0 3.0 200.0 47.812970 500.0 197.0 47.812970 9659.666670 889213.461540 142.0 42.0 838803635.180660 0.0 0.0 0.0 0.0 0.0 0.0 0.0 -3.27680 -3.27680 -3.27680 -3.27680 -3.27680 -3.27680
19.10 19.124380 0.0 25.70 15.0 0.0960 0.1020 1.0 3.0 200.0 50.0 500.0 197.0 50.0 9625.833330 889214.076920 142.0 42.0 838804794.736890 0.0 0.0 0.0 0.0 0.0 0.0 0.0 -3.27680 -3.27680 -3.27680 -3.27680 -3.27680 -3.27680
19.09 19.111780 0.0 25.750 15.010 0.0960 0.1020 1.0 3.0 200.0 48.0 500.0 197.0 48.0 9592.0 889214.692310 142.076920 42.0 838805954.293110 0.0 0.0 0.0 0.0 0.0 0.0 0.0 -3.27680 -3.27680 -3.27680 -3.27680 -3.27680 -3.27680
19.08 19.099180 0.0 25.80 15.020 0.0960 0.1020 1.0 3.0 200.0 46.0 500.0 197.0 46.0 9558.166670 889215.307690 142.153850 42.0 838807113.849330 0.0 0.0 0.0 0.0 0.0 0.0 0.0 -3.27680 -3.27680 -3.27680 -3.27680 -3.27680 -3.27680
19.07 19.090780 0.0 25.833330 15.030 0.0960 0.1020 1.0 3.0 200.0 44.0 500.0 197.0 44.0 9524.333330 889215.923080 142.230770 42.0 838808273.405560 0.0 0.0 0.0 0.0 0.0 0.0 0.0 -3.27680 -3.27680 -3.27680 -3.27680 -3.27680 -3.27680
19.06 19.082380 0.0 25.866670 15.040 0.0960 0.1020 1.0 3.0 200.0 42.0 500.0 197.0 42.0 9490.50 889216.538460 142.307690 42.0 838809432.961780 0.0 0.0 0.0 0.0 0.0 0.0 0.0 -3.27680 -3.27680 -3.27680 -3.27680 -3.27680 -3.27680
19.05 19.073980 0.0 25.90 15.050 0.0960 0.1020 1.0 3.0 200.0 40.0 500.0 197.0 40.0 9456.666670 889217.153850 142.384620 42.0 838810592.5180 0.0 0.0 0.0 0.0 0.0 0.0 0.0 -3.27680 -3.27680 -3.27680 -3.27680 -3.27680 -3.27680
19.04 19.061370 0.0 25.950 15.060 0.0960 0.1020 1.0 3.0 200.0 38.0 500.0 197.0 38.0 9422.833330 889217.769230 142.461540 42.0 838811752.074220 0.0 0.0 0.0 0.0 0.0 0.0 0.0 -3.27680 -3.27680 -3.27680 -3.27680 -3.27680 -3.27680
19.03 19.048770 0.0 26.0 15.070 0.0960 0.1020 1.0 3.0 200.0 36.0 500.0 197.0 36.0 9389.0 889218.384620 142.538460 42.0 838812911.630450 0.0 0.0 0.0 0.0 0.0 0.0 0.0 -3.27680 -3.27680 -3.27680 -3.27680 -3.27680 -3.27680
19.02 19.040630 0.0 26.033330 15.080 0.0960 0.1020 1.0 3.0 200.0 34.0 500.0 197.0 34.0 9354.538460 889219.0 142.615380 42.0 838814071.186670 0.0 0.0 0.0 0.0 0.0 0.0 0.0 -3.27680 -3.27680 -3.27680 -3.27680 -3.27680 -3.27680
19.01 19.03250 0.0 26.066670 15.090 0.0960 0.1020 1.0 3.0 200.0 32.0 500.0 197.0 32.0 9320.076920 889219.083330 142.692310 42.0 838814228.21070 0.0 0.0 0.0 0.0 0.0 0.0 0.0 -3.27680 -3.27680 -3.27680 -3.27680 -3.27680 -3.27680
19.00 19.024360 0.0 26.10 15.10 0.0960 0.1020 1.0 3.0 200.0 30.0 500.0 197.0 30.0 9285.615380 889219.166670 142.769230 42.0 838814385.234730 0.0 0.0 0.0 0.0 0.0 0.0 0.0 -3.27680 -3.27680 -3.27680 -3.27680 -3.27680 -3.27680
18.99 19.011760 0.0 26.150 15.110 0.0960 0.1020 1.0 3.0 200.0 28.0 500.0 197.0 28.0 9251.153850 889219.250 142.846150 42.0 838814542.258770 0.0 0.0 0.0 0.0 0.0 0.0 0.0 -3.27680 -3.27680 -3.27680 -3.27680 -3.27680 -3.27680
18.98 18.999150 0.0 26.20 15.120 0.0960 0.1020 1.0 3.0 200.0 26.0 500.0 197.0 26.0 9216.692310 889219.333330 142.923080 42.0 838814699.28280 0.0 0.0 0.0 0.0 0.0 0.0 0.0 -3.27680 -3.27680 -3.27680 -3.27680 -3.27680 -3.27680
18.97 18.991020 0.0 26.233330 15.107330 0.0960 0.1020 1.0 3.0 200.0 26.615380 500.0 197.0 26.615380 9182.230770 889219.416670 143.0 42.0 838814856.306830 0.0 0.0 0.0 0.0 0.0 0.0 0.0 -3.27680 -3.27680 -3.27680 -3.27680 -3.27680 -3.27680
18.96 18.982880 0.0 26.266670 15.094670 0.0960 0.1020 1.0 3.0 200.0 27.230770 500.0 197.0 27.230770 9147.769230 889219.50 143.0 42.0 838815013.330860 0.0 0.0 0.0 0.0 0.0 0.0 0.0 -3.27680 -3.27680 -3.27680 -3.27680 -3.27680 -3.27680
18.95 18.974740 0.0 26.30 15.0820 0.0960 0.1020 1.0 3.0 200.0 27.846150 500.0 197.0 27.846150 9113.307690 889219.583330 143.0 42.0 838815170.354890 0.0 0.0 0.0 0.0 0.0 0.0 0.0 -3.27680 -3.27680 -3.27680 -3.27680 -3.27680 -3.27680
18.94 18.962140 0.0 26.350 15.069330 0.0960 0.1020 1.0 3.0 200.0 28.461540 500.0 197.0 28.461540 9078.846150 889219.666670 143.0 42.0 838815327.378930 0.0 0.0 0.0 0.0 0.0 0.0 0.0 -3.27680 -3.27680 -3.27680 -3.27680 -3.27680 -3.27680
18.93 18.949540 0.0 26.40 15.056670 0.0960 0.1020 1.0 3.0 200.0 29.076920 500.0 197.0 29.076920 9044.384620 889219.750 143.0 42.0 838815484.402960 0.0 0.0 0.0 0.0 0.0 0.0 0.0 -3.27680 -3.27680 -3.27680 -3.27680 -3.27680 -3.27680
18.92 18.941130 0.0 26.433330 15.0440 0.0960 0.1020 1.0 3.083330 200.0 29.692310 500.0 197.0 29.692310 9009.923080 889219.833330 143.0 42.0 838815641.426990 0.0 0.0 0.0 0.0 0.0 0.0 0.0 -3.27680 -3.27680 -3.27680 -3.27680 -3.27680 -3.27680
