~VERSION INFORMATION SECTION
VERS. 2.0 : CWLS LAS-VERSION 2.0
WRAP. NO : One line per depth step
~WELL INFORMATION SECTION
# MNEM.UNIT VALUE/NAME DESCRIPTION
#-------- -------------- ---------------------
STRT.Metres 26 : Start
STOP.Metres -2.05 : Stop
STEP.Metres -0.01 : Step
NULL.  -999.25 :NULL VALUE
DATE. 2026-48-09 : DATE
~CURVE INFORMATION SECTION
DEPTH.Metres : 0 Depth
Depth. : 1 Depth
Tension. : 2 Tension
Time. : 3 Time
Speed. : 4 Speed
Voltage. : 5 Voltage
Current. : 6 Current
WET. : 7 WET
Sig. : 8 Sig
Vth. : 9 Vth
GR.CPS : 10 GR
Timebase.ms : 11 Timebase
HeadVoltage.V : 12 Head Voltage
API.API : 13 API
Conductivity.uS : 14 Conductivity
PT100.Ohms : 15 PT100
Vmon.mV : 16 Vmon
Status. : 17 Status
Temperature.C : 18 Temperature
Incline.Deg : 19 Incline
Azimuth.Deg : 20 Azimuth
RelativeBearing.Deg : 21 Relative Bearing
MagneticToolFace.Deg : 22 Magnetic Tool Face
GravityMagnitude.G : 23 Gravity Magnitude
MagnetometerMagnitude.H : 24 Magnetometer Magnitude
Temperature.C : 25 Temperature
GX. : 26 GX
GY. : 27 GY
GZ. : 28 GZ
HX. : 29 HX
HY. : 30 HY
HZ. : 31 HZ
~PARAMETER INFORMATION SECTION
~OTHER
#-------------------------------------------------
#Produced By: GeoVista Logger - Version 7.1.107.0
Verticality Sonde - 9605
Temperature and Conductivity Sonde - Inline - 8974
Natural Gamma Sonde - 9931
WLIS - 10021
#-------------------------------------------------
~ASCII LOG DATA
# ...
0.66 0.661580 0.0 119.50 5.950 0.0960 0.1020 0.0 990.80 200.0 26.0 500.0 197.0 26.0 21.0 890608.0 0.0 41.0 841433387.892190 0.0 0.0 0.0 0.0 0.0 0.0 0.0 -3.27680 -3.27680 -3.27680 -3.27680 -3.27680 -3.27680
0.65 0.651340 0.0 119.60 5.950 0.0960 0.1020 0.0 991.20 200.0 26.80 500.0 197.0 26.80 21.333330 890607.692310 0.0 41.0 841432807.208260 0.0 0.0 0.0 0.0 0.0 0.0 0.0 -3.27680 -3.27680 -3.27680 -3.27680 -3.27680 -3.27680
0.64 0.641890 0.0 119.70 5.950 0.0960 0.1020 0.0 991.60 200.0 27.60 500.0 197.0 27.60 21.666670 890607.384620 0.0 41.0 841432226.524330 0.0 0.0 0.0 0.0 0.0 0.0 0.0 -3.27680 -3.27680 -3.27680 -3.27680 -3.27680 -3.27680
0.63 0.631650 0.0 119.80 5.950 0.0960 0.1020 0.0 992.0 200.0 28.40 500.0 197.0 28.40 22.0 890607.076920 0.0 41.0 841431645.84040 0.0 0.0 0.0 0.0 0.0 0.0 0.0 -3.27680 -3.27680 -3.27680 -3.27680 -3.27680 -3.27680
0.62 0.621410 0.0 119.90 5.950 0.0960 0.1020 0.0 992.20 200.0 29.20 500.0 197.0 29.20 22.333330 890606.769230 0.0 41.0 841431065.156470 0.0 0.0 0.0 0.0 0.0 0.0 0.0 -3.27680 -3.27680 -3.27680 -3.27680 -3.27680 -3.27680
0.61 0.611960 0.0 120.0 5.950 0.0960 0.1020 0.0 992.40 200.0 30.0 500.0 197.0 30.0 22.666670 890606.461540 0.0 41.0 841430484.472530 0.0 0.0 0.0 0.0 0.0 0.0 0.0 -3.27680 -3.27680 -3.27680 -3.27680 -3.27680 -3.27680
0.60 0.601720 0.0 120.10 5.958330 0.0960 0.1020 0.0 992.60 200.0 28.80 500.0 197.0 28.80 23.0 890606.153850 0.0 41.0 841429903.78860 0.0 0.0 0.0 0.0 0.0 0.0 0.0 -3.27680 -3.27680 -3.27680 -3.27680 -3.27680 -3.27680
0.59 0.591480 0.0 120.20 5.966670 0.0960 0.1020 0.0 992.80 200.0 27.60 500.0 197.0 27.60 23.333330 890605.846150 0.0 41.0 841429323.104670 0.0 0.0 0.0 0.0 0.0 0.0 0.0 -3.27680 -3.27680 -3.27680 -3.27680 -3.27680 -3.27680
0.58 0.582030 0.0 120.30 5.9750 0.0960 0.1020 0.0 993.0 200.0 26.40 500.0 197.0 26.40 23.666670 890605.538460 0.0 41.0 841428742.420740 0.0 0.0 0.0 0.0 0.0 0.0 0.0 -3.27680 -3.27680 -3.27680 -3.27680 -3.27680 -3.27680
0.57 0.571790 0.0 120.40 5.983330 0.0960 0.1020 0.0 993.0 200.0 25.20 500.0 197.0 25.20 24.0 890605.230770 0.0 41.0 841428161.736810 0.0 0.0 0.0 0.0 0.0 0.0 0.0 -3.27680 -3.27680 -3.27680 -3.27680 -3.27680 -3.27680
0.56 0.562340 0.0 120.50 5.991670 0.0960 0.1020 0.0 993.0 200.0 24.0 500.0 197.0 24.0 24.333330 890604.923080 0.0 41.0 841427581.052880 0.0 0.0 0.0 0.0 0.0 0.0 0.0 -3.27680 -3.27680 -3.27680 -3.27680 -3.27680 -3.27680
0.55 0.55210 0.0 120.60 6.0 0.0960 0.1020 0.0 993.0 200.0 26.80 500.0 197.0 26.80 24.666670 890604.615380 0.0 41.0 841427000.368950 0.0 0.0 0.0 0.0 0.0 0.0 0.0 -3.27680 -3.27680 -3.27680 -3.27680 -3.27680 -3.27680
0.54 0.541870 0.0 120.70 5.991670 0.0960 0.1020 0.0 993.0 200.0 29.60 500.0 197.0 29.60 25.0 890604.307690 0.0 41.0 841426419.685020 0.0 0.0 0.0 0.0 0.0 0.0 0.0 -3.27680 -3.27680 -3.27680 -3.27680 -3.27680 -3.27680
0.53 0.532410 0.0 120.80 5.983330 0.0960 0.1020 0.0 993.0 200.0 32.40 500.0 197.0 32.40 24.285710 890604.0 0.0 41.0 841425839.001090 0.0 0.0 0.0 0.0 0.0 0.0 0.0 -3.27680 -3.27680 -3.27680 -3.27680 -3.27680 -3.27680
0.52 0.522180 0.0 120.90 5.9750 0.0960 0.1020 0.0 993.0 200.0 35.20 500.0 197.0 35.20 23.571430 890603.416670 0.0 41.0 841424738.127930 0.0 0.0 0.0 0.0 0.0 0.0 0.0 -3.27680 -3.27680 -3.27680 -3.27680 -3.27680 -3.27680
0.51 0.511940 0.0 121.0 5.966670 0.0960 0.1020 0.0 993.0 200.0 38.0 500.0 197.0 38.0 22.857140 890602.833330 0.40 41.0 841423637.254770 0.0 0.0 0.0 0.0 0.0 0.0 0.0 -3.27680 -3.27680 -3.27680 -3.27680 -3.27680 -3.27680
0.50 0.50170 0.0 121.10 5.958330 0.0960 0.1020 0.0 993.0 200.0 36.40 502.0 197.0 36.40 22.142860 890602.250 0.80 41.0 841422536.381610 0.0 0.0 0.0 0.0 0.0 0.0 0.0 -3.27680 -3.27680 -3.27680 -3.27680 -3.27680 -3.27680
0.49 0.491460 0.0 121.20 5.950 0.0960 0.1020 0.0 993.0 200.0 34.80 504.0 197.0 34.80 21.428570 890601.666670 1.20 41.0 841421435.508440 0.0 0.0 0.0 0.0 0.0 0.0 0.0 -3.27680 -3.27680 -3.27680 -3.27680 -3.27680 -3.27680
0.48 0.482010 0.0 121.30 5.973330 0.0960 0.1020 0.0 993.0 200.0 33.20 506.0 197.0 33.20 20.714290 890601.083330 1.60 41.0 841420334.635280 0.0 0.0 0.0 0.0 0.0 0.0 0.0 -3.27680 -3.27680 -3.27680 -3.27680 -3.27680 -3.27680
0.47 0.471770 0.0 121.40 5.996670 0.0960 0.1020 0.0 993.0 200.0 31.60 508.0 197.0 31.60 20.0 890600.50 2.0 41.0 841419233.762120 0.0 0.0 0.0 0.0 0.0 0.0 0.0 -3.27680 -3.27680 -3.27680 -3.27680 -3.27680 -3.27680
0.46 0.461530 0.0 121.50 6.020 0.0960 0.1020 0.0 993.0 200.0 30.0 510.0 197.0 30.0 17.40 890599.916670 1.60 41.0 841418132.888960 0.0 0.0 0.0 0.0 0.0 0.0 0.0 -3.27680 -3.27680 -3.27680 -3.27680 -3.27680 -3.27680
0.45 0.452080 0.0 121.60 6.043330 0.0960 0.1020 0.0 993.0 200.0 29.20 508.0 197.0 29.20 14.80 890599.333330 1.20 41.0 841417032.01580 0.0 0.0 0.0 0.0 0.0 0.0 0.0 -3.27680 -3.27680 -3.27680 -3.27680 -3.27680 -3.27680
0.44 0.441840 0.0 121.70 6.066670 0.0960 0.1040 0.0 993.0 200.0 28.40 506.0 197.0 28.40 12.20 890598.750 0.80 41.0 841415931.142640 0.0 0.0 0.0 0.0 0.0 0.0 0.0 -3.27680 -3.27680 -3.27680 -3.27680 -3.27680 -3.27680
0.43 0.43160 0.0 121.80 6.090 0.0960 0.1020 0.0 993.0 200.0 27.60 504.0 197.0 27.60 9.60 890598.166670 0.40 41.0 841414830.269470 0.0 0.0 0.0 0.0 0.0 0.0 0.0 -3.27680 -3.27680 -3.27680 -3.27680 -3.27680 -3.27680
0.42 0.422150 0.0 121.90 6.066670 0.0960 0.1020 0.0 993.0 200.0 26.80 502.0 197.0 26.80 7.0 890597.583330 0.0 41.0 841413729.396310 0.0 0.0 0.0 0.0 0.0 0.0 0.0 -3.27680 -3.27680 -3.27680 -3.27680 -3.27680 -3.27680
0.41 0.411910 0.0 122.0 6.043330 0.0960 0.1020 0.0 993.0 200.0 26.0 500.0 197.0 26.0 9.20 890597.0 0.60 41.0 841412628.523150 0.0 0.0 0.0 0.0 0.0 0.0 0.0 -3.27680 -3.27680 -3.27680 -3.27680 -3.27680 -3.27680
0.40 0.401670 0.0 122.10 6.020 0.0960 0.1020 0.0 993.0 200.0 25.505880 500.0 197.0 25.505880 11.40 890595.857140 1.20 41.0 841410471.728570 0.0 0.0 0.0 0.0 0.0 0.0 0.0 -3.27680 -3.27680 -3.27680 -3.27680 -3.27680 -3.27680
0.39 0.392220 0.0 122.20 5.996670 0.0960 0.1020 0.0 993.0 200.0 25.011760 500.0 197.0 25.011760 13.60 890594.714290 1.80 41.0 841408314.933980 0.0 0.0 0.0 0.0 0.0 0.0 0.0 -3.27680 -3.27680 -3.27680 -3.27680 -3.27680 -3.27680
0.38 0.381980 0.0 122.30 5.973330 0.0960 0.1020 0.0 993.0 200.0 24.517650 500.0 197.0 24.517650 15.80 890593.571430 2.40 41.0 841406158.13940 0.0 0.0 0.0 0.0 0.0 0.0 0.0 -3.27680 -3.27680 -3.27680 -3.27680 -3.27680 -3.27680
0.37 0.372530 0.0 122.40 5.950 0.0960 0.1020 0.0 993.20 200.0 24.023530 500.0 197.0 24.023530 18.0 890592.428570 3.0 41.0 841404001.344810 0.0 0.0 0.0 0.0 0.0 0.0 0.0 -3.27680 -3.27680 -3.27680 -3.27680 -3.27680 -3.27680
0.36 0.362290 0.0 122.50 5.950 0.0960 0.1020 0.0 993.40 200.0 23.529410 500.0 197.0 23.529410 16.0 890591.285710 2.40 41.0 841401844.550230 0.0 0.0 0.0 0.0 0.0 0.0 0.0 -3.27680 -3.27680 -3.27680 -3.27680 -3.27680 -3.27680
0.35 0.352050 0.0 122.60 5.950 0.0960 0.1020 0.0 993.60 200.0 22.423530 500.0 197.0 22.423530 14.0 890590.142860 1.80 41.0 841399687.755640 0.0 0.0 0.0 0.0 0.0 0.0 0.0 -3.27680 -3.27680 -3.27680 -3.27680 -3.27680 -3.27680
0.34 0.34260 0.0 122.70 5.950 0.0960 0.1020 0.0 993.80 200.0 21.317650 500.0 197.0 21.317650 12.0 890589.0 1.20 41.0 841397530.961060 0.0 0.0 0.0 0.0 0.0 0.0 0.0 -3.27680 -3.27680 -3.27680 -3.27680 -3.27680 -3.27680
0.33 0.332370 0.0 122.80 5.950 0.0960 0.1020 0.0 994.0 200.0 20.211760 500.0 197.0 20.211760 10.0 890588.20 0.60 41.0 841396021.215010 0.0 0.0 0.0 0.0 0.0 0.0 0.0 -3.27680 -3.27680 -3.27680 -3.27680 -3.27680 -3.27680
0.32 0.322130 0.0 122.90 5.950 0.0960 0.1020 0.0 993.60 200.0 19.105880 500.0 197.0 19.105880 8.0 890587.40 0.0 41.0 841394511.468960 0.0 0.0 0.0 0.0 0.0 0.0 0.0 -3.27680 -3.27680 -3.27680 -3.27680 -3.27680 -3.27680
0.31 0.312680 0.0 123.0 5.950 0.0960 0.1020 0.0 993.20 200.0 18.0 500.0 197.0 18.0 6.40 890586.60 0.0 41.0 841393001.722910 0.0 0.0 0.0 0.0 0.0 0.0 0.0 -3.27680 -3.27680 -3.27680 -3.27680 -3.27680 -3.27680
0.30 0.302440 0.0 123.10 5.958330 0.0960 0.1020 0.0 992.80 200.0 20.40 500.0 197.0 20.40 4.80 890585.80 0.0 41.0 841391491.976860 0.0 0.0 0.0 0.0 0.0 0.0 0.0 -3.27680 -3.27680 -3.27680 -3.27680 -3.27680 -3.27680
0.29 0.292990 0.0 123.20 5.966670 0.0960 0.1020 0.0 992.40 200.0 22.80 500.0 197.0 22.80 3.20 890585.0 0.0 41.0 841389982.230810 0.0 0.0 0.0 0.0 0.0 0.0 0.0 -3.27680 -3.27680 -3.27680 -3.27680 -3.27680 -3.27680
