~VERSION INFORMATION SECTION
VERS. 2.0 : CWLS LAS-VERSION 2.0
WRAP. NO : One line per depth step
~WELL INFORMATION SECTION
# MNEM.UNIT VALUE/NAME DESCRIPTION
#-------- -------------- ---------------------
STRT.Metres 25 : Start
STOP.Metres -2.12 : Stop
STEP.Metres -0.01 : Step
NULL.  -999.25 :NULL VALUE
DATE. 2026-13-09 : DATE
~CURVE INFORMATION SECTION
DEPTH.Metres : 0 Depth
Depth. : 1 Depth
Tension. : 2 Tension
Time. : 3 Time
Speed. : 4 Speed
Voltage. : 5 Voltage
Current. : 6 Current
WET. : 7 WET
Sig. : 8 Sig
Vth. : 9 Vth
GR.CPS : 10 GR
Timebase.ms : 11 Timebase
HeadVoltage.V : 12 Head Voltage
API.API : 13 API
Conductivity.uS : 14 Conductivity
PT100.Ohms : 15 PT100
Vmon.mV : 16 Vmon
Status. : 17 Status
Temperature.C : 18 Temperature
Incline.Deg : 19 Incline
Azimuth.Deg : 20 Azimuth
RelativeBearing.Deg : 21 Relative Bearing
MagneticToolFace.Deg : 22 Magnetic Tool Face
GravityMagnitude.G : 23 Gravity Magnitude
MagnetometerMagnitude.H : 24 Magnetometer Magnitude
Temperature.C : 25 Temperature
GX. : 26 GX
GY. : 27 GY
GZ. : 28 GZ
HX. : 29 HX
HY. : 30 HY
HZ. : 31 HZ
~PARAMETER INFORMATION SECTION
~OTHER
#-------------------------------------------------
#Produced By: GeoVista Logger - Version 7.1.107.0
Verticality Sonde - 9605
Temperature and Conductivity Sonde - Inline - 8974
Natural Gamma Sonde - 9931
WLIS - 10021
#-------------------------------------------------
~ASCII LOG DATA
# ...
20.57 20.586950 0.0 32.950 15.020 0.0960 0.1020 1.0 0.0 200.0 27.0 500.0 196.583330 27.0 13608.333330 889075.416670 159.0 47.0 838543540.747510 0.0 0.0 0.0 0.0 0.0 0.0 0.0 -3.27680 -3.27680 -3.27680 -3.27680 -3.27680 -3.27680
20.56 20.574340 0.0 33.0 15.020 0.0960 0.1020 1.0 0.0 200.0 26.666670 500.0 196.666670 26.666670 13536.250 889075.333330 159.0 47.0 838543383.748870 0.0 0.0 0.0 0.0 0.0 0.0 0.0 -3.27680 -3.27680 -3.27680 -3.27680 -3.27680 -3.27680
20.55 20.566470 0.0 33.033330 15.020 0.0960 0.1020 1.0 0.0 200.0 26.333330 500.0 196.750 26.333330 13464.166670 889075.250 159.0 47.0 838543226.750240 0.0 0.0 0.0 0.0 0.0 0.0 0.0 -3.27680 -3.27680 -3.27680 -3.27680 -3.27680 -3.27680
20.54 20.558590 0.0 33.066670 15.020 0.0960 0.1020 1.0 0.0 200.0 26.0 500.0 196.833330 26.0 13392.083330 889075.166670 159.0 47.0 838543069.75160 0.0 0.0 0.0 0.0 0.0 0.0 0.0 -3.27680 -3.27680 -3.27680 -3.27680 -3.27680 -3.27680
20.53 20.550720 0.0 33.10 15.020 0.0960 0.1020 1.0 0.0 200.0 25.666670 500.0 196.916670 25.666670 13320.0 889075.083330 159.0 47.0 838542912.752970 0.0 0.0 0.0 0.0 0.0 0.0 0.0 -3.27680 -3.27680 -3.27680 -3.27680 -3.27680 -3.27680
20.52 20.542320 0.0 33.133330 15.020 0.0960 0.1020 1.0 0.0 200.0 25.333330 500.0 197.0 25.333330 13276.615380 889075.0 159.0 47.0 838542755.754330 0.0 0.0 0.0 0.0 0.0 0.0 0.0 -3.27680 -3.27680 -3.27680 -3.27680 -3.27680 -3.27680
20.51 20.533910 0.0 33.166670 15.020 0.0960 0.1020 1.0 0.0 200.0 25.0 500.0 196.916670 25.0 13233.230770 889074.833330 159.0 47.0 838542441.757590 0.0 0.0 0.0 0.0 0.0 0.0 0.0 -3.27680 -3.27680 -3.27680 -3.27680 -3.27680 -3.27680
20.50 20.525510 0.0 33.20 15.020 0.0960 0.1020 1.0 0.0 200.0 24.666670 500.0 196.833330 24.666670 13189.846150 889074.666670 159.0 47.0 838542127.760850 0.0 0.0 0.0 0.0 0.0 0.0 0.0 -3.27680 -3.27680 -3.27680 -3.27680 -3.27680 -3.27680
20.49 20.512520 0.0 33.250 15.020 0.0960 0.1020 1.0 0.0 200.0 24.333330 500.0 196.750 24.333330 13146.461540 889074.50 159.0 47.0 838541813.764110 0.0 0.0 0.0 0.0 0.0 0.0 0.0 -3.27680 -3.27680 -3.27680 -3.27680 -3.27680 -3.27680
20.48 20.499520 0.0 33.30 15.020 0.0960 0.1020 1.0 0.0 200.0 24.0 500.0 196.666670 24.0 13103.076920 889074.333330 159.0 47.0 838541499.767360 0.0 0.0 0.0 0.0 0.0 0.0 0.0 -3.27680 -3.27680 -3.27680 -3.27680 -3.27680 -3.27680
20.47 20.491120 0.0 33.333330 15.023330 0.0960 0.1020 1.0 0.0 200.0 22.769230 500.0 196.583330 22.769230 13059.692310 889074.166670 159.0 47.0 838541185.770620 0.0 0.0 0.0 0.0 0.0 0.0 0.0 -3.27680 -3.27680 -3.27680 -3.27680 -3.27680 -3.27680
20.46 20.482720 0.0 33.366670 15.026670 0.0960 0.1020 1.0 0.0 200.0 21.538460 500.0 196.50 21.538460 13016.307690 889074.0 158.916670 47.0 838540871.773880 0.0 0.0 0.0 0.0 0.0 0.0 0.0 -3.27680 -3.27680 -3.27680 -3.27680 -3.27680 -3.27680
20.45 20.474320 0.0 33.40 15.030 0.0960 0.1020 1.0 0.0 200.0 20.307690 500.0 196.416670 20.307690 12972.923080 889073.833330 158.833330 47.0 838540557.777140 0.0 0.0 0.0 0.0 0.0 0.0 0.0 -3.27680 -3.27680 -3.27680 -3.27680 -3.27680 -3.27680
20.44 20.461720 0.0 33.450 15.033330 0.0960 0.1020 1.0 0.0 200.0 19.076920 500.833330 196.333330 19.076920 12929.538460 889073.666670 158.750 47.0 838540243.78040 0.0 0.0 0.0 0.0 0.0 0.0 0.0 -3.27680 -3.27680 -3.27680 -3.27680 -3.27680 -3.27680
20.43 20.449120 0.0 33.50 15.036670 0.0960 0.1020 1.0 0.0 200.0 17.846150 501.666670 196.250 17.846150 12886.153850 889073.50 158.666670 47.0 838539929.783660 0.0 0.0 0.0 0.0 0.0 0.0 0.0 -3.27680 -3.27680 -3.27680 -3.27680 -3.27680 -3.27680
20.42 20.440720 0.0 33.533330 15.040 0.0960 0.1020 1.0 0.0 200.0 16.615380 502.50 196.166670 16.615380 12842.769230 889073.333330 158.583330 47.0 838539615.786910 0.0 0.0 0.0 0.0 0.0 0.0 0.0 -3.27680 -3.27680 -3.27680 -3.27680 -3.27680 -3.27680
20.41 20.432310 0.0 33.566670 15.043330 0.0960 0.1020 1.0 0.0 200.0 15.384620 503.333330 196.083330 15.384620 12799.384620 889073.166670 158.50 47.0 838539301.790170 0.0 0.0 0.0 0.0 0.0 0.0 0.0 -3.27680 -3.27680 -3.27680 -3.27680 -3.27680 -3.27680
20.40 20.423910 0.0 33.60 15.046670 0.0960 0.1020 1.0 0.0 200.0 14.153850 504.166670 196.0 14.153850 12756.0 889073.0 158.416670 47.0 838538987.793430 0.0 0.0 0.0 0.0 0.0 0.0 0.0 -3.27680 -3.27680 -3.27680 -3.27680 -3.27680 -3.27680
20.39 20.411310 0.0 33.650 15.050 0.0960 0.1020 1.0 0.0 200.0 12.923080 505.0 196.0 12.923080 12721.076920 889073.153850 158.333330 47.0 838539277.636580 0.0 0.0 0.0 0.0 0.0 0.0 0.0 -3.27680 -3.27680 -3.27680 -3.27680 -3.27680 -3.27680
20.38 20.398710 0.0 33.70 15.053330 0.0960 0.1020 1.0 0.0 200.0 11.692310 505.833330 196.0 11.692310 12686.153850 889073.307690 158.250 47.0 838539567.479720 0.0 0.0 0.0 0.0 0.0 0.0 0.0 -3.27680 -3.27680 -3.27680 -3.27680 -3.27680 -3.27680
20.37 20.390310 0.0 33.733330 15.056670 0.0960 0.1020 1.0 0.0 200.0 10.461540 506.666670 196.0 10.461540 12651.230770 889073.461540 158.166670 47.0 838539857.322870 0.0 0.0 0.0 0.0 0.0 0.0 0.0 -3.27680 -3.27680 -3.27680 -3.27680 -3.27680 -3.27680
20.36 20.381910 0.0 33.766670 15.060 0.0960 0.1020 1.0 0.0 200.0 9.230770 507.50 196.0 9.230770 12616.307690 889073.615380 158.083330 47.0 838540147.166010 0.0 0.0 0.0 0.0 0.0 0.0 0.0 -3.27680 -3.27680 -3.27680 -3.27680 -3.27680 -3.27680
20.35 20.373510 0.0 33.80 15.063330 0.0960 0.1020 1.0 0.0 200.0 8.0 508.333330 196.0 8.0 12581.384620 889073.769230 158.0 47.0 838540437.009160 0.0 0.0 0.0 0.0 0.0 0.0 0.0 -3.27680 -3.27680 -3.27680 -3.27680 -3.27680 -3.27680
20.34 20.360910 0.0 33.850 15.066670 0.0960 0.1020 1.0 0.0 200.0 8.313730 509.166670 196.0 8.313730 12546.461540 889073.923080 158.076920 47.0 838540726.852310 0.0 0.0 0.0 0.0 0.0 0.0 0.0 -3.27680 -3.27680 -3.27680 -3.27680 -3.27680 -3.27680
20.33 20.34830 0.0 33.90 15.070 0.0960 0.1020 1.0 0.0 200.0 8.627450 510.0 196.0 8.627450 12511.538460 889074.076920 158.153850 47.0 838541016.695450 0.0 0.0 0.0 0.0 0.0 0.0 0.0 -3.27680 -3.27680 -3.27680 -3.27680 -3.27680 -3.27680
20.32 20.340170 0.0 33.933330 15.070 0.0960 0.1020 1.0 0.0 200.0 8.941180 509.230770 196.0 8.941180 12476.615380 889074.230770 158.230770 47.0 838541306.53860 0.0 0.0 0.0 0.0 0.0 0.0 0.0 -3.27680 -3.27680 -3.27680 -3.27680 -3.27680 -3.27680
20.31 20.332030 0.0 33.966670 15.070 0.0960 0.1020 1.0 0.0 200.0 9.25490 508.461540 196.0 9.25490 12441.692310 889074.384620 158.307690 47.0 838541596.381750 0.0 0.0 0.0 0.0 0.0 0.0 0.0 -3.27680 -3.27680 -3.27680 -3.27680 -3.27680 -3.27680
20.30 20.323890 0.0 34.0 15.070 0.0960 0.1020 1.0 0.0 200.0 9.568630 507.692310 196.0 9.568630 12406.769230 889074.538460 158.384620 47.0 838541886.224890 0.0 0.0 0.0 0.0 0.0 0.0 0.0 -3.27680 -3.27680 -3.27680 -3.27680 -3.27680 -3.27680
20.29 20.311290 0.0 34.050 15.070 0.0960 0.1020 1.0 0.083330 200.0 9.882350 506.923080 196.0 9.882350 12371.846150 889074.692310 158.461540 47.0 838542176.068040 0.0 0.0 0.0 0.0 0.0 0.0 0.0 -3.27680 -3.27680 -3.27680 -3.27680 -3.27680 -3.27680
20.28 20.298690 0.0 34.10 15.070 0.0960 0.1020 1.0 0.166670 200.0 10.196080 506.153850 196.0 10.196080 12336.923080 889074.846150 158.538460 47.0 838542465.911180 0.0 0.0 0.0 0.0 0.0 0.0 0.0 -3.27680 -3.27680 -3.27680 -3.27680 -3.27680 -3.27680
20.27 20.290280 0.0 34.133330 15.070 0.0960 0.1020 1.0 0.250 200.0 10.50980 505.384620 196.0 10.50980 12302.0 889075.0 158.615380 47.0 838542755.754330 0.0 0.0 0.0 0.0 0.0 0.0 0.0 -3.27680 -3.27680 -3.27680 -3.27680 -3.27680 -3.27680
20.26 20.281880 0.0 34.166670 15.070 0.0960 0.1020 1.0 0.333330 200.0 10.823530 504.615380 196.0 10.823530 12261.416670 889075.076920 158.692310 47.0 838542900.676150 0.0 0.0 0.0 0.0 0.0 0.0 0.0 -3.27680 -3.27680 -3.27680 -3.27680 -3.27680 -3.27680
20.25 20.273480 0.0 34.20 15.070 0.0960 0.1020 1.0 0.416670 200.0 11.137250 503.846150 196.0 11.137250 12220.833330 889075.153850 158.769230 47.0 838543045.597960 0.0 0.0 0.0 0.0 0.0 0.0 0.0 -3.27680 -3.27680 -3.27680 -3.27680 -3.27680 -3.27680
20.24 20.260880 0.0 34.250 15.070 0.0960 0.1010 1.0 0.50 200.0 11.450980 503.076920 196.0 11.450980 12180.250 889075.230770 158.846150 47.0 838543190.519780 0.0 0.0 0.0 0.0 0.0 0.0 0.0 -3.27680 -3.27680 -3.27680 -3.27680 -3.27680 -3.27680
