~VERSION INFORMATION SECTION
VERS. 2.0 : CWLS LAS-VERSION 2.0
WRAP. NO : One line per depth step
~WELL INFORMATION SECTION
# MNEM.UNIT VALUE/NAME DESCRIPTION
#-------- -------------- ---------------------
STRT.Metres 26 : Start
STOP.Metres -2.04 : Stop
STEP.Metres -0.01 : Step
NULL.  -999.25 :NULL VALUE
DATE. 2026-36-09 : DATE
~CURVE INFORMATION SECTION
DEPTH.Metres : 0 Depth
Depth. : 1 Depth
Tension. : 2 Tension
Time. : 3 Time
Speed. : 4 Speed
Voltage. : 5 Voltage
Current. : 6 Current
WET. : 7 WET
Sig. : 8 Sig
Vth. : 9 Vth
GR.CPS : 10 GR
Timebase.ms : 11 Timebase
HeadVoltage.V : 12 Head Voltage
API.API : 13 API
Conductivity.uS : 14 Conductivity
PT100.Ohms : 15 PT100
Vmon.mV : 16 Vmon
Status. : 17 Status
Temperature.C : 18 Temperature
Incline.Deg : 19 Incline
Azimuth.Deg : 20 Azimuth
RelativeBearing.Deg : 21 Relative Bearing
MagneticToolFace.Deg : 22 Magnetic Tool Face
GravityMagnitude.G : 23 Gravity Magnitude
MagnetometerMagnitude.H : 24 Magnetometer Magnitude
Temperature.C : 25 Temperature
GX. : 26 GX
GY. : 27 GY
GZ. : 28 GZ
HX. : 29 HX
HY. : 30 HY
HZ. : 31 HZ
~PARAMETER INFORMATION SECTION
~OTHER
#-------------------------------------------------
#Produced By: GeoVista Logger - Version 7.1.107.0
Verticality Sonde - 9605
Temperature and Conductivity Sonde - Inline - 8974
Natural Gamma Sonde - 9931
WLIS - 10021
#-------------------------------------------------
~ASCII LOG DATA
# ...
14.57 14.594140 0.0 78.40 14.943330 0.0960 0.1020 1.0 26.833330 200.0 20.0 500.0 197.0 20.0 2839.250 889492.461540 157.166670 43.0 839329430.469530 0.0 0.0 0.0 0.0 0.0 0.0 0.0 -3.27680 -3.27680 -3.27680 -3.27680 -3.27680 -3.27680
14.56 14.581530 0.0 78.450 14.9460 0.0960 0.1020 1.0 26.916670 200.0 20.0 500.0 197.0 20.0 2834.0 889493.384620 157.250 43.0 839331170.345010 0.0 0.0 0.0 0.0 0.0 0.0 0.0 -3.27680 -3.27680 -3.27680 -3.27680 -3.27680 -3.27680
14.55 14.568930 0.0 78.50 14.948670 0.0960 0.1020 1.0 27.0 200.0 20.0 500.0 197.0 20.0 2828.750 889494.307690 157.333330 43.0 839332910.220490 0.0 0.0 0.0 0.0 0.0 0.0 0.0 -3.27680 -3.27680 -3.27680 -3.27680 -3.27680 -3.27680
14.54 14.560530 0.0 78.533330 14.951330 0.0960 0.1020 1.0 27.0 200.0 20.0 500.0 197.0 20.0 2823.50 889495.230770 157.416670 43.0 839334650.095970 0.0 0.0 0.0 0.0 0.0 0.0 0.0 -3.27680 -3.27680 -3.27680 -3.27680 -3.27680 -3.27680
14.53 14.552130 0.0 78.566670 14.9540 0.0960 0.1020 1.0 27.0 200.0 20.0 500.0 197.0 20.0 2818.250 889496.153850 157.50 43.0 839336389.971450 0.0 0.0 0.0 0.0 0.0 0.0 0.0 -3.27680 -3.27680 -3.27680 -3.27680 -3.27680 -3.27680
14.52 14.543730 0.0 78.60 14.956670 0.0960 0.1020 1.0 27.0 200.0 20.0 500.0 197.0 20.0 2813.0 889497.076920 157.583330 43.0 839338129.846930 0.0 0.0 0.0 0.0 0.0 0.0 0.0 -3.27680 -3.27680 -3.27680 -3.27680 -3.27680 -3.27680
14.51 14.531130 0.0 78.650 14.959330 0.0960 0.1020 1.0 27.0 200.0 20.0 500.0 197.0 20.0 2809.846150 889498.0 157.666670 43.0 839339869.722420 0.0 0.0 0.0 0.0 0.0 0.0 0.0 -3.27680 -3.27680 -3.27680 -3.27680 -3.27680 -3.27680
14.50 14.518530 0.0 78.70 14.9620 0.0960 0.1020 1.0 27.0 200.0 20.0 500.0 197.0 20.0 2806.692310 889498.666670 157.750 43.0 839341126.313260 0.0 0.0 0.0 0.0 0.0 0.0 0.0 -3.27680 -3.27680 -3.27680 -3.27680 -3.27680 -3.27680
14.49 14.510130 0.0 78.733330 14.964670 0.0960 0.1020 1.0 27.0 200.0 20.0 500.0 197.0 20.0 2803.538460 889499.333330 157.833330 43.0 839342382.904110 0.0 0.0 0.0 0.0 0.0 0.0 0.0 -3.27680 -3.27680 -3.27680 -3.27680 -3.27680 -3.27680
14.48 14.501720 0.0 78.766670 14.967330 0.0960 0.1020 1.0 27.0 200.0 20.0 500.0 197.0 20.0 2800.384620 889500.0 157.916670 43.0 839343639.494950 0.0 0.0 0.0 0.0 0.0 0.0 0.0 -3.27680 -3.27680 -3.27680 -3.27680 -3.27680 -3.27680
14.47 14.493320 0.0 78.80 14.970 0.0960 0.1020 1.0 27.0 200.0 20.0 500.0 197.0 20.0 2797.230770 889500.666670 158.0 43.0 839344896.08580 0.0 0.0 0.0 0.0 0.0 0.0 0.0 -3.27680 -3.27680 -3.27680 -3.27680 -3.27680 -3.27680
14.46 14.480720 0.0 78.850 14.976670 0.0960 0.1020 1.0 27.0 200.0 19.230770 500.0 197.0 19.230770 2794.076920 889501.333330 158.0 43.0 839346152.676640 0.0 0.0 0.0 0.0 0.0 0.0 0.0 -3.27680 -3.27680 -3.27680 -3.27680 -3.27680 -3.27680
14.45 14.468120 0.0 78.90 14.983330 0.0960 0.1020 1.0 27.0 200.0 18.461540 500.0 197.0 18.461540 2790.923080 889502.0 158.0 43.0 839347409.267490 0.0 0.0 0.0 0.0 0.0 0.0 0.0 -3.27680 -3.27680 -3.27680 -3.27680 -3.27680 -3.27680
14.44 14.459720 0.0 78.933330 14.990 0.0960 0.101330 1.0 27.0 200.0 17.692310 500.0 197.0 17.692310 2787.769230 889502.666670 158.0 43.0 839348665.858340 0.0 0.0 0.0 0.0 0.0 0.0 0.0 -3.27680 -3.27680 -3.27680 -3.27680 -3.27680 -3.27680
14.43 14.451320 0.0 78.966670 14.996670 0.0960 0.100670 1.0 27.0 200.0 16.923080 491.666670 197.0 16.923080 2784.615380 889503.333330 158.0 43.0 839349922.449180 0.0 0.0 0.0 0.0 0.0 0.0 0.0 -3.27680 -3.27680 -3.27680 -3.27680 -3.27680 -3.27680
14.42 14.442920 0.0 79.0 15.003330 0.0960 0.10 1.0 27.0 200.0 16.153850 483.333330 197.0 16.153850 2781.461540 889504.0 158.0 43.0 839351179.040030 0.0 0.0 0.0 0.0 0.0 0.0 0.0 -3.27680 -3.27680 -3.27680 -3.27680 -3.27680 -3.27680
14.41 14.430710 0.0 79.050 15.010 0.0960 0.1010 1.0 27.083330 200.0 15.384620 475.0 197.0 15.384620 2778.307690 889504.666670 158.0 43.0 839352435.630870 0.0 0.0 0.0 0.0 0.0 0.0 0.0 -3.27680 -3.27680 -3.27680 -3.27680 -3.27680 -3.27680
14.40 14.41850 0.0 79.10 15.016670 0.0960 0.1020 1.0 27.166670 200.0 14.615380 466.666670 197.0 14.615380 2775.153850 889505.333330 158.0 43.0 839353692.221720 0.0 0.0 0.0 0.0 0.0 0.0 0.0 -3.27680 -3.27680 -3.27680 -3.27680 -3.27680 -3.27680
14.39 14.41010 0.0 79.133330 15.023330 0.0960 0.1020 1.0 27.250 200.0 13.846150 458.333330 197.0 13.846150 2772.0 889506.0 158.0 43.0 839354948.812570 0.0 0.0 0.0 0.0 0.0 0.0 0.0 -3.27680 -3.27680 -3.27680 -3.27680 -3.27680 -3.27680
14.38 14.40170 0.0 79.166670 15.030 0.0960 0.1020 1.0 27.333330 200.0 13.076920 450.0 197.0 13.076920 2768.916670 889506.846150 158.0 43.0 839356543.733340 0.0 0.0 0.0 0.0 0.0 0.0 0.0 -3.27680 -3.27680 -3.27680 -3.27680 -3.27680 -3.27680
14.37 14.39330 0.0 79.20 15.036670 0.0960 0.1020 1.0 27.416670 200.0 12.307690 441.666670 197.0 12.307690 2765.833330 889507.692310 158.0 43.0 839358138.654120 0.0 0.0 0.0 0.0 0.0 0.0 0.0 -3.27680 -3.27680 -3.27680 -3.27680 -3.27680 -3.27680
14.36 14.38070 0.0 79.250 15.043330 0.0960 0.1020 1.0 27.50 200.0 11.538460 433.333330 197.0 11.538460 2762.750 889508.538460 158.0 43.0 839359733.57490 0.0 0.0 0.0 0.0 0.0 0.0 0.0 -3.27680 -3.27680 -3.27680 -3.27680 -3.27680 -3.27680
14.35 14.36810 0.0 79.30 15.050 0.0960 0.1020 1.0 27.583330 200.0 10.769230 425.0 197.0 10.769230 2759.666670 889509.384620 158.0 43.0 839361328.495680 0.0 0.0 0.0 0.0 0.0 0.0 0.0 -3.27680 -3.27680 -3.27680 -3.27680 -3.27680 -3.27680
14.34 14.359690 0.0 79.333330 15.056670 0.0960 0.1020 1.0 27.666670 200.0 10.0 416.666670 197.0 10.0 2756.583330 889510.230770 158.0 43.0 839362923.416460 0.0 0.0 0.0 0.0 0.0 0.0 0.0 -3.27680 -3.27680 -3.27680 -3.27680 -3.27680 -3.27680
14.33 14.351290 0.0 79.366670 15.063330 0.0960 0.1020 1.0 27.750 200.0 11.8750 408.333330 197.0 11.8750 2753.50 889511.076920 158.0 43.0 839364518.337240 0.0 0.0 0.0 0.0 0.0 0.0 0.0 -3.27680 -3.27680 -3.27680 -3.27680 -3.27680 -3.27680
14.32 14.342890 0.0 79.40 15.070 0.0960 0.1020 1.0 27.833330 200.0 13.750 400.0 197.0 13.750 2750.416670 889511.923080 158.0 43.0 839366113.258010 0.0 0.0 0.0 0.0 0.0 0.0 0.0 -3.27680 -3.27680 -3.27680 -3.27680 -3.27680 -3.27680
14.31 14.330680 0.0 79.450 15.063330 0.0960 0.1020 1.0 27.916670 200.0 15.6250 376.923080 197.0 15.6250 2747.333330 889512.769230 158.0 43.0 839367708.178790 0.0 0.0 0.0 0.0 0.0 0.0 0.0 -3.27680 -3.27680 -3.27680 -3.27680 -3.27680 -3.27680
14.30 14.318480 0.0 79.50 15.056670 0.0960 0.1020 1.0 28.0 200.0 17.50 353.846150 197.0 17.50 2744.250 889513.615380 158.0 43.0 839369303.099570 0.0 0.0 0.0 0.0 0.0 0.0 0.0 -3.27680 -3.27680 -3.27680 -3.27680 -3.27680 -3.27680
14.29 14.310080 0.0 79.533330 15.050 0.0960 0.1020 1.0 28.153850 200.0 19.3750 330.769230 197.0 19.3750 2741.166670 889514.461540 158.0 43.0 839370898.020350 0.0 0.0 0.0 0.0 0.0 0.0 0.0 -3.27680 -3.27680 -3.27680 -3.27680 -3.27680 -3.27680
14.28 14.301680 0.0 79.566670 15.043330 0.0960 0.1020 1.0 28.307690 200.0 21.250 307.692310 197.0 21.250 2738.083330 889515.307690 158.0 43.0 839372492.941130 0.0 0.0 0.0 0.0 0.0 0.0 0.0 -3.27680 -3.27680 -3.27680 -3.27680 -3.27680 -3.27680
14.27 14.293270 0.0 79.60 15.036670 0.0960 0.1020 1.0 28.461540 200.0 23.1250 284.615380 197.0 23.1250 2735.0 889516.153850 158.0 43.0 839374087.861910 0.0 0.0 0.0 0.0 0.0 0.0 0.0 -3.27680 -3.27680 -3.27680 -3.27680 -3.27680 -3.27680
14.26 14.281070 0.0 79.650 15.030 0.0960 0.1020 1.0 28.615380 200.0 25.0 261.538460 197.0 25.0 2732.230770 889517.0 158.0 43.0 839375682.782690 0.0 0.0 0.0 0.0 0.0 0.0 0.0 -3.27680 -3.27680 -3.27680 -3.27680 -3.27680 -3.27680
14.25 14.268860 0.0 79.70 15.023330 0.0960 0.1020 1.0 28.769230 200.0 26.8750 238.461540 197.0 26.8750 2729.461540 889518.0 158.0 43.0 839377567.71340 0.0 0.0 0.0 0.0 0.0 0.0 0.0 -3.27680 -3.27680 -3.27680 -3.27680 -3.27680 -3.27680
14.24 14.260460 0.0 79.733330 15.016670 0.0960 0.1020 1.0 28.923080 200.0 28.750 215.384620 197.0 28.750 2726.692310 889519.0 158.0 43.0 839379452.644110 0.0 0.0 0.0 0.0 0.0 0.0 0.0 -3.27680 -3.27680 -3.27680 -3.27680 -3.27680 -3.27680
14.23 14.252060 0.0 79.766670 15.010 0.0960 0.1020 1.0 29.076920 200.0 30.6250 192.307690 197.0 30.6250 2723.923080 889520.0 158.0 43.0 839381337.574830 0.0 0.0 0.0 0.0 0.0 0.0 0.0 -3.27680 -3.27680 -3.27680 -3.27680 -3.27680 -3.27680
