~VERSION INFORMATION SECTION
VERS. 2.0 : CWLS LAS-VERSION 2.0
WRAP. NO : One line per depth step
~WELL INFORMATION SECTION
# MNEM.UNIT VALUE/NAME DESCRIPTION
#-------- -------------- ---------------------
STRT.Metres 26 : Start
STOP.Metres -2.05 : Stop
STEP.Metres -0.01 : Step
NULL.  -999.25 :NULL VALUE
DATE. 2026-29-09 : DATE
~CURVE INFORMATION SECTION
DEPTH.Metres : 0 Depth
Depth. : 1 Depth
Tension. : 2 Tension
Time. : 3 Time
Speed. : 4 Speed
Voltage. : 5 Voltage
Current. : 6 Current
WET. : 7 WET
Sig. : 8 Sig
Vth. : 9 Vth
GR.CPS : 10 GR
Timebase.ms : 11 Timebase
HeadVoltage.V : 12 Head Voltage
API.API : 13 API
Conductivity.uS : 14 Conductivity
PT100.Ohms : 15 PT100
Vmon.mV : 16 Vmon
Status. : 17 Status
Temperature.C : 18 Temperature
Incline.Deg : 19 Incline
Azimuth.Deg : 20 Azimuth
RelativeBearing.Deg : 21 Relative Bearing
MagneticToolFace.Deg : 22 Magnetic Tool Face
GravityMagnitude.G : 23 Gravity Magnitude
MagnetometerMagnitude.H : 24 Magnetometer Magnitude
Temperature.C : 25 Temperature
GX. : 26 GX
GY. : 27 GY
GZ. : 28 GZ
HX. : 29 HX
HY. : 30 HY
HZ. : 31 HZ
~PARAMETER INFORMATION SECTION
~OTHER
#-------------------------------------------------
#Produced By: GeoVista Logger - Version 7.1.107.0
Verticality Sonde - 9605
Temperature and Conductivity Sonde - Inline - 8974
Natural Gamma Sonde - 9931
WLIS - 10021
#-------------------------------------------------
~ASCII LOG DATA
# ...
18.12 18.142510 0.0 130.266670 14.9540 0.0960 0.1020 1.0 4.384620 200.0 16.50 500.0 197.0 16.50 6256.333330 889192.769230 152.750 43.0 838764645.616230 0.0 0.0 0.0 0.0 0.0 0.0 0.0 -3.27680 -3.27680 -3.27680 -3.27680 -3.27680 -3.27680
18.11 18.134370 0.0 130.30 14.960 0.0960 0.1020 1.0 4.461540 200.0 17.0 500.0 197.0 17.0 6222.666670 889193.538460 152.833330 43.0 838766095.03220 0.0 0.0 0.0 0.0 0.0 0.0 0.0 -3.27680 -3.27680 -3.27680 -3.27680 -3.27680 -3.27680
18.10 18.121770 0.0 130.350 14.9660 0.0960 0.1030 1.0 4.538460 200.0 17.50 500.0 197.0 17.50 6189.0 889194.307690 152.916670 43.0 838767544.448170 0.0 0.0 0.0 0.0 0.0 0.0 0.0 -3.27680 -3.27680 -3.27680 -3.27680 -3.27680 -3.27680
18.09 18.109170 0.0 130.40 14.9720 0.0960 0.1040 1.0 4.615380 200.0 18.0 500.0 197.0 18.0 6155.333330 889195.076920 153.0 43.0 838768993.864150 0.0 0.0 0.0 0.0 0.0 0.0 0.0 -3.27680 -3.27680 -3.27680 -3.27680 -3.27680 -3.27680
18.08 18.101030 0.0 130.433330 14.9780 0.0960 0.103330 1.0 4.692310 200.0 18.153850 500.0 197.0 18.153850 6121.666670 889195.846150 153.0 43.0 838770443.280120 0.0 0.0 0.0 0.0 0.0 0.0 0.0 -3.27680 -3.27680 -3.27680 -3.27680 -3.27680 -3.27680
18.07 18.092890 0.0 130.466670 14.9840 0.0960 0.102670 1.0 4.769230 200.0 18.307690 500.0 197.0 18.307690 6088.0 889196.615380 153.0 43.0 838771892.69610 0.0 0.0 0.0 0.0 0.0 0.0 0.0 -3.27680 -3.27680 -3.27680 -3.27680 -3.27680 -3.27680
18.06 18.084760 0.0 130.50 14.990 0.0960 0.1020 1.0 4.846150 200.0 18.461540 500.0 197.0 18.461540 6054.333330 889197.384620 153.0 43.0 838773342.112070 0.0 0.0 0.0 0.0 0.0 0.0 0.0 -3.27680 -3.27680 -3.27680 -3.27680 -3.27680 -3.27680
18.05 18.072150 0.0 130.550 14.9960 0.0960 0.1020 1.0 4.923080 200.0 18.615380 500.0 197.0 18.615380 6020.666670 889198.153850 153.0 43.0 838774791.528050 0.0 0.0 0.0 0.0 0.0 0.0 0.0 -3.27680 -3.27680 -3.27680 -3.27680 -3.27680 -3.27680
18.04 18.059550 0.0 130.60 15.0020 0.0960 0.1020 1.0 5.0 200.0 18.769230 500.0 197.0 18.769230 5987.0 889198.923080 153.0 43.0 838776240.944020 0.0 0.0 0.0 0.0 0.0 0.0 0.0 -3.27680 -3.27680 -3.27680 -3.27680 -3.27680 -3.27680
18.03 18.050890 0.0 130.633330 15.0080 0.0960 0.1020 1.0 5.0 200.0 18.923080 500.0 197.0 18.923080 5953.333330 889199.692310 153.0 43.0 838777690.360 0.0 0.0 0.0 0.0 0.0 0.0 0.0 -3.27680 -3.27680 -3.27680 -3.27680 -3.27680 -3.27680
18.02 18.042230 0.0 130.666670 15.0140 0.0960 0.1020 1.0 5.0 200.0 19.076920 500.0 197.0 19.076920 5919.666670 889200.461540 153.0 43.0 838779139.775970 0.0 0.0 0.0 0.0 0.0 0.0 0.0 -3.27680 -3.27680 -3.27680 -3.27680 -3.27680 -3.27680
18.01 18.033560 0.0 130.70 15.020 0.0960 0.1020 1.0 5.0 200.0 19.230770 500.0 197.0 19.230770 5886.0 889201.230770 153.0 43.0 838780589.191940 0.0 0.0 0.0 0.0 0.0 0.0 0.0 -3.27680 -3.27680 -3.27680 -3.27680 -3.27680 -3.27680
18.00 18.021350 0.0 130.750 15.020 0.0960 0.1020 1.0 5.0 200.0 19.384620 500.0 197.0 19.384620 5867.153850 889202.0 153.0 43.0 838782038.607920 0.0 0.0 0.0 0.0 0.0 0.0 0.0 -3.27680 -3.27680 -3.27680 -3.27680 -3.27680 -3.27680
17.99 18.009150 0.0 130.80 15.020 0.0960 0.1020 1.0 5.0 200.0 19.538460 500.0 197.0 19.538460 5848.307690 889203.0 153.0 43.0 838783922.871970 0.0 0.0 0.0 0.0 0.0 0.0 0.0 -3.27680 -3.27680 -3.27680 -3.27680 -3.27680 -3.27680
17.98 18.000750 0.0 130.833330 15.020 0.0960 0.1020 1.0 5.0 200.0 19.692310 500.0 197.0 19.692310 5829.461540 889204.0 153.0 43.0 838785807.136010 0.0 0.0 0.0 0.0 0.0 0.0 0.0 -3.27680 -3.27680 -3.27680 -3.27680 -3.27680 -3.27680
17.97 17.992350 0.0 130.866670 15.020 0.0960 0.1020 1.0 5.0 200.0 19.846150 500.0 197.0 19.846150 5810.615380 889205.0 153.0 43.0 838787691.400060 0.0 0.0 0.0 0.0 0.0 0.0 0.0 -3.27680 -3.27680 -3.27680 -3.27680 -3.27680 -3.27680
17.96 17.983940 0.0 130.90 15.020 0.0960 0.1020 1.0 5.0 200.0 20.0 500.0 197.0 20.0 5791.769230 889206.0 153.0 43.0 838789575.664110 0.0 0.0 0.0 0.0 0.0 0.0 0.0 -3.27680 -3.27680 -3.27680 -3.27680 -3.27680 -3.27680
17.95 17.971740 0.0 130.950 15.020 0.0960 0.1030 1.0 5.0 200.0 19.50 500.0 197.0 19.50 5772.923080 889207.0 153.0 43.0 838791459.928150 0.0 0.0 0.0 0.0 0.0 0.0 0.0 -3.27680 -3.27680 -3.27680 -3.27680 -3.27680 -3.27680
17.94 17.959530 0.0 131.0 15.020 0.0960 0.1040 1.0 5.0 200.0 19.0 500.0 197.0 19.0 5754.076920 889208.0 153.0 43.0 838793344.19220 0.0 0.0 0.0 0.0 0.0 0.0 0.0 -3.27680 -3.27680 -3.27680 -3.27680 -3.27680 -3.27680
17.93 17.951130 0.0 131.033330 15.020 0.0960 0.103330 1.0 5.0 200.0 18.50 500.0 197.0 18.50 5735.230770 889209.0 153.0 43.0 838795228.456250 0.0 0.0 0.0 0.0 0.0 0.0 0.0 -3.27680 -3.27680 -3.27680 -3.27680 -3.27680 -3.27680
17.92 17.942730 0.0 131.066670 15.020 0.0960 0.102670 1.0 5.0 200.0 18.0 500.0 197.0 18.0 5716.384620 889210.0 153.0 43.0 838797112.72030 0.0 0.0 0.0 0.0 0.0 0.0 0.0 -3.27680 -3.27680 -3.27680 -3.27680 -3.27680 -3.27680
17.91 17.934330 0.0 131.10 15.020 0.0960 0.1020 1.0 5.0 200.0 17.50 500.0 197.0 17.50 5697.538460 889211.0 153.0 43.0 838798996.984340 0.0 0.0 0.0 0.0 0.0 0.0 0.0 -3.27680 -3.27680 -3.27680 -3.27680 -3.27680 -3.27680
17.90 17.921720 0.0 131.150 15.020 0.0960 0.1020 1.0 5.0 200.0 17.0 500.0 197.0 17.0 5678.692310 889212.0 153.0 43.0 838800881.248390 0.0 0.0 0.0 0.0 0.0 0.0 0.0 -3.27680 -3.27680 -3.27680 -3.27680 -3.27680 -3.27680
17.89 17.909120 0.0 131.20 15.020 0.0960 0.1020 1.0 5.0 200.0 16.50 500.0 197.0 16.50 5659.846150 889213.0 153.0 43.0 838802765.512440 0.0 0.0 0.0 0.0 0.0 0.0 0.0 -3.27680 -3.27680 -3.27680 -3.27680 -3.27680 -3.27680
17.88 17.900720 0.0 131.233330 15.020 0.0960 0.1020 1.0 5.0 200.0 16.0 500.0 197.0 16.0 5641.0 889214.0 153.0 43.0 838804649.776480 0.0 0.0 0.0 0.0 0.0 0.0 0.0 -3.27680 -3.27680 -3.27680 -3.27680 -3.27680 -3.27680
17.87 17.892320 0.0 131.266670 15.020 0.0960 0.1020 1.0 5.0 200.0 15.50 500.0 197.0 15.50 5621.916670 889214.750 153.0 43.0 838806062.991190 0.0 0.0 0.0 0.0 0.0 0.0 0.0 -3.27680 -3.27680 -3.27680 -3.27680 -3.27680 -3.27680
17.86 17.883920 0.0 131.30 15.020 0.0960 0.1020 1.0 5.0 200.0 15.0 500.0 197.0 15.0 5602.833330 889215.50 153.0 43.0 838807476.205890 0.0 0.0 0.0 0.0 0.0 0.0 0.0 -3.27680 -3.27680 -3.27680 -3.27680 -3.27680 -3.27680
17.85 17.871710 0.0 131.350 15.016670 0.0960 0.1020 1.0 5.0 200.0 14.50 500.0 197.0 14.50 5583.750 889216.250 153.0 43.0 838808889.420590 0.0 0.0 0.0 0.0 0.0 0.0 0.0 -3.27680 -3.27680 -3.27680 -3.27680 -3.27680 -3.27680
17.84 17.85950 0.0 131.40 15.013330 0.0960 0.1020 1.0 5.0 200.0 14.0 500.0 197.0 14.0 5564.666670 889217.0 153.0 43.0 838810302.635290 0.0 0.0 0.0 0.0 0.0 0.0 0.0 -3.27680 -3.27680 -3.27680 -3.27680 -3.27680 -3.27680
17.83 17.851370 0.0 131.433330 15.010 0.0960 0.1020 1.0 5.0 200.0 15.076920 500.0 197.0 15.076920 5545.583330 889217.750 153.0 43.0 838811715.850 0.0 0.0 0.0 0.0 0.0 0.0 0.0 -3.27680 -3.27680 -3.27680 -3.27680 -3.27680 -3.27680
17.82 17.843230 0.0 131.466670 15.006670 0.0960 0.1020 1.0 5.0 200.0 16.153850 500.0 197.0 16.153850 5526.50 889218.50 153.0 43.0 838813129.06470 0.0 0.0 0.0 0.0 0.0 0.0 0.0 -3.27680 -3.27680 -3.27680 -3.27680 -3.27680 -3.27680
17.81 17.835090 0.0 131.50 15.003330 0.0960 0.1020 1.0 5.0 200.0 17.230770 500.0 197.0 17.230770 5507.416670 889219.250 153.0 43.0 838814542.27940 0.0 0.0 0.0 0.0 0.0 0.0 0.0 -3.27680 -3.27680 -3.27680 -3.27680 -3.27680 -3.27680
17.80 17.822490 0.0 131.550 15.0 0.0960 0.1020 1.0 5.0 200.0 18.307690 500.0 197.0 18.307690 5488.333330 889220.0 153.0 43.0 838815955.49410 0.0 0.0 0.0 0.0 0.0 0.0 0.0 -3.27680 -3.27680 -3.27680 -3.27680 -3.27680 -3.27680
17.79 17.809890 0.0 131.60 14.996670 0.0960 0.1020 1.0 5.0 200.0 19.384620 500.0 197.0 19.384620 5469.250 889220.750 153.0 43.0 838817368.70880 0.0 0.0 0.0 0.0 0.0 0.0 0.0 -3.27680 -3.27680 -3.27680 -3.27680 -3.27680 -3.27680
17.78 17.801220 0.0 131.633330 14.993330 0.0960 0.101330 1.0 5.0 200.0 20.461540 500.0 197.0 20.461540 5450.166670 889221.50 153.0 43.0 838818781.923510 0.0 0.0 0.0 0.0 0.0 0.0 0.0 -3.27680 -3.27680 -3.27680 -3.27680 -3.27680 -3.27680
17.77 17.792560 0.0 131.666670 14.990 0.0960 0.100670 1.0 5.0 200.0 21.538460 500.0 197.0 21.538460 5431.083330 889222.250 153.0 43.0 838820195.138210 0.0 0.0 0.0 0.0 0.0 0.0 0.0 -3.27680 -3.27680 -3.27680 -3.27680 -3.27680 -3.27680
