~VERSION INFORMATION SECTION
VERS. 2.0 : CWLS LAS-VERSION 2.0
WRAP. NO : One line per depth step
~WELL INFORMATION SECTION
# MNEM.UNIT VALUE/NAME DESCRIPTION
#-------- -------------- ---------------------
STRT.Metres 26 : Start
STOP.Metres -2.05 : Stop
STEP.Metres -0.01 : Step
NULL.  -999.25 :NULL VALUE
DATE. 2026-23-09 : DATE
~CURVE INFORMATION SECTION
DEPTH.Metres : 0 Depth
Depth. : 1 Depth
Tension. : 2 Tension
Time. : 3 Time
Speed. : 4 Speed
Voltage. : 5 Voltage
Current. : 6 Current
WET. : 7 WET
Sig. : 8 Sig
Vth. : 9 Vth
GR.CPS : 10 GR
Timebase.ms : 11 Timebase
HeadVoltage.V : 12 Head Voltage
API.API : 13 API
Conductivity.uS : 14 Conductivity
PT100.Ohms : 15 PT100
Vmon.mV : 16 Vmon
Status. : 17 Status
Temperature.C : 18 Temperature
Incline.Deg : 19 Incline
Azimuth.Deg : 20 Azimuth
RelativeBearing.Deg : 21 Relative Bearing
MagneticToolFace.Deg : 22 Magnetic Tool Face
GravityMagnitude.G : 23 Gravity Magnitude
MagnetometerMagnitude.H : 24 Magnetometer Magnitude
Temperature.C : 25 Temperature
GX. : 26 GX
GY. : 27 GY
GZ. : 28 GZ
HX. : 29 HX
HY. : 30 HY
HZ. : 31 HZ
~PARAMETER INFORMATION SECTION
~OTHER
#-------------------------------------------------
#Produced By: GeoVista Logger - Version 7.1.107.0
Verticality Sonde - 9605
Temperature and Conductivity Sonde - Inline - 8974
Natural Gamma Sonde - 9931
WLIS - 10021
#-------------------------------------------------
~ASCII LOG DATA
# ...
16.30 16.318440 0.0 50.233330 15.10 0.0960 0.1020 1.0 15.846150 200.0 25.692310 500.0 197.0 25.692310 3371.538460 889340.250 155.230770 43.384620 839042556.603170 0.0 0.0 0.0 0.0 0.0 0.0 0.0 -3.27680 -3.27680 -3.27680 -3.27680 -3.27680 -3.27680
16.29 16.310040 0.0 50.266670 15.110 0.0960 0.1020 1.0 15.923080 200.0 24.923080 500.0 197.0 24.923080 3365.230770 889341.0 155.307690 43.307690 839043970.009930 0.0 0.0 0.0 0.0 0.0 0.0 0.0 -3.27680 -3.27680 -3.27680 -3.27680 -3.27680 -3.27680
16.28 16.301640 0.0 50.30 15.120 0.0960 0.1020 1.0 16.0 200.0 24.153850 500.0 197.0 24.153850 3358.923080 889341.750 155.384620 43.230770 839045383.41670 0.0 0.0 0.0 0.0 0.0 0.0 0.0 -3.27680 -3.27680 -3.27680 -3.27680 -3.27680 -3.27680
16.27 16.289430 0.0 50.350 15.1040 0.0960 0.1020 1.0 16.166670 200.0 23.384620 500.0 197.0 23.384620 3352.615380 889342.50 155.461540 43.153850 839046796.823460 0.0 0.0 0.0 0.0 0.0 0.0 0.0 -3.27680 -3.27680 -3.27680 -3.27680 -3.27680 -3.27680
16.26 16.277230 0.0 50.40 15.0880 0.0960 0.1020 1.0 16.333330 200.0 22.615380 500.0 197.0 22.615380 3346.307690 889343.250 155.538460 43.076920 839048210.230230 0.0 0.0 0.0 0.0 0.0 0.0 0.0 -3.27680 -3.27680 -3.27680 -3.27680 -3.27680 -3.27680
16.25 16.268820 0.0 50.433330 15.0720 0.0960 0.101330 1.0 16.50 200.0 21.846150 500.0 197.0 21.846150 3340.0 889344.0 155.615380 43.0 839049623.636990 0.0 0.0 0.0 0.0 0.0 0.0 0.0 -3.27680 -3.27680 -3.27680 -3.27680 -3.27680 -3.27680
16.24 16.260420 0.0 50.466670 15.0560 0.0960 0.100670 1.0 16.666670 200.0 21.076920 500.0 197.0 21.076920 3334.416670 889344.692310 155.692310 43.0 839050928.333350 0.0 0.0 0.0 0.0 0.0 0.0 0.0 -3.27680 -3.27680 -3.27680 -3.27680 -3.27680 -3.27680
16.23 16.252020 0.0 50.50 15.040 0.0960 0.10 1.0 16.833330 200.0 20.307690 500.0 197.0 20.307690 3328.833330 889345.384620 155.769230 43.0 839052233.02970 0.0 0.0 0.0 0.0 0.0 0.0 0.0 -3.27680 -3.27680 -3.27680 -3.27680 -3.27680 -3.27680
16.22 16.239420 0.0 50.550 15.0240 0.0960 0.1010 1.0 17.0 200.0 19.538460 500.0 197.0 19.538460 3323.250 889346.076920 155.846150 43.0 839053537.726060 0.0 0.0 0.0 0.0 0.0 0.0 0.0 -3.27680 -3.27680 -3.27680 -3.27680 -3.27680 -3.27680
16.21 16.226820 0.0 50.60 15.0080 0.0960 0.1020 1.0 17.166670 200.0 18.769230 500.0 197.0 18.769230 3317.666670 889346.769230 155.923080 43.0 839054842.422410 0.0 0.0 0.0 0.0 0.0 0.0 0.0 -3.27680 -3.27680 -3.27680 -3.27680 -3.27680 -3.27680
16.20 16.218680 0.0 50.633330 14.9920 0.0960 0.1020 1.0 17.333330 200.0 18.0 500.0 197.0 18.0 3312.083330 889347.461540 156.0 43.0 839056147.118770 0.0 0.0 0.0 0.0 0.0 0.0 0.0 -3.27680 -3.27680 -3.27680 -3.27680 -3.27680 -3.27680
16.19 16.210540 0.0 50.666670 14.9760 0.0960 0.1020 1.0 17.50 200.0 19.166670 500.0 197.0 19.166670 3306.50 889348.153850 156.0 43.0 839057451.815120 0.0 0.0 0.0 0.0 0.0 0.0 0.0 -3.27680 -3.27680 -3.27680 -3.27680 -3.27680 -3.27680
16.18 16.20240 0.0 50.70 14.960 0.0960 0.1020 1.0 17.666670 200.0 20.333330 500.0 197.0 20.333330 3300.916670 889348.846150 156.0 43.0 839058756.511480 0.0 0.0 0.0 0.0 0.0 0.0 0.0 -3.27680 -3.27680 -3.27680 -3.27680 -3.27680 -3.27680
16.17 16.18980 0.0 50.750 14.9440 0.0960 0.1020 1.0 17.833330 200.0 21.50 500.0 197.0 21.50 3295.333330 889349.538460 156.0 43.0 839060061.207830 0.0 0.0 0.0 0.0 0.0 0.0 0.0 -3.27680 -3.27680 -3.27680 -3.27680 -3.27680 -3.27680
16.16 16.17720 0.0 50.80 14.9280 0.0960 0.1020 1.0 18.0 200.0 22.666670 500.0 197.0 22.666670 3289.750 889350.230770 156.0 43.0 839061365.904190 0.0 0.0 0.0 0.0 0.0 0.0 0.0 -3.27680 -3.27680 -3.27680 -3.27680 -3.27680 -3.27680
16.15 16.16880 0.0 50.833330 14.9120 0.0960 0.1020 1.0 18.076920 200.0 23.833330 500.0 197.0 23.833330 3284.166670 889350.923080 156.0 43.0 839062670.600540 0.0 0.0 0.0 0.0 0.0 0.0 0.0 -3.27680 -3.27680 -3.27680 -3.27680 -3.27680 -3.27680
16.14 16.16040 0.0 50.866670 14.8960 0.0960 0.1020 1.0 18.153850 200.0 25.0 500.0 197.0 25.0 3278.583330 889351.615380 156.0 43.0 839063975.29690 0.0 0.0 0.0 0.0 0.0 0.0 0.0 -3.27680 -3.27680 -3.27680 -3.27680 -3.27680 -3.27680
16.13 16.1520 0.0 50.90 14.880 0.0960 0.1020 1.0 18.230770 200.0 26.166670 500.0 197.0 26.166670 3273.0 889352.307690 156.0 43.0 839065279.993250 0.0 0.0 0.0 0.0 0.0 0.0 0.0 -3.27680 -3.27680 -3.27680 -3.27680 -3.27680 -3.27680
16.12 16.13940 0.0 50.950 14.8860 0.0960 0.1020 1.0 18.307690 200.0 27.333330 500.0 197.0 27.333330 3265.076920 889353.0 156.0 43.0 839066584.689610 0.0 0.0 0.0 0.0 0.0 0.0 0.0 -3.27680 -3.27680 -3.27680 -3.27680 -3.27680 -3.27680
16.11 16.12680 0.0 51.0 14.8920 0.0960 0.1020 1.0 18.384620 200.0 28.50 500.0 197.0 28.50 3257.153850 889354.0 156.0 43.0 839068469.273230 0.0 0.0 0.0 0.0 0.0 0.0 0.0 -3.27680 -3.27680 -3.27680 -3.27680 -3.27680 -3.27680
16.10 16.118390 0.0 51.033330 14.8980 0.0960 0.1020 1.0 18.461540 200.0 29.666670 500.0 197.0 29.666670 3249.230770 889355.0 156.0 43.0 839070353.856850 0.0 0.0 0.0 0.0 0.0 0.0 0.0 -3.27680 -3.27680 -3.27680 -3.27680 -3.27680 -3.27680
16.09 16.109990 0.0 51.066670 14.9040 0.0960 0.1020 1.0 18.538460 200.0 30.833330 500.0 197.0 30.833330 3241.307690 889356.0 156.0 43.0 839072238.440480 0.0 0.0 0.0 0.0 0.0 0.0 0.0 -3.27680 -3.27680 -3.27680 -3.27680 -3.27680 -3.27680
16.08 16.101590 0.0 51.10 14.910 0.0960 0.1020 1.0 18.615380 200.0 32.0 500.0 197.0 32.0 3233.384620 889357.0 156.0 43.0 839074123.02410 0.0 0.0 0.0 0.0 0.0 0.0 0.0 -3.27680 -3.27680 -3.27680 -3.27680 -3.27680 -3.27680
16.07 16.088990 0.0 51.150 14.9160 0.0960 0.1020 1.0 18.692310 200.0 30.769230 500.0 197.0 30.769230 3225.461540 889358.0 156.0 43.0 839076007.607720 0.0 0.0 0.0 0.0 0.0 0.0 0.0 -3.27680 -3.27680 -3.27680 -3.27680 -3.27680 -3.27680
16.06 16.076390 0.0 51.20 14.9220 0.0960 0.1020 1.0 18.769230 200.0 29.538460 500.0 197.0 29.538460 3217.538460 889359.0 156.0 43.0 839077892.191350 0.0 0.0 0.0 0.0 0.0 0.0 0.0 -3.27680 -3.27680 -3.27680 -3.27680 -3.27680 -3.27680
16.05 16.067990 0.0 51.233330 14.9280 0.0960 0.1020 1.0 18.846150 200.0 28.307690 500.0 197.0 28.307690 3209.615380 889360.0 156.0 43.0 839079776.774970 0.0 0.0 0.0 0.0 0.0 0.0 0.0 -3.27680 -3.27680 -3.27680 -3.27680 -3.27680 -3.27680
16.04 16.059590 0.0 51.266670 14.9340 0.0960 0.1020 1.0 18.923080 200.0 27.076920 500.0 197.0 27.076920 3201.692310 889361.0 156.0 43.0 839081661.358590 0.0 0.0 0.0 0.0 0.0 0.0 0.0 -3.27680 -3.27680 -3.27680 -3.27680 -3.27680 -3.27680
16.03 16.051190 0.0 51.30 14.940 0.0960 0.1020 1.0 19.0 200.0 25.846150 500.0 197.0 25.846150 3193.769230 889362.0 156.0 43.0 839083545.942220 0.0 0.0 0.0 0.0 0.0 0.0 0.0 -3.27680 -3.27680 -3.27680 -3.27680 -3.27680 -3.27680
16.02 16.038580 0.0 51.350 14.9460 0.0960 0.1020 1.0 19.083330 200.0 24.615380 500.0 197.0 24.615380 3185.846150 889363.0 156.0 43.0 839085430.525840 0.0 0.0 0.0 0.0 0.0 0.0 0.0 -3.27680 -3.27680 -3.27680 -3.27680 -3.27680 -3.27680
16.01 16.025980 0.0 51.40 14.9520 0.0960 0.1020 1.0 19.166670 200.0 23.384620 500.0 197.0 23.384620 3177.923080 889364.0 156.0 43.0 839087315.109470 0.0 0.0 0.0 0.0 0.0 0.0 0.0 -3.27680 -3.27680 -3.27680 -3.27680 -3.27680 -3.27680
16.00 16.017580 0.0 51.433330 14.9580 0.0960 0.1020 1.0 19.250 200.0 22.153850 500.0 197.0 22.153850 3170.0 889365.0 156.0 43.0 839089199.693090 0.0 0.0 0.0 0.0 0.0 0.0 0.0 -3.27680 -3.27680 -3.27680 -3.27680 -3.27680 -3.27680
15.99 16.009180 0.0 51.466670 14.9640 0.0960 0.1020 1.0 19.333330 200.0 20.923080 500.0 197.0 20.923080 3164.750 889365.615380 156.0 43.0 839090359.449880 0.0 0.0 0.0 0.0 0.0 0.0 0.0 -3.27680 -3.27680 -3.27680 -3.27680 -3.27680 -3.27680
15.98 16.000780 0.0 51.50 14.970 0.0960 0.1020 1.0 19.416670 200.0 19.692310 500.0 197.0 19.692310 3159.50 889366.230770 156.0 43.0 839091519.206670 0.0 0.0 0.0 0.0 0.0 0.0 0.0 -3.27680 -3.27680 -3.27680 -3.27680 -3.27680 -3.27680
15.97 15.988180 0.0 51.550 14.976670 0.0960 0.1020 1.0 19.50 200.0 18.461540 500.0 197.0 18.461540 3154.250 889366.846150 156.0 43.0 839092678.963470 0.0 0.0 0.0 0.0 0.0 0.0 0.0 -3.27680 -3.27680 -3.27680 -3.27680 -3.27680 -3.27680
15.96 15.975580 0.0 51.60 14.983330 0.0960 0.1020 1.0 19.583330 200.0 17.230770 500.0 197.0 17.230770 3149.0 889367.461540 156.0 43.0 839093838.720260 0.0 0.0 0.0 0.0 0.0 0.0 0.0 -3.27680 -3.27680 -3.27680 -3.27680 -3.27680 -3.27680
