~VERSION INFORMATION SECTION
VERS. 2.0 : CWLS LAS-VERSION 2.0
WRAP. NO : One line per depth step
~WELL INFORMATION SECTION
# MNEM.UNIT VALUE/NAME DESCRIPTION
#-------- -------------- ---------------------
STRT.Metres 26 : Start
STOP.Metres -2.05 : Stop
STEP.Metres -0.01 : Step
NULL.  -999.25 :NULL VALUE
DATE. 2026-40-09 : DATE
~CURVE INFORMATION SECTION
DEPTH.Metres : 0 Depth
Depth. : 1 Depth
Tension. : 2 Tension
Time. : 3 Time
Speed. : 4 Speed
Voltage. : 5 Voltage
Current. : 6 Current
WET. : 7 WET
Sig. : 8 Sig
Vth. : 9 Vth
GR.CPS : 10 GR
Timebase.ms : 11 Timebase
HeadVoltage.V : 12 Head Voltage
API.API : 13 API
Conductivity.uS : 14 Conductivity
PT100.Ohms : 15 PT100
Vmon.mV : 16 Vmon
Status. : 17 Status
Temperature.C : 18 Temperature
Incline.Deg : 19 Incline
Azimuth.Deg : 20 Azimuth
RelativeBearing.Deg : 21 Relative Bearing
MagneticToolFace.Deg : 22 Magnetic Tool Face
GravityMagnitude.G : 23 Gravity Magnitude
MagnetometerMagnitude.H : 24 Magnetometer Magnitude
Temperature.C : 25 Temperature
GX. : 26 GX
GY. : 27 GY
GZ. : 28 GZ
HX. : 29 HX
HY. : 30 HY
HZ. : 31 HZ
~PARAMETER INFORMATION SECTION
~OTHER
#-------------------------------------------------
#Produced By: GeoVista Logger - Version 7.1.107.0
Verticality Sonde - 9605
Temperature and Conductivity Sonde - Inline - 8974
Natural Gamma Sonde - 9931
WLIS - 10021
#-------------------------------------------------
~ASCII LOG DATA
# ...
21.24 21.261910 0.0 51.850 14.90 0.0960 0.1020 1.0 0.0 200.0 17.50 500.0 197.0 17.50 16818.0 889078.615380 138.0 42.0 838549567.090 0.0 0.0 0.0 0.0 0.0 0.0 0.0 -3.27680 -3.27680 -3.27680 -3.27680 -3.27680 -3.27680
21.23 21.249310 0.0 51.90 14.896670 0.0960 0.1020 1.0 0.0 200.0 17.333330 500.0 197.0 17.333330 16800.250 889078.692310 138.0 42.0 838549712.01230 0.0 0.0 0.0 0.0 0.0 0.0 0.0 -3.27680 -3.27680 -3.27680 -3.27680 -3.27680 -3.27680
21.22 21.240650 0.0 51.933330 14.893330 0.0960 0.1020 1.0 0.0 200.0 17.166670 500.0 197.0 17.166670 16782.50 889078.769230 138.0 42.0 838549856.934610 0.0 0.0 0.0 0.0 0.0 0.0 0.0 -3.27680 -3.27680 -3.27680 -3.27680 -3.27680 -3.27680
21.21 21.231990 0.0 51.966670 14.890 0.0960 0.1020 1.0 0.0 200.0 17.0 500.0 197.0 17.0 16764.750 889078.846150 138.0 42.0 838550001.856910 0.0 0.0 0.0 0.0 0.0 0.0 0.0 -3.27680 -3.27680 -3.27680 -3.27680 -3.27680 -3.27680
21.20 21.223320 0.0 52.0 14.886670 0.0960 0.1020 1.0 0.0 200.0 16.833330 500.0 197.0 16.833330 16747.0 889078.923080 138.0 42.0 838550146.779220 0.0 0.0 0.0 0.0 0.0 0.0 0.0 -3.27680 -3.27680 -3.27680 -3.27680 -3.27680 -3.27680
21.19 21.210720 0.0 52.050 14.883330 0.0960 0.1020 1.0 0.0 200.0 16.666670 500.0 197.0 16.666670 16731.692310 889079.0 138.0 42.0 838550291.701530 0.0 0.0 0.0 0.0 0.0 0.0 0.0 -3.27680 -3.27680 -3.27680 -3.27680 -3.27680 -3.27680
21.18 21.198120 0.0 52.10 14.880 0.0960 0.1020 1.0 0.0 200.0 16.50 500.0 197.0 16.50 16716.384620 889078.750 138.0 42.0 838549820.704560 0.0 0.0 0.0 0.0 0.0 0.0 0.0 -3.27680 -3.27680 -3.27680 -3.27680 -3.27680 -3.27680
21.17 21.189720 0.0 52.133330 14.892670 0.0960 0.1020 1.0 0.0 200.0 16.333330 500.0 197.0 16.333330 16701.076920 889078.50 138.0 42.0 838549349.70760 0.0 0.0 0.0 0.0 0.0 0.0 0.0 -3.27680 -3.27680 -3.27680 -3.27680 -3.27680 -3.27680
21.16 21.181320 0.0 52.166670 14.905330 0.0960 0.1020 1.0 0.0 200.0 16.166670 500.0 197.0 16.166670 16685.769230 889078.250 138.0 42.0 838548878.710630 0.0 0.0 0.0 0.0 0.0 0.0 0.0 -3.27680 -3.27680 -3.27680 -3.27680 -3.27680 -3.27680
21.15 21.172920 0.0 52.20 14.9180 0.0960 0.1020 1.0 0.0 200.0 16.0 500.0 197.0 16.0 16670.461540 889078.0 138.0 42.0 838548407.713670 0.0 0.0 0.0 0.0 0.0 0.0 0.0 -3.27680 -3.27680 -3.27680 -3.27680 -3.27680 -3.27680
21.14 21.160710 0.0 52.250 14.930670 0.0960 0.1020 1.0 0.0 200.0 15.846150 500.0 197.0 15.846150 16655.153850 889077.750 138.0 42.0 838547936.71670 0.0 0.0 0.0 0.0 0.0 0.0 0.0 -3.27680 -3.27680 -3.27680 -3.27680 -3.27680 -3.27680
21.13 21.14850 0.0 52.30 14.943330 0.0960 0.1020 1.0 0.0 200.0 15.692310 500.0 197.0 15.692310 16639.846150 889077.50 138.0 42.0 838547465.719740 0.0 0.0 0.0 0.0 0.0 0.0 0.0 -3.27680 -3.27680 -3.27680 -3.27680 -3.27680 -3.27680
21.12 21.14010 0.0 52.333330 14.9560 0.0960 0.1020 1.0 0.0 200.0 15.538460 500.0 197.0 15.538460 16624.538460 889077.250 138.0 42.0 838546994.722770 0.0 0.0 0.0 0.0 0.0 0.0 0.0 -3.27680 -3.27680 -3.27680 -3.27680 -3.27680 -3.27680
21.11 21.13170 0.0 52.366670 14.968670 0.0960 0.1020 1.0 0.0 200.0 15.384620 500.0 197.0 15.384620 16609.230770 889077.0 138.0 42.0 838546523.725810 0.0 0.0 0.0 0.0 0.0 0.0 0.0 -3.27680 -3.27680 -3.27680 -3.27680 -3.27680 -3.27680
21.10 21.12330 0.0 52.40 14.981330 0.0960 0.1020 1.0 0.0 200.0 15.230770 500.0 197.0 15.230770 16593.923080 889076.750 138.0 42.0 838546052.728850 0.0 0.0 0.0 0.0 0.0 0.0 0.0 -3.27680 -3.27680 -3.27680 -3.27680 -3.27680 -3.27680
21.09 21.11030 0.0 52.450 14.9940 0.0960 0.1020 1.0 0.0 200.0 15.076920 500.0 197.0 15.076920 16578.615380 889076.50 138.0 42.0 838545581.731880 0.0 0.0 0.0 0.0 0.0 0.0 0.0 -3.27680 -3.27680 -3.27680 -3.27680 -3.27680 -3.27680
21.08 21.097310 0.0 52.50 15.006670 0.0960 0.1020 1.0 0.0 200.0 14.923080 500.0 197.0 14.923080 16563.307690 889076.250 138.0 42.0 838545110.734920 0.0 0.0 0.0 0.0 0.0 0.0 0.0 -3.27680 -3.27680 -3.27680 -3.27680 -3.27680 -3.27680
21.07 21.089170 0.0 52.533330 15.019330 0.0960 0.1020 1.0 0.0 200.0 14.769230 500.0 197.0 14.769230 16548.0 889076.0 138.0 42.0 838544639.737950 0.0 0.0 0.0 0.0 0.0 0.0 0.0 -3.27680 -3.27680 -3.27680 -3.27680 -3.27680 -3.27680
21.06 21.081030 0.0 52.566670 15.0320 0.0960 0.1020 1.0 0.0 200.0 14.615380 500.0 197.0 14.615380 16528.083330 889076.153850 138.0 42.0 838544929.582080 0.0 0.0 0.0 0.0 0.0 0.0 0.0 -3.27680 -3.27680 -3.27680 -3.27680 -3.27680 -3.27680
21.05 21.072890 0.0 52.60 15.044670 0.0960 0.1020 1.0 0.0 200.0 14.461540 500.0 197.0 14.461540 16508.166670 889076.307690 138.0 42.0 838545219.42620 0.0 0.0 0.0 0.0 0.0 0.0 0.0 -3.27680 -3.27680 -3.27680 -3.27680 -3.27680 -3.27680
21.04 21.060680 0.0 52.650 15.057330 0.0960 0.1020 1.0 0.0 200.0 14.307690 500.0 197.0 14.307690 16488.250 889076.461540 138.0 42.0 838545509.270320 0.0 0.0 0.0 0.0 0.0 0.0 0.0 -3.27680 -3.27680 -3.27680 -3.27680 -3.27680 -3.27680
21.03 21.048480 0.0 52.70 15.070 0.0960 0.1020 1.0 0.0 200.0 14.153850 500.0 197.0 14.153850 16468.333330 889076.615380 138.0 42.0 838545799.114440 0.0 0.0 0.0 0.0 0.0 0.0 0.0 -3.27680 -3.27680 -3.27680 -3.27680 -3.27680 -3.27680
21.02 21.040340 0.0 52.733330 15.063330 0.0960 0.1020 1.0 0.0 200.0 14.0 500.0 197.0 14.0 16448.416670 889076.769230 138.0 42.0 838546088.958570 0.0 0.0 0.0 0.0 0.0 0.0 0.0 -3.27680 -3.27680 -3.27680 -3.27680 -3.27680 -3.27680
21.01 21.03220 0.0 52.766670 15.056670 0.0960 0.1020 1.0 0.0 200.0 14.833330 500.0 197.0 14.833330 16428.50 889076.923080 138.0 42.0 838546378.802690 0.0 0.0 0.0 0.0 0.0 0.0 0.0 -3.27680 -3.27680 -3.27680 -3.27680 -3.27680 -3.27680
21.00 21.024060 0.0 52.80 15.050 0.0960 0.1020 1.0 0.0 200.0 15.666670 500.0 197.0 15.666670 16408.583330 889077.076920 138.0 42.0 838546668.646810 0.0 0.0 0.0 0.0 0.0 0.0 0.0 -3.27680 -3.27680 -3.27680 -3.27680 -3.27680 -3.27680
20.99 21.011460 0.0 52.850 15.043330 0.0960 0.1020 1.0 0.0 200.0 16.50 500.0 197.0 16.50 16388.666670 889077.230770 138.0 42.0 838546958.490940 0.0 0.0 0.0 0.0 0.0 0.0 0.0 -3.27680 -3.27680 -3.27680 -3.27680 -3.27680 -3.27680
20.98 20.998860 0.0 52.90 15.036670 0.0960 0.1020 1.0 0.0 200.0 17.333330 500.0 197.0 17.333330 16368.750 889077.384620 138.0 42.0 838547248.335060 0.0 0.0 0.0 0.0 0.0 0.0 0.0 -3.27680 -3.27680 -3.27680 -3.27680 -3.27680 -3.27680
20.97 20.990190 0.0 52.933330 15.030 0.0960 0.1020 1.0 0.076920 200.0 18.166670 500.0 197.0 18.166670 16348.833330 889077.538460 138.0 42.0 838547538.179180 0.0 0.0 0.0 0.0 0.0 0.0 0.0 -3.27680 -3.27680 -3.27680 -3.27680 -3.27680 -3.27680
20.96 20.981530 0.0 52.966670 15.023330 0.0960 0.1020 1.0 0.153850 200.0 19.0 500.0 197.0 19.0 16328.916670 889077.692310 138.0 42.0 838547828.02330 0.0 0.0 0.0 0.0 0.0 0.0 0.0 -3.27680 -3.27680 -3.27680 -3.27680 -3.27680 -3.27680
20.95 20.972870 0.0 53.0 15.016670 0.0960 0.1020 1.0 0.230770 200.0 19.833330 500.0 197.0 19.833330 16309.0 889077.846150 138.0 42.0 838548117.867430 0.0 0.0 0.0 0.0 0.0 0.0 0.0 -3.27680 -3.27680 -3.27680 -3.27680 -3.27680 -3.27680
20.94 20.960660 0.0 53.050 15.010 0.0960 0.1020 1.0 0.307690 200.0 20.666670 500.0 197.0 20.666670 16290.538460 889078.0 138.0 42.0 838548407.711550 0.0 0.0 0.0 0.0 0.0 0.0 0.0 -3.27680 -3.27680 -3.27680 -3.27680 -3.27680 -3.27680
20.93 20.948450 0.0 53.10 15.003330 0.0960 0.1020 1.0 0.384620 200.0 21.50 500.0 197.0 21.50 16272.076920 889078.083330 138.0 42.0 838548564.710720 0.0 0.0 0.0 0.0 0.0 0.0 0.0 -3.27680 -3.27680 -3.27680 -3.27680 -3.27680 -3.27680
20.92 20.940050 0.0 53.133330 14.996670 0.0960 0.1020 1.0 0.461540 200.0 22.333330 500.0 197.0 22.333330 16253.615380 889078.166670 138.0 42.0 838548721.709880 0.0 0.0 0.0 0.0 0.0 0.0 0.0 -3.27680 -3.27680 -3.27680 -3.27680 -3.27680 -3.27680
20.91 20.931650 0.0 53.166670 14.990 0.0960 0.1020 1.0 0.538460 200.0 23.166670 500.0 197.0 23.166670 16235.153850 889078.250 138.0 42.0 838548878.709040 0.0 0.0 0.0 0.0 0.0 0.0 0.0 -3.27680 -3.27680 -3.27680 -3.27680 -3.27680 -3.27680
20.90 20.923250 0.0 53.20 14.983330 0.0960 0.1020 1.0 0.615380 200.0 24.0 500.0 197.0 24.0 16216.692310 889078.333330 138.0 42.0 838549035.708210 0.0 0.0 0.0 0.0 0.0 0.0 0.0 -3.27680 -3.27680 -3.27680 -3.27680 -3.27680 -3.27680
