~VERSION INFORMATION SECTION
VERS. 2.0 : CWLS LAS-VERSION 2.0
WRAP. NO : One line per depth step
~WELL INFORMATION SECTION
# MNEM.UNIT VALUE/NAME DESCRIPTION
#-------- -------------- ---------------------
STRT.Metres 19 : Start
STOP.Metres -2.05 : Stop
STEP.Metres -0.01 : Step
NULL.  -999.25 :NULL VALUE
DATE. 2026-03-09 : DATE
~CURVE INFORMATION SECTION
DEPTH.Metres : 0 Depth
Depth. : 1 Depth
Tension. : 2 Tension
Time. : 3 Time
Speed. : 4 Speed
Voltage. : 5 Voltage
Current. : 6 Current
WET. : 7 WET
Sig. : 8 Sig
Vth. : 9 Vth
GR.CPS : 10 GR
Timebase.ms : 11 Timebase
HeadVoltage.V : 12 Head Voltage
API.API : 13 API
Conductivity.uS : 14 Conductivity
PT100.Ohms : 15 PT100
Vmon.mV : 16 Vmon
Status. : 17 Status
Temperature.C : 18 Temperature
Incline.Deg : 19 Incline
Azimuth.Deg : 20 Azimuth
RelativeBearing.Deg : 21 Relative Bearing
MagneticToolFace.Deg : 22 Magnetic Tool Face
GravityMagnitude.G : 23 Gravity Magnitude
MagnetometerMagnitude.H : 24 Magnetometer Magnitude
Temperature.C : 25 Temperature
GX. : 26 GX
GY. : 27 GY
GZ. : 28 GZ
HX. : 29 HX
HY. : 30 HY
HZ. : 31 HZ
~PARAMETER INFORMATION SECTION
~OTHER
#-------------------------------------------------
#Produced By: GeoVista Logger - Version 7.1.107.0
Verticality Sonde - 9605
Temperature and Conductivity Sonde - Inline - 8974
Natural Gamma Sonde - 9931
WLIS - 10021
#-------------------------------------------------
~ASCII LOG DATA
# ...
8.06 8.064970 0.0 156.80 4.960 0.0960 0.1020 1.0 41.0 200.0 11.0 500.0 197.0 11.0 1838.750 890300.750 149.0 41.0 840853637.300740 0.0 0.0 0.0 0.0 0.0 0.0 0.0 -3.27680 -3.27680 -3.27680 -3.27680 -3.27680 -3.27680
8.05 8.05710 0.0 156.90 4.960 0.0960 0.1020 1.0 41.0 200.0 9.50 500.0 197.0 9.50 1833.50 890302.50 149.0 41.0 840856938.816520 0.0 0.0 0.0 0.0 0.0 0.0 0.0 -3.27680 -3.27680 -3.27680 -3.27680 -3.27680 -3.27680
8.04 8.048430 0.0 157.0 4.960 0.0960 0.1020 1.0 41.0 200.0 8.0 500.0 197.0 8.0 1828.250 890304.250 149.0 41.0 840860240.33230 0.0 0.0 0.0 0.0 0.0 0.0 0.0 -3.27680 -3.27680 -3.27680 -3.27680 -3.27680 -3.27680
8.03 8.035830 0.0 157.150 4.960 0.0960 0.1020 1.0 41.0 200.0 7.50 500.0 197.0 7.50 1823.0 890306.0 149.0 41.0 840863541.848090 0.0 0.0 0.0 0.0 0.0 0.0 0.0 -3.27680 -3.27680 -3.27680 -3.27680 -3.27680 -3.27680
8.02 8.023230 0.0 157.30 4.960 0.0960 0.1020 1.0 41.0 200.0 7.0 500.0 197.0 7.0 1830.250 890306.60 149.0 41.0 840864673.80270 0.0 0.0 0.0 0.0 0.0 0.0 0.0 -3.27680 -3.27680 -3.27680 -3.27680 -3.27680 -3.27680
8.01 8.015350 0.0 157.40 4.960 0.0960 0.1020 1.0 41.0 200.0 6.50 502.0 197.0 6.50 1837.50 890307.20 149.0 41.0 840865805.757320 0.0 0.0 0.0 0.0 0.0 0.0 0.0 -3.27680 -3.27680 -3.27680 -3.27680 -3.27680 -3.27680
8.00 8.006690 0.0 157.50 4.960 0.0960 0.1020 1.0 41.250 200.0 6.0 504.0 197.0 6.0 1844.750 890307.80 149.0 41.0 840866937.711940 0.0 0.0 0.0 0.0 0.0 0.0 0.0 -3.27680 -3.27680 -3.27680 -3.27680 -3.27680 -3.27680
7.99 7.994090 0.0 157.650 4.960 0.0960 0.1020 1.0 41.50 200.0 8.50 506.0 197.0 8.50 1852.0 890308.40 149.0 41.0 840868069.666560 0.0 0.0 0.0 0.0 0.0 0.0 0.0 -3.27680 -3.27680 -3.27680 -3.27680 -3.27680 -3.27680
7.98 7.981490 0.0 157.80 4.960 0.0960 0.1020 1.0 41.750 200.0 11.0 508.0 197.0 11.0 1846.0 890309.0 149.0 41.0 840869201.621170 0.0 0.0 0.0 0.0 0.0 0.0 0.0 -3.27680 -3.27680 -3.27680 -3.27680 -3.27680 -3.27680
7.97 7.973610 0.0 157.90 4.960 0.0960 0.1020 1.0 42.0 200.0 13.50 510.0 197.0 13.50 1840.0 890311.250 149.250 41.0 840873446.479560 0.0 0.0 0.0 0.0 0.0 0.0 0.0 -3.27680 -3.27680 -3.27680 -3.27680 -3.27680 -3.27680
7.96 7.964950 0.0 158.0 4.960 0.0960 0.1020 1.0 41.750 200.0 16.0 507.50 197.0 16.0 1834.0 890313.50 149.50 41.0 840877691.337950 0.0 0.0 0.0 0.0 0.0 0.0 0.0 -3.27680 -3.27680 -3.27680 -3.27680 -3.27680 -3.27680
7.95 7.957070 0.0 158.10 4.9680 0.0960 0.1020 1.0 41.50 200.0 15.0 505.0 197.0 15.0 1828.0 890315.750 149.750 41.0 840881936.196330 0.0 0.0 0.0 0.0 0.0 0.0 0.0 -3.27680 -3.27680 -3.27680 -3.27680 -3.27680 -3.27680
7.94 7.944470 0.0 158.250 4.9760 0.0960 0.1020 1.0 41.250 200.0 14.0 502.50 197.0 14.0 1829.250 890318.0 150.0 41.0 840886181.054720 0.0 0.0 0.0 0.0 0.0 0.0 0.0 -3.27680 -3.27680 -3.27680 -3.27680 -3.27680 -3.27680
7.93 7.931870 0.0 158.40 4.9840 0.0960 0.1020 1.0 41.0 200.0 13.0 500.0 197.0 13.0 1830.50 890319.750 149.750 41.0 840889482.640870 0.0 0.0 0.0 0.0 0.0 0.0 0.0 -3.27680 -3.27680 -3.27680 -3.27680 -3.27680 -3.27680
7.92 7.923990 0.0 158.50 4.9920 0.0960 0.1020 1.0 41.0 200.0 12.0 500.0 197.0 12.0 1831.750 890321.50 149.50 41.0 840892784.227020 0.0 0.0 0.0 0.0 0.0 0.0 0.0 -3.27680 -3.27680 -3.27680 -3.27680 -3.27680 -3.27680
7.91 7.915330 0.0 158.60 5.0 0.0960 0.1020 1.0 41.0 200.0 12.34510 500.0 197.0 12.34510 1833.0 890323.250 149.250 41.0 840896085.813180 0.0 0.0 0.0 0.0 0.0 0.0 0.0 -3.27680 -3.27680 -3.27680 -3.27680 -3.27680 -3.27680
7.90 7.907450 0.0 158.70 5.0 0.0960 0.1020 1.0 41.0 200.0 12.69020 500.0 197.0 12.69020 1831.60 890325.0 149.0 41.0 840899387.399330 0.0 0.0 0.0 0.0 0.0 0.0 0.0 -3.27680 -3.27680 -3.27680 -3.27680 -3.27680 -3.27680
7.89 7.894850 0.0 158.850 5.0 0.0960 0.1020 1.0 41.0 200.0 13.035290 500.0 197.0 13.035290 1830.20 890327.250 149.0 41.0 840903632.333910 0.0 0.0 0.0 0.0 0.0 0.0 0.0 -3.27680 -3.27680 -3.27680 -3.27680 -3.27680 -3.27680
7.88 7.882250 0.0 159.0 5.0 0.0960 0.1020 1.0 41.0 200.0 13.380390 500.0 197.0 13.380390 1828.80 890329.50 149.0 41.0 840907877.268480 0.0 0.0 0.0 0.0 0.0 0.0 0.0 -3.27680 -3.27680 -3.27680 -3.27680 -3.27680 -3.27680
7.87 7.874370 0.0 159.10 5.0 0.0960 0.1020 1.0 41.0 200.0 13.725490 500.0 197.0 13.725490 1827.40 890331.750 149.0 41.0 840912122.203060 0.0 0.0 0.0 0.0 0.0 0.0 0.0 -3.27680 -3.27680 -3.27680 -3.27680 -3.27680 -3.27680
7.86 7.865710 0.0 159.20 5.0 0.0960 0.1020 1.0 41.0 200.0 13.294120 500.0 197.0 13.294120 1826.0 890334.0 149.0 41.0 840916367.137640 0.0 0.0 0.0 0.0 0.0 0.0 0.0 -3.27680 -3.27680 -3.27680 -3.27680 -3.27680 -3.27680
7.85 7.857050 0.0 159.30 5.010 0.0960 0.1020 1.0 41.0 200.0 12.862750 500.0 197.0 12.862750 1827.250 890335.250 149.0 41.0 840918725.453140 0.0 0.0 0.0 0.0 0.0 0.0 0.0 -3.27680 -3.27680 -3.27680 -3.27680 -3.27680 -3.27680
7.84 7.844840 0.0 159.450 5.020 0.0960 0.1020 1.0 41.0 200.0 12.431370 500.0 197.0 12.431370 1828.50 890336.50 149.0 41.0 840921083.768650 0.0 0.0 0.0 0.0 0.0 0.0 0.0 -3.27680 -3.27680 -3.27680 -3.27680 -3.27680 -3.27680
7.83 7.831840 0.0 159.60 5.030 0.0960 0.1020 1.0 41.0 200.0 12.0 500.0 197.0 12.0 1829.750 890337.750 149.0 41.0 840923442.084150 0.0 0.0 0.0 0.0 0.0 0.0 0.0 -3.27680 -3.27680 -3.27680 -3.27680 -3.27680 -3.27680
7.82 7.823970 0.0 159.70 5.040 0.0960 0.1020 1.0 41.0 200.0 12.50 500.0 197.0 12.50 1831.0 890339.0 149.0 41.0 840925800.399660 0.0 0.0 0.0 0.0 0.0 0.0 0.0 -3.27680 -3.27680 -3.27680 -3.27680 -3.27680 -3.27680
7.81 7.816090 0.0 159.80 5.050 0.0960 0.10 1.0 41.0 200.0 13.0 500.0 197.0 13.0 1830.750 890340.750 149.0 41.0 840929102.063590 0.0 0.0 0.0 0.0 0.0 0.0 0.0 -3.27680 -3.27680 -3.27680 -3.27680 -3.27680 -3.27680
7.80 7.807430 0.0 159.90 5.040 0.0960 0.1020 1.0 41.0 200.0 13.50 500.0 197.0 13.50 1830.50 890342.50 149.0 41.0 840932403.727520 0.0 0.0 0.0 0.0 0.0 0.0 0.0 -3.27680 -3.27680 -3.27680 -3.27680 -3.27680 -3.27680
7.79 7.795220 0.0 160.050 5.030 0.0960 0.1020 1.0 41.0 200.0 14.0 500.0 197.0 14.0 1830.250 890344.250 149.0 41.0 840935705.391450 0.0 0.0 0.0 0.0 0.0 0.0 0.0 -3.27680 -3.27680 -3.27680 -3.27680 -3.27680 -3.27680
7.78 7.782230 0.0 160.20 5.020 0.0960 0.10 1.0 41.0 200.0 12.0 500.0 197.0 12.0 1830.0 890346.0 149.0 41.0 840939007.055380 0.0 0.0 0.0 0.0 0.0 0.0 0.0 -3.27680 -3.27680 -3.27680 -3.27680 -3.27680 -3.27680
7.77 7.774350 0.0 160.30 5.010 0.0960 0.1020 1.0 41.0 200.0 10.0 500.0 197.0 10.0 1831.50 890347.0 149.0 41.0 840940893.733180 0.0 0.0 0.0 0.0 0.0 0.0 0.0 -3.27680 -3.27680 -3.27680 -3.27680 -3.27680 -3.27680
7.76 7.766470 0.0 160.40 5.0 0.0960 0.1020 1.0 41.0 200.0 8.0 500.0 197.0 8.0 1833.0 890348.0 149.0 41.0 840942780.410980 0.0 0.0 0.0 0.0 0.0 0.0 0.0 -3.27680 -3.27680 -3.27680 -3.27680 -3.27680 -3.27680
7.75 7.757810 0.0 160.50 5.0 0.0960 0.1020 1.0 41.250 200.0 6.0 500.0 197.0 6.0 1834.50 890349.0 149.0 41.0 840944667.088790 0.0 0.0 0.0 0.0 0.0 0.0 0.0 -3.27680 -3.27680 -3.27680 -3.27680 -3.27680 -3.27680
7.74 7.74560 0.0 160.650 5.0 0.0960 0.1020 1.0 41.50 200.0 7.0 500.0 197.0 7.0 1836.0 890350.0 149.0 41.0 840946553.766590 0.0 0.0 0.0 0.0 0.0 0.0 0.0 -3.27680 -3.27680 -3.27680 -3.27680 -3.27680 -3.27680
7.73 7.73340 0.0 160.80 5.0 0.0960 0.1020 1.0 41.750 200.0 8.0 500.0 197.0 8.0 1833.750 890351.0 149.0 41.0 840948440.444390 0.0 0.0 0.0 0.0 0.0 0.0 0.0 -3.27680 -3.27680 -3.27680 -3.27680 -3.27680 -3.27680
7.72 7.724730 0.0 160.90 5.0 0.0960 0.1020 1.0 42.0 200.0 9.0 500.0 197.0 9.0 1831.50 890353.250 149.250 41.0 840952685.502780 0.0 0.0 0.0 0.0 0.0 0.0 0.0 -3.27680 -3.27680 -3.27680 -3.27680 -3.27680 -3.27680
7.71 7.716860 0.0 161.0 5.0 0.0960 0.1020 1.0 42.0 200.0 10.0 500.0 197.0 10.0 1829.250 890355.50 149.50 41.0 840956930.561160 0.0 0.0 0.0 0.0 0.0 0.0 0.0 -3.27680 -3.27680 -3.27680 -3.27680 -3.27680 -3.27680
7.70 7.708190 0.0 161.10 5.0 0.0960 0.1020 1.0 42.0 200.0 12.0 500.0 197.0 12.0 1827.0 890357.750 149.750 41.0 840961175.619550 0.0 0.0 0.0 0.0 0.0 0.0 0.0 -3.27680 -3.27680 -3.27680 -3.27680 -3.27680 -3.27680
7.69 7.69520 0.0 161.250 5.0 0.0960 0.1020 1.0 42.0 200.0 14.0 500.0 197.0 14.0 1822.0 890360.0 150.0 41.0 840965420.677930 0.0 0.0 0.0 0.0 0.0 0.0 0.0 -3.27680 -3.27680 -3.27680 -3.27680 -3.27680 -3.27680
