~VERSION INFORMATION SECTION
VERS. 2.0 : CWLS LAS-VERSION 2.0
WRAP. NO : One line per depth step
~WELL INFORMATION SECTION
# MNEM.UNIT VALUE/NAME DESCRIPTION
#-------- -------------- ---------------------
STRT.Metres 19 : Start
STOP.Metres -2.05 : Stop
STEP.Metres -0.01 : Step
NULL.  -999.25 :NULL VALUE
DATE. 2026-03-09 : DATE
~CURVE INFORMATION SECTION
DEPTH.Metres : 0 Depth
Depth. : 1 Depth
Tension. : 2 Tension
Time. : 3 Time
Speed. : 4 Speed
Voltage. : 5 Voltage
Current. : 6 Current
WET. : 7 WET
Sig. : 8 Sig
Vth. : 9 Vth
GR.CPS : 10 GR
Timebase.ms : 11 Timebase
HeadVoltage.V : 12 Head Voltage
API.API : 13 API
Conductivity.uS : 14 Conductivity
PT100.Ohms : 15 PT100
Vmon.mV : 16 Vmon
Status. : 17 Status
Temperature.C : 18 Temperature
Incline.Deg : 19 Incline
Azimuth.Deg : 20 Azimuth
RelativeBearing.Deg : 21 Relative Bearing
MagneticToolFace.Deg : 22 Magnetic Tool Face
GravityMagnitude.G : 23 Gravity Magnitude
MagnetometerMagnitude.H : 24 Magnetometer Magnitude
Temperature.C : 25 Temperature
GX. : 26 GX
GY. : 27 GY
GZ. : 28 GZ
HX. : 29 HX
HY. : 30 HY
HZ. : 31 HZ
~PARAMETER INFORMATION SECTION
~OTHER
#-------------------------------------------------
#Produced By: GeoVista Logger - Version 7.1.107.0
Verticality Sonde - 9605
Temperature and Conductivity Sonde - Inline - 8974
Natural Gamma Sonde - 9931
WLIS - 10021
#-------------------------------------------------
~ASCII LOG DATA
# ...
14.91 14.91390 0.0 74.50 5.0320 0.0960 0.1020 1.0 22.0 200.0 31.372550 500.0 197.0 31.372550 2993.250 889709.50 144.0 41.0 839738568.714250 0.0 0.0 0.0 0.0 0.0 0.0 0.0 -3.27680 -3.27680 -3.27680 -3.27680 -3.27680 -3.27680
14.90 14.906020 0.0 74.60 5.050 0.0960 0.1020 1.0 22.0 200.0 30.029410 500.0 197.0 30.029410 2990.0 889710.0 144.0 41.0 839739511.376430 0.0 0.0 0.0 0.0 0.0 0.0 0.0 -3.27680 -3.27680 -3.27680 -3.27680 -3.27680 -3.27680
14.89 14.897360 0.0 74.70 5.0320 0.0960 0.1020 1.0 22.0 200.0 28.686270 500.0 197.0 28.686270 2987.250 889709.50 144.0 41.0 839738568.714250 0.0 0.0 0.0 0.0 0.0 0.0 0.0 -3.27680 -3.27680 -3.27680 -3.27680 -3.27680 -3.27680
14.88 14.885150 0.0 74.850 5.0140 0.0960 0.1020 1.0 21.80 200.0 27.343140 500.0 197.0 27.343140 2984.50 889709.0 144.0 41.0 839737626.052070 0.0 0.0 0.0 0.0 0.0 0.0 0.0 -3.27680 -3.27680 -3.27680 -3.27680 -3.27680 -3.27680
14.87 14.872160 0.0 75.0 4.9960 0.0960 0.1020 1.0 21.60 200.0 26.0 500.0 197.0 26.0 2981.750 889708.50 144.0 41.0 839736683.389890 0.0 0.0 0.0 0.0 0.0 0.0 0.0 -3.27680 -3.27680 -3.27680 -3.27680 -3.27680 -3.27680
14.86 14.864280 0.0 75.10 4.9780 0.0960 0.1020 1.0 21.40 200.0 26.50 500.0 197.0 26.50 2979.0 889708.0 144.0 41.0 839735740.727710 0.0 0.0 0.0 0.0 0.0 0.0 0.0 -3.27680 -3.27680 -3.27680 -3.27680 -3.27680 -3.27680
14.85 14.85640 0.0 75.20 4.960 0.0960 0.1020 1.0 21.20 200.0 27.0 500.0 197.0 27.0 2973.750 889709.0 144.0 41.0 839737626.055250 0.0 0.0 0.0 0.0 0.0 0.0 0.0 -3.27680 -3.27680 -3.27680 -3.27680 -3.27680 -3.27680
14.84 14.847740 0.0 75.30 4.9680 0.0960 0.1020 1.0 21.0 200.0 27.50 500.0 197.0 27.50 2968.50 889710.0 144.0 41.0 839739511.382780 0.0 0.0 0.0 0.0 0.0 0.0 0.0 -3.27680 -3.27680 -3.27680 -3.27680 -3.27680 -3.27680
14.83 14.835140 0.0 75.450 4.9760 0.0960 0.1020 1.0 21.0 200.0 28.0 500.0 197.0 28.0 2963.250 889711.0 144.0 41.0 839741396.710320 0.0 0.0 0.0 0.0 0.0 0.0 0.0 -3.27680 -3.27680 -3.27680 -3.27680 -3.27680 -3.27680
14.82 14.822540 0.0 75.60 4.9840 0.0960 0.1020 1.0 21.0 200.0 25.0 500.0 197.0 25.0 2958.0 889712.0 144.0 41.0 839743282.037860 0.0 0.0 0.0 0.0 0.0 0.0 0.0 -3.27680 -3.27680 -3.27680 -3.27680 -3.27680 -3.27680
14.81 14.814660 0.0 75.70 4.9920 0.0960 0.1020 1.0 21.0 200.0 22.0 500.0 197.0 22.0 2951.750 889713.0 144.0 41.0 839745167.36540 0.0 0.0 0.0 0.0 0.0 0.0 0.0 -3.27680 -3.27680 -3.27680 -3.27680 -3.27680 -3.27680
14.80 14.806790 0.0 75.80 5.0 0.0960 0.1020 1.0 21.0 200.0 19.0 500.0 197.0 19.0 2945.50 889712.50 144.250 41.0 839744224.700040 0.0 0.0 0.0 0.0 0.0 0.0 0.0 -3.27680 -3.27680 -3.27680 -3.27680 -3.27680 -3.27680
14.79 14.798120 0.0 75.90 4.9920 0.0960 0.1020 1.0 21.250 200.0 16.0 500.0 197.0 16.0 2939.250 889712.0 144.50 41.0 839743282.034690 0.0 0.0 0.0 0.0 0.0 0.0 0.0 -3.27680 -3.27680 -3.27680 -3.27680 -3.27680 -3.27680
14.78 14.785130 0.0 76.050 4.9840 0.0960 0.1020 1.0 21.50 200.0 15.50 500.0 197.0 15.50 2933.0 889711.50 144.750 41.0 839742339.369330 0.0 0.0 0.0 0.0 0.0 0.0 0.0 -3.27680 -3.27680 -3.27680 -3.27680 -3.27680 -3.27680
14.77 14.772920 0.0 76.20 4.9760 0.0960 0.1020 1.0 21.750 200.0 15.0 500.0 197.0 15.0 2931.250 889711.0 145.0 41.0 839741396.703970 0.0 0.0 0.0 0.0 0.0 0.0 0.0 -3.27680 -3.27680 -3.27680 -3.27680 -3.27680 -3.27680
14.76 14.764260 0.0 76.30 4.9680 0.0960 0.1020 1.0 22.0 200.0 14.50 500.0 197.0 14.50 2929.50 889711.50 145.0 41.0 839742339.369330 0.0 0.0 0.0 0.0 0.0 0.0 0.0 -3.27680 -3.27680 -3.27680 -3.27680 -3.27680 -3.27680
14.75 14.756380 0.0 76.40 4.960 0.0960 0.1020 1.0 21.750 200.0 14.0 500.0 197.0 14.0 2927.750 889712.0 145.0 41.0 839743282.034690 0.0 0.0 0.0 0.0 0.0 0.0 0.0 -3.27680 -3.27680 -3.27680 -3.27680 -3.27680 -3.27680
14.74 14.747720 0.0 76.50 4.9680 0.0960 0.1020 1.0 21.50 200.0 15.60 500.0 197.0 15.60 2926.0 889712.50 145.0 41.0 839744224.700040 0.0 0.0 0.0 0.0 0.0 0.0 0.0 -3.27680 -3.27680 -3.27680 -3.27680 -3.27680 -3.27680
14.73 14.735110 0.0 76.650 4.9760 0.0960 0.1020 1.0 21.250 200.0 17.20 500.0 197.0 17.20 2922.20 889713.0 145.0 41.0 839745167.36540 0.0 0.0 0.0 0.0 0.0 0.0 0.0 -3.27680 -3.27680 -3.27680 -3.27680 -3.27680 -3.27680
14.72 14.72330 0.0 76.80 4.9840 0.0960 0.1020 1.0 21.0 200.0 18.80 500.0 197.0 18.80 2918.40 889713.250 145.0 41.0 839745638.698870 0.0 0.0 0.0 0.0 0.0 0.0 0.0 -3.27680 -3.27680 -3.27680 -3.27680 -3.27680 -3.27680
14.71 14.714640 0.0 76.90 4.9920 0.0960 0.1020 1.0 21.250 200.0 20.40 500.0 197.0 20.40 2914.60 889713.50 145.0 41.0 839746110.032340 0.0 0.0 0.0 0.0 0.0 0.0 0.0 -3.27680 -3.27680 -3.27680 -3.27680 -3.27680 -3.27680
14.70 14.705970 0.0 77.0 5.0 0.0960 0.1020 1.0 21.50 200.0 22.0 500.0 197.0 22.0 2910.80 889713.750 145.0 41.0 839746581.365810 0.0 0.0 0.0 0.0 0.0 0.0 0.0 -3.27680 -3.27680 -3.27680 -3.27680 -3.27680 -3.27680
14.69 14.697310 0.0 77.10 4.9920 0.0960 0.1020 1.0 21.750 200.0 19.0 500.0 197.0 19.0 2907.0 889714.0 145.0 41.0 839747052.699290 0.0 0.0 0.0 0.0 0.0 0.0 0.0 -3.27680 -3.27680 -3.27680 -3.27680 -3.27680 -3.27680
14.68 14.68550 0.0 77.250 4.9840 0.0960 0.1020 1.0 22.0 200.0 16.0 500.0 197.0 16.0 2908.750 889714.50 145.0 41.0 839747995.367820 0.0 0.0 0.0 0.0 0.0 0.0 0.0 -3.27680 -3.27680 -3.27680 -3.27680 -3.27680 -3.27680
14.67 14.672890 0.0 77.40 4.9760 0.0960 0.1020 1.0 22.0 200.0 13.0 500.0 197.0 13.0 2910.50 889715.0 145.0 41.0 839748938.036350 0.0 0.0 0.0 0.0 0.0 0.0 0.0 -3.27680 -3.27680 -3.27680 -3.27680 -3.27680 -3.27680
14.66 14.664230 0.0 77.50 4.9680 0.0960 0.1020 1.0 22.0 200.0 10.0 500.0 197.0 10.0 2912.250 889715.50 145.0 41.0 839749880.704880 0.0 0.0 0.0 0.0 0.0 0.0 0.0 -3.27680 -3.27680 -3.27680 -3.27680 -3.27680 -3.27680
14.65 14.656360 0.0 77.60 4.960 0.0960 0.1020 1.0 22.0 200.0 11.50 500.0 197.0 11.50 2914.0 889716.0 145.0 41.0 839750823.373410 0.0 0.0 0.0 0.0 0.0 0.0 0.0 -3.27680 -3.27680 -3.27680 -3.27680 -3.27680 -3.27680
14.64 14.647690 0.0 77.70 4.960 0.0960 0.1040 1.0 22.0 200.0 13.0 500.0 197.0 13.0 2899.50 889716.0 145.0 41.0 839750823.373410 0.0 0.0 0.0 0.0 0.0 0.0 0.0 -3.27680 -3.27680 -3.27680 -3.27680 -3.27680 -3.27680
14.63 14.635480 0.0 77.850 4.960 0.0960 0.1020 1.0 22.250 200.0 14.50 500.0 197.0 14.50 2885.0 889716.0 145.0 41.0 839750823.373410 0.0 0.0 0.0 0.0 0.0 0.0 0.0 -3.27680 -3.27680 -3.27680 -3.27680 -3.27680 -3.27680
14.62 14.622490 0.0 78.0 4.960 0.0960 0.1020 1.0 22.50 200.0 16.0 500.0 197.0 16.0 2870.50 889716.0 145.0 41.0 839750823.373410 0.0 0.0 0.0 0.0 0.0 0.0 0.0 -3.27680 -3.27680 -3.27680 -3.27680 -3.27680 -3.27680
14.61 14.614610 0.0 78.10 4.960 0.0960 0.1020 1.0 22.750 200.0 19.0 500.0 197.0 19.0 2856.0 889716.0 145.0 41.0 839750823.373410 0.0 0.0 0.0 0.0 0.0 0.0 0.0 -3.27680 -3.27680 -3.27680 -3.27680 -3.27680 -3.27680
14.60 14.606740 0.0 78.20 4.960 0.0960 0.1020 1.0 23.0 200.0 22.0 500.0 197.0 22.0 2861.0 889716.80 145.0 41.0 839752331.648140 0.0 0.0 0.0 0.0 0.0 0.0 0.0 -3.27680 -3.27680 -3.27680 -3.27680 -3.27680 -3.27680
14.59 14.594140 0.0 78.350 4.9680 0.0960 0.1020 1.0 23.20 200.0 25.0 502.50 197.0 25.0 2866.0 889717.60 145.0 41.0 839753839.922870 0.0 0.0 0.0 0.0 0.0 0.0 0.0 -3.27680 -3.27680 -3.27680 -3.27680 -3.27680 -3.27680
14.58 14.581530 0.0 78.50 4.9760 0.0960 0.1020 1.0 23.40 200.0 28.0 505.0 197.0 28.0 2871.0 889718.40 145.0 41.0 839755348.19760 0.0 0.0 0.0 0.0 0.0 0.0 0.0 -3.27680 -3.27680 -3.27680 -3.27680 -3.27680 -3.27680
14.57 14.572870 0.0 78.60 4.9840 0.0960 0.1020 1.0 23.60 200.0 26.0 507.50 197.0 26.0 2876.0 889719.20 145.0 41.0 839756856.472330 0.0 0.0 0.0 0.0 0.0 0.0 0.0 -3.27680 -3.27680 -3.27680 -3.27680 -3.27680 -3.27680
14.56 14.564990 0.0 78.70 4.9920 0.0960 0.1020 1.0 23.80 200.0 24.0 510.0 197.0 24.0 2872.50 889720.0 145.0 41.0 839758364.747050 0.0 0.0 0.0 0.0 0.0 0.0 0.0 -3.27680 -3.27680 -3.27680 -3.27680 -3.27680 -3.27680
14.55 14.557120 0.0 78.80 5.0 0.0960 0.1040 1.0 24.0 200.0 22.0 508.0 197.0 22.0 2869.0 889720.750 145.0 41.0 839759778.760170 0.0 0.0 0.0 0.0 0.0 0.0 0.0 -3.27680 -3.27680 -3.27680 -3.27680 -3.27680 -3.27680
14.54 14.548450 0.0 78.90 4.9920 0.0960 0.1020 1.0 23.750 200.0 20.0 506.0 197.0 20.0 2865.50 889721.50 145.0 41.0 839761192.773280 0.0 0.0 0.0 0.0 0.0 0.0 0.0 -3.27680 -3.27680 -3.27680 -3.27680 -3.27680 -3.27680
