~VERSION INFORMATION SECTION
VERS. 2.0 : CWLS LAS-VERSION 2.0
WRAP. NO : One line per depth step
~WELL INFORMATION SECTION
# MNEM.UNIT VALUE/NAME DESCRIPTION
#-------- -------------- ---------------------
STRT.Metres 26 : Start
STOP.Metres -2.05 : Stop
STEP.Metres -0.01 : Step
NULL.  -999.25 :NULL VALUE
DATE. 2026-48-09 : DATE
~CURVE INFORMATION SECTION
DEPTH.Metres : 0 Depth
Depth. : 1 Depth
Tension. : 2 Tension
Time. : 3 Time
Speed. : 4 Speed
Voltage. : 5 Voltage
Current. : 6 Current
WET. : 7 WET
Sig. : 8 Sig
Vth. : 9 Vth
GR.CPS : 10 GR
Timebase.ms : 11 Timebase
HeadVoltage.V : 12 Head Voltage
API.API : 13 API
Conductivity.uS : 14 Conductivity
PT100.Ohms : 15 PT100
Vmon.mV : 16 Vmon
Status. : 17 Status
Temperature.C : 18 Temperature
Incline.Deg : 19 Incline
Azimuth.Deg : 20 Azimuth
RelativeBearing.Deg : 21 Relative Bearing
MagneticToolFace.Deg : 22 Magnetic Tool Face
GravityMagnitude.G : 23 Gravity Magnitude
MagnetometerMagnitude.H : 24 Magnetometer Magnitude
Temperature.C : 25 Temperature
GX. : 26 GX
GY. : 27 GY
GZ. : 28 GZ
HX. : 29 HX
HY. : 30 HY
HZ. : 31 HZ
~PARAMETER INFORMATION SECTION
~OTHER
#-------------------------------------------------
#Produced By: GeoVista Logger - Version 7.1.107.0
Verticality Sonde - 9605
Temperature and Conductivity Sonde - Inline - 8974
Natural Gamma Sonde - 9931
WLIS - 10021
#-------------------------------------------------
~ASCII LOG DATA
# ...
4.23 4.250910 0.0 97.833330 14.932670 0.0960 0.1020 1.0 42.666670 200.0 14.615380 146.153850 197.0 14.615380 1761.333330 890665.384620 152.923080 41.0 841541689.173040 0.0 0.0 0.0 0.0 0.0 0.0 0.0 -3.27680 -3.27680 -3.27680 -3.27680 -3.27680 -3.27680
4.22 4.242510 0.0 97.866670 14.935330 0.0960 0.1020 1.0 42.750 200.0 14.230770 123.076920 197.0 14.230770 1761.0 890665.461540 152.846150 41.0 841541834.35370 0.0 0.0 0.0 0.0 0.0 0.0 0.0 -3.27680 -3.27680 -3.27680 -3.27680 -3.27680 -3.27680
4.21 4.234110 0.0 97.90 14.9380 0.0960 0.1020 1.0 42.833330 200.0 13.846150 100.0 197.0 13.846150 1760.666670 890665.538460 152.769230 41.0 841541979.534370 0.0 0.0 0.0 0.0 0.0 0.0 0.0 -3.27680 -3.27680 -3.27680 -3.27680 -3.27680 -3.27680
4.20 4.22190 0.0 97.950 14.940670 0.0960 0.1020 1.0 42.916670 200.0 13.461540 130.769230 197.0 13.461540 1760.333330 890665.615380 152.692310 41.0 841542124.715040 0.0 0.0 0.0 0.0 0.0 0.0 0.0 -3.27680 -3.27680 -3.27680 -3.27680 -3.27680 -3.27680
4.19 4.20970 0.0 98.0 14.943330 0.0960 0.1020 1.0 43.0 200.0 13.076920 161.538460 197.0 13.076920 1760.0 890665.692310 152.615380 41.0 841542269.895710 0.0 0.0 0.0 0.0 0.0 0.0 0.0 -3.27680 -3.27680 -3.27680 -3.27680 -3.27680 -3.27680
4.18 4.201290 0.0 98.033330 14.9460 0.0960 0.1020 1.0 42.923080 200.0 12.692310 192.307690 197.0 12.692310 1759.666670 890665.769230 152.538460 41.0 841542415.076380 0.0 0.0 0.0 0.0 0.0 0.0 0.0 -3.27680 -3.27680 -3.27680 -3.27680 -3.27680 -3.27680
4.17 4.192890 0.0 98.066670 14.948670 0.0960 0.1020 1.0 42.846150 200.0 12.307690 223.076920 197.0 12.307690 1759.333330 890665.846150 152.461540 41.0 841542560.257050 0.0 0.0 0.0 0.0 0.0 0.0 0.0 -3.27680 -3.27680 -3.27680 -3.27680 -3.27680 -3.27680
4.16 4.184490 0.0 98.10 14.951330 0.0960 0.1020 1.0 42.769230 200.0 11.923080 253.846150 197.0 11.923080 1759.0 890665.923080 152.384620 41.0 841542705.437720 0.0 0.0 0.0 0.0 0.0 0.0 0.0 -3.27680 -3.27680 -3.27680 -3.27680 -3.27680 -3.27680
4.15 4.171890 0.0 98.150 14.9540 0.0960 0.1020 1.0 42.692310 200.0 11.538460 284.615380 197.0 11.538460 1758.666670 890666.0 152.307690 41.0 841542850.618390 0.0 0.0 0.0 0.0 0.0 0.0 0.0 -3.27680 -3.27680 -3.27680 -3.27680 -3.27680 -3.27680
4.14 4.159290 0.0 98.20 14.956670 0.0960 0.1020 1.0 42.615380 200.0 11.153850 315.384620 197.0 11.153850 1758.333330 890666.583330 152.230770 41.0 841543951.576740 0.0 0.0 0.0 0.0 0.0 0.0 0.0 -3.27680 -3.27680 -3.27680 -3.27680 -3.27680 -3.27680
4.13 4.150890 0.0 98.233330 14.959330 0.0960 0.1020 1.0 42.538460 200.0 10.769230 346.153850 197.0 10.769230 1758.0 890667.166670 152.153850 41.0 841545052.535080 0.0 0.0 0.0 0.0 0.0 0.0 0.0 -3.27680 -3.27680 -3.27680 -3.27680 -3.27680 -3.27680
4.12 4.142490 0.0 98.266670 14.9620 0.0960 0.1020 1.0 42.461540 200.0 10.384620 376.923080 197.0 10.384620 1757.666670 890667.750 152.076920 41.0 841546153.493430 0.0 0.0 0.0 0.0 0.0 0.0 0.0 -3.27680 -3.27680 -3.27680 -3.27680 -3.27680 -3.27680
4.11 4.134090 0.0 98.30 14.964670 0.0960 0.1020 1.0 42.384620 200.0 10.0 407.692310 197.0 10.0 1757.333330 890668.333330 152.0 41.0 841547254.451780 0.0 0.0 0.0 0.0 0.0 0.0 0.0 -3.27680 -3.27680 -3.27680 -3.27680 -3.27680 -3.27680
4.10 4.121480 0.0 98.350 14.967330 0.0960 0.1010 1.0 42.307690 200.0 11.384620 438.461540 197.0 11.384620 1757.0 890668.916670 152.0 41.0 841548355.410120 0.0 0.0 0.0 0.0 0.0 0.0 0.0 -3.27680 -3.27680 -3.27680 -3.27680 -3.27680 -3.27680
4.09 4.108880 0.0 98.40 14.970 0.0960 0.10 1.0 42.230770 200.0 12.769230 469.230770 197.0 12.769230 1756.666670 890669.50 152.0 41.0 841549456.368470 0.0 0.0 0.0 0.0 0.0 0.0 0.0 -3.27680 -3.27680 -3.27680 -3.27680 -3.27680 -3.27680
4.08 4.100740 0.0 98.433330 14.976670 0.0960 0.100670 1.0 42.153850 200.0 14.153850 500.0 197.0 14.153850 1756.333330 890670.083330 152.0 41.0 841550557.326820 0.0 0.0 0.0 0.0 0.0 0.0 0.0 -3.27680 -3.27680 -3.27680 -3.27680 -3.27680 -3.27680
4.07 4.092610 0.0 98.466670 14.983330 0.0960 0.101330 1.0 42.076920 200.0 15.538460 500.0 197.0 15.538460 1756.0 890670.666670 152.0 41.0 841551658.285160 0.0 0.0 0.0 0.0 0.0 0.0 0.0 -3.27680 -3.27680 -3.27680 -3.27680 -3.27680 -3.27680
4.06 4.084470 0.0 98.50 14.990 0.0960 0.1020 1.0 42.0 200.0 16.923080 500.0 197.0 16.923080 1755.666670 890671.250 152.0 41.0 841552759.243510 0.0 0.0 0.0 0.0 0.0 0.0 0.0 -3.27680 -3.27680 -3.27680 -3.27680 -3.27680 -3.27680
4.05 4.071870 0.0 98.550 14.996670 0.0960 0.1020 1.0 42.0 200.0 18.307690 500.0 197.0 18.307690 1755.333330 890671.833330 152.0 41.0 841553860.201860 0.0 0.0 0.0 0.0 0.0 0.0 0.0 -3.27680 -3.27680 -3.27680 -3.27680 -3.27680 -3.27680
4.04 4.059260 0.0 98.60 15.003330 0.0960 0.1020 1.0 42.0 200.0 19.692310 500.0 197.0 19.692310 1755.0 890672.416670 152.0 41.0 841554961.16020 0.0 0.0 0.0 0.0 0.0 0.0 0.0 -3.27680 -3.27680 -3.27680 -3.27680 -3.27680 -3.27680
4.03 4.050860 0.0 98.633330 15.010 0.0960 0.1020 1.0 42.0 200.0 21.076920 500.0 197.0 21.076920 1754.461540 890673.0 152.0 41.0 841556062.118550 0.0 0.0 0.0 0.0 0.0 0.0 0.0 -3.27680 -3.27680 -3.27680 -3.27680 -3.27680 -3.27680
4.02 4.042460 0.0 98.666670 15.016670 0.0960 0.1020 1.0 42.0 200.0 22.461540 500.0 197.0 22.461540 1753.923080 890673.083330 152.0 41.0 841556219.399020 0.0 0.0 0.0 0.0 0.0 0.0 0.0 -3.27680 -3.27680 -3.27680 -3.27680 -3.27680 -3.27680
4.01 4.034060 0.0 98.70 15.023330 0.0960 0.1020 1.0 42.0 200.0 23.846150 500.0 197.0 23.846150 1753.384620 890673.166670 152.0 41.0 841556376.679490 0.0 0.0 0.0 0.0 0.0 0.0 0.0 -3.27680 -3.27680 -3.27680 -3.27680 -3.27680 -3.27680
4.00 4.021460 0.0 98.750 15.030 0.0960 0.1010 1.0 42.0 200.0 25.230770 500.0 197.0 25.230770 1752.846150 890673.250 152.0 41.0 841556533.959960 0.0 0.0 0.0 0.0 0.0 0.0 0.0 -3.27680 -3.27680 -3.27680 -3.27680 -3.27680 -3.27680
3.99 4.008860 0.0 98.80 15.036670 0.0960 0.10 1.0 42.0 200.0 26.615380 500.0 197.0 26.615380 1752.307690 890673.333330 152.0 41.0 841556691.240430 0.0 0.0 0.0 0.0 0.0 0.0 0.0 -3.27680 -3.27680 -3.27680 -3.27680 -3.27680 -3.27680
3.98 4.000460 0.0 98.833330 15.043330 0.0960 0.100670 1.0 42.0 200.0 28.0 500.0 197.0 28.0 1751.769230 890673.416670 152.0 41.0 841556848.52090 0.0 0.0 0.0 0.0 0.0 0.0 0.0 -3.27680 -3.27680 -3.27680 -3.27680 -3.27680 -3.27680
3.97 3.992060 0.0 98.866670 15.050 0.0960 0.101330 1.0 42.0 200.0 26.50 500.0 197.0 26.50 1751.230770 890673.50 152.0 41.0 841557005.801370 0.0 0.0 0.0 0.0 0.0 0.0 0.0 -3.27680 -3.27680 -3.27680 -3.27680 -3.27680 -3.27680
3.96 3.983660 0.0 98.90 15.056670 0.0960 0.1020 1.0 42.0 200.0 25.0 500.0 197.0 25.0 1750.692310 890673.583330 152.0 41.0 841557163.081830 0.0 0.0 0.0 0.0 0.0 0.0 0.0 -3.27680 -3.27680 -3.27680 -3.27680 -3.27680 -3.27680
3.95 3.971050 0.0 98.950 15.063330 0.0960 0.1020 1.0 42.0 200.0 23.50 500.0 197.0 23.50 1750.153850 890673.666670 152.0 41.0 841557320.36230 0.0 0.0 0.0 0.0 0.0 0.0 0.0 -3.27680 -3.27680 -3.27680 -3.27680 -3.27680 -3.27680
3.94 3.958450 0.0 99.0 15.070 0.0960 0.1020 1.0 42.0 200.0 22.0 500.0 197.0 22.0 1749.615380 890673.750 152.0 41.0 841557477.642770 0.0 0.0 0.0 0.0 0.0 0.0 0.0 -3.27680 -3.27680 -3.27680 -3.27680 -3.27680 -3.27680
3.93 3.950310 0.0 99.033330 15.063330 0.0960 0.1020 1.0 42.0 200.0 20.50 500.0 197.0 20.50 1749.076920 890673.833330 152.0 41.0 841557634.923240 0.0 0.0 0.0 0.0 0.0 0.0 0.0 -3.27680 -3.27680 -3.27680 -3.27680 -3.27680 -3.27680
3.92 3.942180 0.0 99.066670 15.056670 0.0960 0.1020 1.0 42.0 200.0 19.0 500.0 197.0 19.0 1748.538460 890673.916670 152.0 41.0 841557792.203710 0.0 0.0 0.0 0.0 0.0 0.0 0.0 -3.27680 -3.27680 -3.27680 -3.27680 -3.27680 -3.27680
3.91 3.934040 0.0 99.10 15.050 0.0960 0.1020 1.0 42.0 200.0 17.50 500.0 197.0 17.50 1748.0 890674.0 152.0 41.0 841557949.484180 0.0 0.0 0.0 0.0 0.0 0.0 0.0 -3.27680 -3.27680 -3.27680 -3.27680 -3.27680 -3.27680
3.90 3.921440 0.0 99.150 15.043330 0.0960 0.1020 1.0 42.0 200.0 16.0 500.0 197.0 16.0 1748.384620 890674.307690 152.0 41.0 841558530.21370 0.0 0.0 0.0 0.0 0.0 0.0 0.0 -3.27680 -3.27680 -3.27680 -3.27680 -3.27680 -3.27680
3.89 3.908830 0.0 99.20 15.036670 0.0960 0.1020 1.0 42.0 200.0 14.50 500.0 197.0 14.50 1748.769230 890674.615380 152.0 41.0 841559110.943210 0.0 0.0 0.0 0.0 0.0 0.0 0.0 -3.27680 -3.27680 -3.27680 -3.27680 -3.27680 -3.27680
