~VERSION INFORMATION SECTION
VERS. 2.0 : CWLS LAS-VERSION 2.0
WRAP. NO : One line per depth step
~WELL INFORMATION SECTION
# MNEM.UNIT VALUE/NAME DESCRIPTION
#-------- -------------- ---------------------
STRT.Metres 26 : Start
STOP.Metres -2.05 : Stop
STEP.Metres -0.01 : Step
NULL.  -999.25 :NULL VALUE
DATE. 2026-40-09 : DATE
~CURVE INFORMATION SECTION
DEPTH.Metres : 0 Depth
Depth. : 1 Depth
Tension. : 2 Tension
Time. : 3 Time
Speed. : 4 Speed
Voltage. : 5 Voltage
Current. : 6 Current
WET. : 7 WET
Sig. : 8 Sig
Vth. : 9 Vth
GR.CPS : 10 GR
Timebase.ms : 11 Timebase
HeadVoltage.V : 12 Head Voltage
API.API : 13 API
Conductivity.uS : 14 Conductivity
PT100.Ohms : 15 PT100
Vmon.mV : 16 Vmon
Status. : 17 Status
Temperature.C : 18 Temperature
Incline.Deg : 19 Incline
Azimuth.Deg : 20 Azimuth
RelativeBearing.Deg : 21 Relative Bearing
MagneticToolFace.Deg : 22 Magnetic Tool Face
GravityMagnitude.G : 23 Gravity Magnitude
MagnetometerMagnitude.H : 24 Magnetometer Magnitude
Temperature.C : 25 Temperature
GX. : 26 GX
GY. : 27 GY
GZ. : 28 GZ
HX. : 29 HX
HY. : 30 HY
HZ. : 31 HZ
~PARAMETER INFORMATION SECTION
~OTHER
#-------------------------------------------------
#Produced By: GeoVista Logger - Version 7.1.107.0
Verticality Sonde - 9605
Temperature and Conductivity Sonde - Inline - 8974
Natural Gamma Sonde - 9931
WLIS - 10021
#-------------------------------------------------
~ASCII LOG DATA
# ...
16.35 16.370950 0.0 71.40 15.050 0.0960 0.1020 1.0 14.0 200.0 26.307690 501.666670 197.0 26.307690 3802.076920 889364.250 151.0 42.0 839087786.270450 0.0 0.0 0.0 0.0 0.0 0.0 0.0 -3.27680 -3.27680 -3.27680 -3.27680 -3.27680 -3.27680
16.34 16.358350 0.0 71.450 15.043330 0.0960 0.1020 1.0 14.083330 200.0 24.769230 502.50 197.0 24.769230 3792.384620 889365.166670 151.0 42.0 839089513.810290 0.0 0.0 0.0 0.0 0.0 0.0 0.0 -3.27680 -3.27680 -3.27680 -3.27680 -3.27680 -3.27680
16.33 16.345750 0.0 71.50 15.036670 0.0960 0.1020 1.0 14.166670 200.0 23.230770 503.333330 197.0 23.230770 3782.692310 889366.083330 151.0 42.0 839091241.350130 0.0 0.0 0.0 0.0 0.0 0.0 0.0 -3.27680 -3.27680 -3.27680 -3.27680 -3.27680 -3.27680
16.32 16.337350 0.0 71.533330 15.030 0.0960 0.1020 1.0 14.250 200.0 21.692310 504.166670 197.0 21.692310 3773.0 889367.0 151.0 42.0 839092968.889970 0.0 0.0 0.0 0.0 0.0 0.0 0.0 -3.27680 -3.27680 -3.27680 -3.27680 -3.27680 -3.27680
16.31 16.328940 0.0 71.566670 15.023330 0.0960 0.1020 1.0 14.333330 200.0 20.153850 505.0 197.0 20.153850 3766.166670 889367.923080 151.0 42.0 839094708.532970 0.0 0.0 0.0 0.0 0.0 0.0 0.0 -3.27680 -3.27680 -3.27680 -3.27680 -3.27680 -3.27680
16.30 16.320540 0.0 71.60 15.016670 0.0960 0.1020 1.0 14.416670 200.0 18.615380 505.833330 197.0 18.615380 3759.333330 889368.846150 151.0 42.0 839096448.175970 0.0 0.0 0.0 0.0 0.0 0.0 0.0 -3.27680 -3.27680 -3.27680 -3.27680 -3.27680 -3.27680
16.29 16.308340 0.0 71.650 15.010 0.0960 0.1020 1.0 14.50 200.0 17.076920 506.666670 197.0 17.076920 3752.50 889369.769230 151.0 42.0 839098187.818970 0.0 0.0 0.0 0.0 0.0 0.0 0.0 -3.27680 -3.27680 -3.27680 -3.27680 -3.27680 -3.27680
16.28 16.296130 0.0 71.70 15.003330 0.0960 0.1020 1.0 14.583330 200.0 15.538460 507.50 197.0 15.538460 3745.666670 889370.692310 151.0 42.0 839099927.461980 0.0 0.0 0.0 0.0 0.0 0.0 0.0 -3.27680 -3.27680 -3.27680 -3.27680 -3.27680 -3.27680
16.27 16.287990 0.0 71.733330 14.996670 0.0960 0.1020 1.0 14.666670 200.0 14.0 508.333330 197.0 14.0 3738.833330 889371.615380 151.0 42.0 839101667.104980 0.0 0.0 0.0 0.0 0.0 0.0 0.0 -3.27680 -3.27680 -3.27680 -3.27680 -3.27680 -3.27680
16.26 16.279850 0.0 71.766670 14.990 0.0960 0.1020 1.0 14.750 200.0 13.813730 509.166670 197.0 13.813730 3732.0 889372.538460 151.0 42.0 839103406.747980 0.0 0.0 0.0 0.0 0.0 0.0 0.0 -3.27680 -3.27680 -3.27680 -3.27680 -3.27680 -3.27680
16.25 16.271710 0.0 71.80 14.983330 0.0960 0.1020 1.0 14.833330 200.0 13.627450 510.0 197.0 13.627450 3725.166670 889373.461540 151.0 42.0 839105146.390990 0.0 0.0 0.0 0.0 0.0 0.0 0.0 -3.27680 -3.27680 -3.27680 -3.27680 -3.27680 -3.27680
16.24 16.259110 0.0 71.850 14.976670 0.0960 0.1020 1.0 14.916670 200.0 13.441180 509.230770 197.0 13.441180 3718.333330 889374.384620 151.0 42.0 839106886.033990 0.0 0.0 0.0 0.0 0.0 0.0 0.0 -3.27680 -3.27680 -3.27680 -3.27680 -3.27680 -3.27680
16.23 16.246510 0.0 71.90 14.970 0.0960 0.1020 1.0 15.0 200.0 13.25490 508.461540 197.0 13.25490 3711.50 889375.307690 151.0 42.0 839108625.676990 0.0 0.0 0.0 0.0 0.0 0.0 0.0 -3.27680 -3.27680 -3.27680 -3.27680 -3.27680 -3.27680
16.22 16.237850 0.0 71.933330 14.970 0.0960 0.1020 1.0 15.153850 200.0 13.068630 507.692310 197.0 13.068630 3704.666670 889376.230770 151.0 42.0 839110365.320 0.0 0.0 0.0 0.0 0.0 0.0 0.0 -3.27680 -3.27680 -3.27680 -3.27680 -3.27680 -3.27680
16.21 16.229180 0.0 71.966670 14.970 0.0960 0.1020 1.0 15.307690 200.0 12.882350 506.923080 197.0 12.882350 3697.833330 889377.153850 151.0 42.0 839112104.9630 0.0 0.0 0.0 0.0 0.0 0.0 0.0 -3.27680 -3.27680 -3.27680 -3.27680 -3.27680 -3.27680
16.20 16.220520 0.0 72.0 14.970 0.0960 0.1020 1.0 15.461540 200.0 12.696080 506.153850 197.0 12.696080 3691.0 889378.076920 151.0 42.0 839113844.6060 0.0 0.0 0.0 0.0 0.0 0.0 0.0 -3.27680 -3.27680 -3.27680 -3.27680 -3.27680 -3.27680
16.19 16.208310 0.0 72.050 14.970 0.0960 0.1030 1.0 15.615380 200.0 12.50980 505.384620 197.0 12.50980 3684.153850 889379.0 151.0 42.0 839115584.2490 0.0 0.0 0.0 0.0 0.0 0.0 0.0 -3.27680 -3.27680 -3.27680 -3.27680 -3.27680 -3.27680
16.18 16.19610 0.0 72.10 14.970 0.0960 0.1040 1.0 15.769230 200.0 12.323530 504.615380 197.0 12.323530 3677.307690 889379.50 151.0 42.0 839116526.565160 0.0 0.0 0.0 0.0 0.0 0.0 0.0 -3.27680 -3.27680 -3.27680 -3.27680 -3.27680 -3.27680
16.17 16.187970 0.0 72.133330 14.970 0.0960 0.103330 1.0 15.923080 200.0 12.137250 503.846150 197.0 12.137250 3670.461540 889380.0 151.0 42.0 839117468.881310 0.0 0.0 0.0 0.0 0.0 0.0 0.0 -3.27680 -3.27680 -3.27680 -3.27680 -3.27680 -3.27680
16.16 16.179830 0.0 72.166670 14.970 0.0960 0.102670 1.0 16.076920 200.0 11.950980 503.076920 197.0 11.950980 3663.615380 889380.50 151.0 42.0 839118411.197460 0.0 0.0 0.0 0.0 0.0 0.0 0.0 -3.27680 -3.27680 -3.27680 -3.27680 -3.27680 -3.27680
16.15 16.171690 0.0 72.20 14.970 0.0960 0.1020 1.0 16.230770 200.0 11.764710 502.307690 197.0 11.764710 3656.769230 889381.0 151.0 42.0 839119353.513610 0.0 0.0 0.0 0.0 0.0 0.0 0.0 -3.27680 -3.27680 -3.27680 -3.27680 -3.27680 -3.27680
16.14 16.159480 0.0 72.250 14.970 0.0960 0.1020 1.0 16.384620 200.0 12.398190 501.538460 197.0 12.398190 3649.923080 889381.50 151.076920 42.0 839120295.829760 0.0 0.0 0.0 0.0 0.0 0.0 0.0 -3.27680 -3.27680 -3.27680 -3.27680 -3.27680 -3.27680
16.13 16.147270 0.0 72.30 14.970 0.0960 0.1020 1.0 16.538460 200.0 13.031670 500.769230 197.0 13.031670 3643.076920 889382.0 151.153850 42.0 839121238.145910 0.0 0.0 0.0 0.0 0.0 0.0 0.0 -3.27680 -3.27680 -3.27680 -3.27680 -3.27680 -3.27680
16.12 16.138610 0.0 72.333330 14.970 0.0960 0.1020 1.0 16.692310 200.0 13.665160 500.0 197.0 13.665160 3636.230770 889382.50 151.230770 42.0 839122180.462060 0.0 0.0 0.0 0.0 0.0 0.0 0.0 -3.27680 -3.27680 -3.27680 -3.27680 -3.27680 -3.27680
16.11 16.129950 0.0 72.366670 14.970 0.0960 0.1020 1.0 16.846150 200.0 14.298640 500.0 197.0 14.298640 3629.384620 889383.0 151.307690 42.0 839123122.778210 0.0 0.0 0.0 0.0 0.0 0.0 0.0 -3.27680 -3.27680 -3.27680 -3.27680 -3.27680 -3.27680
16.10 16.121280 0.0 72.40 14.970 0.0960 0.1020 1.0 17.0 200.0 14.932130 500.0 197.0 14.932130 3622.538460 889383.50 151.384620 42.0 839124065.094360 0.0 0.0 0.0 0.0 0.0 0.0 0.0 -3.27680 -3.27680 -3.27680 -3.27680 -3.27680 -3.27680
16.09 16.108290 0.0 72.450 14.970 0.0960 0.1020 1.0 17.083330 200.0 15.565610 500.0 197.0 15.565610 3615.692310 889384.0 151.461540 42.0 839125007.410510 0.0 0.0 0.0 0.0 0.0 0.0 0.0 -3.27680 -3.27680 -3.27680 -3.27680 -3.27680 -3.27680
16.08 16.095290 0.0 72.50 14.970 0.0960 0.1020 1.0 17.166670 200.0 16.19910 500.0 197.0 16.19910 3608.846150 889384.50 151.538460 42.0 839125949.726660 0.0 0.0 0.0 0.0 0.0 0.0 0.0 -3.27680 -3.27680 -3.27680 -3.27680 -3.27680 -3.27680
16.07 16.086890 0.0 72.533330 14.980 0.0960 0.1020 1.0 17.250 200.0 16.832580 500.0 197.0 16.832580 3602.0 889385.0 151.615380 42.0 839126892.042810 0.0 0.0 0.0 0.0 0.0 0.0 0.0 -3.27680 -3.27680 -3.27680 -3.27680 -3.27680 -3.27680
16.06 16.078490 0.0 72.566670 14.990 0.0960 0.1020 1.0 17.333330 200.0 17.466060 500.0 197.0 17.466060 3594.666670 889385.769230 151.692310 42.0 839128341.772990 0.0 0.0 0.0 0.0 0.0 0.0 0.0 -3.27680 -3.27680 -3.27680 -3.27680 -3.27680 -3.27680
16.05 16.070090 0.0 72.60 15.0 0.0960 0.1020 1.0 17.416670 200.0 18.099550 500.0 197.0 18.099550 3587.333330 889386.538460 151.769230 42.0 839129791.503170 0.0 0.0 0.0 0.0 0.0 0.0 0.0 -3.27680 -3.27680 -3.27680 -3.27680 -3.27680 -3.27680
16.04 16.057490 0.0 72.650 15.010 0.0960 0.1020 1.0 17.50 200.0 18.733030 500.0 197.0 18.733030 3580.0 889387.307690 151.846150 42.0 839131241.233350 0.0 0.0 0.0 0.0 0.0 0.0 0.0 -3.27680 -3.27680 -3.27680 -3.27680 -3.27680 -3.27680
16.03 16.044890 0.0 72.70 15.020 0.0960 0.1020 1.0 17.583330 200.0 19.366520 500.0 197.0 19.366520 3572.666670 889388.076920 151.923080 42.0 839132690.963520 0.0 0.0 0.0 0.0 0.0 0.0 0.0 -3.27680 -3.27680 -3.27680 -3.27680 -3.27680 -3.27680
16.02 16.036750 0.0 72.733330 15.030 0.0960 0.102670 1.0 17.666670 200.0 20.0 500.0 197.0 20.0 3565.333330 889388.846150 152.0 42.0 839134140.69370 0.0 0.0 0.0 0.0 0.0 0.0 0.0 -3.27680 -3.27680 -3.27680 -3.27680 -3.27680 -3.27680
