~VERSION INFORMATION SECTION
VERS. 2.0 : CWLS LAS-VERSION 2.0
WRAP. NO : One line per depth step
~WELL INFORMATION SECTION
# MNEM.UNIT VALUE/NAME DESCRIPTION
#-------- -------------- ---------------------
STRT.Metres 26 : Start
STOP.Metres -2.05 : Stop
STEP.Metres -0.01 : Step
NULL.  -999.25 :NULL VALUE
DATE. 2026-48-09 : DATE
~CURVE INFORMATION SECTION
DEPTH.Metres : 0 Depth
Depth. : 1 Depth
Tension. : 2 Tension
Time. : 3 Time
Speed. : 4 Speed
Voltage. : 5 Voltage
Current. : 6 Current
WET. : 7 WET
Sig. : 8 Sig
Vth. : 9 Vth
GR.CPS : 10 GR
Timebase.ms : 11 Timebase
HeadVoltage.V : 12 Head Voltage
API.API : 13 API
Conductivity.uS : 14 Conductivity
PT100.Ohms : 15 PT100
Vmon.mV : 16 Vmon
Status. : 17 Status
Temperature.C : 18 Temperature
Incline.Deg : 19 Incline
Azimuth.Deg : 20 Azimuth
RelativeBearing.Deg : 21 Relative Bearing
MagneticToolFace.Deg : 22 Magnetic Tool Face
GravityMagnitude.G : 23 Gravity Magnitude
MagnetometerMagnitude.H : 24 Magnetometer Magnitude
Temperature.C : 25 Temperature
GX. : 26 GX
GY. : 27 GY
GZ. : 28 GZ
HX. : 29 HX
HY. : 30 HY
HZ. : 31 HZ
~PARAMETER INFORMATION SECTION
~OTHER
#-------------------------------------------------
#Produced By: GeoVista Logger - Version 7.1.107.0
Verticality Sonde - 9605
Temperature and Conductivity Sonde - Inline - 8974
Natural Gamma Sonde - 9931
WLIS - 10021
#-------------------------------------------------
~ASCII LOG DATA
# ...
18.04 18.05640 0.0 42.60 14.970 0.0960 0.1020 1.0 5.0 200.0 27.0 500.0 197.0 27.0 6149.153850 889252.50 144.750 41.0 838877196.002620 0.0 0.0 0.0 0.0 0.0 0.0 0.0 -3.27680 -3.27680 -3.27680 -3.27680 -3.27680 -3.27680
18.03 18.048260 0.0 42.633330 14.980 0.0960 0.1020 1.0 5.0 200.0 28.0 500.0 197.0 28.0 6129.230770 889253.0 144.833330 41.0 838878138.184380 0.0 0.0 0.0 0.0 0.0 0.0 0.0 -3.27680 -3.27680 -3.27680 -3.27680 -3.27680 -3.27680
18.02 18.040130 0.0 42.666670 14.990 0.0960 0.1020 1.0 5.0 200.0 29.0 500.0 197.0 29.0 6109.307690 889253.50 144.916670 41.0 838879080.366140 0.0 0.0 0.0 0.0 0.0 0.0 0.0 -3.27680 -3.27680 -3.27680 -3.27680 -3.27680 -3.27680
18.01 18.031990 0.0 42.70 15.0 0.0960 0.1020 1.0 5.0 200.0 30.0 500.0 197.0 30.0 6089.384620 889254.0 145.0 41.0 838880022.54790 0.0 0.0 0.0 0.0 0.0 0.0 0.0 -3.27680 -3.27680 -3.27680 -3.27680 -3.27680 -3.27680
18.00 18.019780 0.0 42.750 15.010 0.0960 0.1030 1.0 5.0 200.0 28.615380 500.0 197.0 28.615380 6069.461540 889254.50 145.0 41.0 838880964.729650 0.0 0.0 0.0 0.0 0.0 0.0 0.0 -3.27680 -3.27680 -3.27680 -3.27680 -3.27680 -3.27680
17.99 18.007570 0.0 42.80 15.020 0.0960 0.1040 1.0 5.0 200.0 27.230770 500.0 197.0 27.230770 6049.538460 889255.0 145.0 41.0 838881906.911410 0.0 0.0 0.0 0.0 0.0 0.0 0.0 -3.27680 -3.27680 -3.27680 -3.27680 -3.27680 -3.27680
17.98 17.999170 0.0 42.833330 15.030 0.0960 0.103330 1.0 5.0 200.0 25.846150 500.0 197.0 25.846150 6029.615380 889255.50 145.0 41.0 838882849.093170 0.0 0.0 0.0 0.0 0.0 0.0 0.0 -3.27680 -3.27680 -3.27680 -3.27680 -3.27680 -3.27680
17.97 17.990770 0.0 42.866670 15.040 0.0960 0.102670 1.0 5.0 200.0 24.461540 500.0 197.0 24.461540 6009.692310 889256.0 145.0 41.0 838883791.274930 0.0 0.0 0.0 0.0 0.0 0.0 0.0 -3.27680 -3.27680 -3.27680 -3.27680 -3.27680 -3.27680
17.96 17.982370 0.0 42.90 15.050 0.0960 0.1020 1.0 5.0 200.0 23.076920 500.0 197.0 23.076920 5989.769230 889256.50 145.0 41.0 838884733.456690 0.0 0.0 0.0 0.0 0.0 0.0 0.0 -3.27680 -3.27680 -3.27680 -3.27680 -3.27680 -3.27680
17.95 17.969770 0.0 42.950 15.060 0.0960 0.1020 1.0 5.0 200.0 21.692310 500.0 197.0 21.692310 5969.846150 889257.0 145.0 41.0 838885675.638450 0.0 0.0 0.0 0.0 0.0 0.0 0.0 -3.27680 -3.27680 -3.27680 -3.27680 -3.27680 -3.27680
17.94 17.957170 0.0 43.0 15.070 0.0960 0.1020 1.0 5.0 200.0 20.307690 500.0 197.0 20.307690 5949.923080 889257.50 145.0 41.0 838886617.820210 0.0 0.0 0.0 0.0 0.0 0.0 0.0 -3.27680 -3.27680 -3.27680 -3.27680 -3.27680 -3.27680
17.93 17.948760 0.0 43.033330 15.080 0.0960 0.1020 1.0 5.0 200.0 18.923080 500.0 197.0 18.923080 5930.0 889258.0 145.0 41.0 838887560.001970 0.0 0.0 0.0 0.0 0.0 0.0 0.0 -3.27680 -3.27680 -3.27680 -3.27680 -3.27680 -3.27680
17.92 17.940360 0.0 43.066670 15.090 0.0960 0.1020 1.0 5.0 200.0 17.538460 500.0 197.0 17.538460 5908.50 889259.0 145.0 41.0 838889444.385590 0.0 0.0 0.0 0.0 0.0 0.0 0.0 -3.27680 -3.27680 -3.27680 -3.27680 -3.27680 -3.27680
17.91 17.931960 0.0 43.10 15.10 0.0960 0.1020 1.0 5.0 200.0 16.153850 500.0 197.0 16.153850 5887.0 889260.0 145.0 41.0 838891328.769220 0.0 0.0 0.0 0.0 0.0 0.0 0.0 -3.27680 -3.27680 -3.27680 -3.27680 -3.27680 -3.27680
17.90 17.919760 0.0 43.150 15.110 0.0960 0.1020 1.0 5.0 200.0 14.769230 500.0 197.0 14.769230 5865.50 889261.0 145.0 41.0 838893213.152840 0.0 0.0 0.0 0.0 0.0 0.0 0.0 -3.27680 -3.27680 -3.27680 -3.27680 -3.27680 -3.27680
17.89 17.907550 0.0 43.20 15.120 0.0960 0.1020 1.0 5.0 200.0 13.384620 500.0 197.0 13.384620 5844.0 889262.0 145.0 41.0 838895097.536460 0.0 0.0 0.0 0.0 0.0 0.0 0.0 -3.27680 -3.27680 -3.27680 -3.27680 -3.27680 -3.27680
17.88 17.899410 0.0 43.233330 15.107330 0.0960 0.1020 1.0 5.0 200.0 12.0 500.0 197.0 12.0 5822.50 889263.0 145.0 41.0 838896981.920090 0.0 0.0 0.0 0.0 0.0 0.0 0.0 -3.27680 -3.27680 -3.27680 -3.27680 -3.27680 -3.27680
17.87 17.891270 0.0 43.266670 15.094670 0.0960 0.1020 1.0 5.0 200.0 13.666670 500.0 197.0 13.666670 5801.0 889264.0 145.0 41.0 838898866.303710 0.0 0.0 0.0 0.0 0.0 0.0 0.0 -3.27680 -3.27680 -3.27680 -3.27680 -3.27680 -3.27680
17.86 17.883130 0.0 43.30 15.0820 0.0960 0.1020 1.0 5.0 200.0 15.333330 500.0 197.0 15.333330 5779.50 889265.0 145.0 41.0 838900750.687330 0.0 0.0 0.0 0.0 0.0 0.0 0.0 -3.27680 -3.27680 -3.27680 -3.27680 -3.27680 -3.27680
17.85 17.870530 0.0 43.350 15.069330 0.0960 0.1020 1.0 5.0 200.0 17.0 500.0 197.0 17.0 5758.0 889266.0 145.0 41.0 838902635.070960 0.0 0.0 0.0 0.0 0.0 0.0 0.0 -3.27680 -3.27680 -3.27680 -3.27680 -3.27680 -3.27680
17.84 17.857930 0.0 43.40 15.056670 0.0960 0.1020 1.0 5.0 200.0 18.666670 500.0 197.0 18.666670 5736.50 889267.0 145.0 41.0 838904519.454580 0.0 0.0 0.0 0.0 0.0 0.0 0.0 -3.27680 -3.27680 -3.27680 -3.27680 -3.27680 -3.27680
17.83 17.849270 0.0 43.433330 15.0440 0.0960 0.1020 1.0 5.0 200.0 20.333330 500.0 197.0 20.333330 5715.0 889268.0 145.0 41.0 838906403.838210 0.0 0.0 0.0 0.0 0.0 0.0 0.0 -3.27680 -3.27680 -3.27680 -3.27680 -3.27680 -3.27680
17.82 17.84060 0.0 43.466670 15.031330 0.0960 0.1020 1.0 5.0 200.0 22.0 500.0 197.0 22.0 5693.50 889269.0 145.0 41.0 838908288.221830 0.0 0.0 0.0 0.0 0.0 0.0 0.0 -3.27680 -3.27680 -3.27680 -3.27680 -3.27680 -3.27680
17.81 17.831940 0.0 43.50 15.018670 0.0960 0.1020 1.0 5.0 200.0 23.666670 500.0 197.0 23.666670 5672.0 889270.0 145.0 41.0 838910172.605450 0.0 0.0 0.0 0.0 0.0 0.0 0.0 -3.27680 -3.27680 -3.27680 -3.27680 -3.27680 -3.27680
17.80 17.819730 0.0 43.550 15.0060 0.0960 0.1020 1.0 5.0 200.0 25.333330 500.0 197.0 25.333330 5656.846150 889271.0 145.0 41.0 838912056.989080 0.0 0.0 0.0 0.0 0.0 0.0 0.0 -3.27680 -3.27680 -3.27680 -3.27680 -3.27680 -3.27680
17.79 17.807520 0.0 43.60 14.993330 0.0960 0.1020 1.0 5.0 200.0 27.0 500.0 197.0 27.0 5641.692310 889271.916670 145.0 41.0 838913784.364010 0.0 0.0 0.0 0.0 0.0 0.0 0.0 -3.27680 -3.27680 -3.27680 -3.27680 -3.27680 -3.27680
17.78 17.799120 0.0 43.633330 14.980670 0.0960 0.1020 1.0 5.0 200.0 28.666670 500.0 197.0 28.666670 5626.538460 889272.833330 145.0 41.0 838915511.738950 0.0 0.0 0.0 0.0 0.0 0.0 0.0 -3.27680 -3.27680 -3.27680 -3.27680 -3.27680 -3.27680
17.77 17.790720 0.0 43.666670 14.9680 0.0960 0.1020 1.0 5.0 200.0 30.333330 500.0 197.0 30.333330 5611.384620 889273.750 145.0 41.0 838917239.113880 0.0 0.0 0.0 0.0 0.0 0.0 0.0 -3.27680 -3.27680 -3.27680 -3.27680 -3.27680 -3.27680
17.76 17.782320 0.0 43.70 14.955330 0.0960 0.1020 1.0 5.0 200.0 32.0 500.0 197.0 32.0 5596.230770 889274.666670 145.0 41.0 838918966.488820 0.0 0.0 0.0 0.0 0.0 0.0 0.0 -3.27680 -3.27680 -3.27680 -3.27680 -3.27680 -3.27680
17.75 17.770110 0.0 43.750 14.942670 0.0960 0.1020 1.0 5.0 200.0 31.538460 500.0 197.0 31.538460 5581.076920 889275.583330 145.076920 41.0 838920693.863750 0.0 0.0 0.0 0.0 0.0 0.0 0.0 -3.27680 -3.27680 -3.27680 -3.27680 -3.27680 -3.27680
17.74 17.75790 0.0 43.80 14.930 0.0960 0.1020 1.0 5.0 200.0 31.076920 500.0 197.0 31.076920 5565.923080 889276.50 145.153850 41.0 838922421.238690 0.0 0.0 0.0 0.0 0.0 0.0 0.0 -3.27680 -3.27680 -3.27680 -3.27680 -3.27680 -3.27680
17.73 17.74950 0.0 43.833330 14.932670 0.0960 0.1020 1.0 5.0 200.0 30.615380 500.0 197.0 30.615380 5550.769230 889277.416670 145.230770 41.0 838924148.613630 0.0 0.0 0.0 0.0 0.0 0.0 0.0 -3.27680 -3.27680 -3.27680 -3.27680 -3.27680 -3.27680
17.72 17.74110 0.0 43.866670 14.935330 0.0960 0.1020 1.0 5.0 200.0 30.153850 500.0 197.0 30.153850 5535.615380 889278.333330 145.307690 41.0 838925875.988560 0.0 0.0 0.0 0.0 0.0 0.0 0.0 -3.27680 -3.27680 -3.27680 -3.27680 -3.27680 -3.27680
17.71 17.73270 0.0 43.90 14.9380 0.0960 0.1020 1.0 5.0 200.0 29.692310 500.0 197.0 29.692310 5520.461540 889279.250 145.384620 41.0 838927603.36350 0.0 0.0 0.0 0.0 0.0 0.0 0.0 -3.27680 -3.27680 -3.27680 -3.27680 -3.27680 -3.27680
17.70 17.72010 0.0 43.950 14.940670 0.0960 0.1010 1.0 5.083330 200.0 29.230770 500.0 197.0 29.230770 5505.307690 889280.166670 145.461540 41.0 838929330.738430 0.0 0.0 0.0 0.0 0.0 0.0 0.0 -3.27680 -3.27680 -3.27680 -3.27680 -3.27680 -3.27680
17.69 17.70750 0.0 44.0 14.943330 0.0960 0.10 1.0 5.166670 200.0 28.769230 500.0 197.0 28.769230 5490.153850 889281.083330 145.538460 41.0 838931058.113370 0.0 0.0 0.0 0.0 0.0 0.0 0.0 -3.27680 -3.27680 -3.27680 -3.27680 -3.27680 -3.27680
