~VERSION INFORMATION SECTION
VERS. 2.0 : CWLS LAS-VERSION 2.0
WRAP. NO : One line per depth step
~WELL INFORMATION SECTION
# MNEM.UNIT VALUE/NAME DESCRIPTION
#-------- -------------- ---------------------
STRT.Metres 25 : Start
STOP.Metres -2.12 : Stop
STEP.Metres -0.01 : Step
NULL.  -999.25 :NULL VALUE
DATE. 2026-13-09 : DATE
~CURVE INFORMATION SECTION
DEPTH.Metres : 0 Depth
Depth. : 1 Depth
Tension. : 2 Tension
Time. : 3 Time
Speed. : 4 Speed
Voltage. : 5 Voltage
Current. : 6 Current
WET. : 7 WET
Sig. : 8 Sig
Vth. : 9 Vth
GR.CPS : 10 GR
Timebase.ms : 11 Timebase
HeadVoltage.V : 12 Head Voltage
API.API : 13 API
Conductivity.uS : 14 Conductivity
PT100.Ohms : 15 PT100
Vmon.mV : 16 Vmon
Status. : 17 Status
Temperature.C : 18 Temperature
Incline.Deg : 19 Incline
Azimuth.Deg : 20 Azimuth
RelativeBearing.Deg : 21 Relative Bearing
MagneticToolFace.Deg : 22 Magnetic Tool Face
GravityMagnitude.G : 23 Gravity Magnitude
MagnetometerMagnitude.H : 24 Magnetometer Magnitude
Temperature.C : 25 Temperature
GX. : 26 GX
GY. : 27 GY
GZ. : 28 GZ
HX. : 29 HX
HY. : 30 HY
HZ. : 31 HZ
~PARAMETER INFORMATION SECTION
~OTHER
#-------------------------------------------------
#Produced By: GeoVista Logger - Version 7.1.107.0
Verticality Sonde - 9605
Temperature and Conductivity Sonde - Inline - 8974
Natural Gamma Sonde - 9931
WLIS - 10021
#-------------------------------------------------
~ASCII LOG DATA
# ...
18.83 18.847150 0.0 39.90 14.930 0.0960 0.1020 1.0 4.769230 200.0 18.968330 509.230770 196.0 18.968330 6945.846150 889145.50 156.846150 45.461540 838675581.806180 0.0 0.0 0.0 0.0 0.0 0.0 0.0 -3.27680 -3.27680 -3.27680 -3.27680 -3.27680 -3.27680
18.82 18.839010 0.0 39.933330 14.932670 0.0960 0.101330 1.0 4.846150 200.0 20.452490 510.0 196.0 20.452490 6923.538460 889146.250 156.769230 45.384620 838676994.905010 0.0 0.0 0.0 0.0 0.0 0.0 0.0 -3.27680 -3.27680 -3.27680 -3.27680 -3.27680 -3.27680
18.81 18.830870 0.0 39.966670 14.935330 0.0960 0.100670 1.0 4.923080 200.0 21.936650 509.166670 196.0 21.936650 6901.230770 889147.0 156.692310 45.307690 838678408.003840 0.0 0.0 0.0 0.0 0.0 0.0 0.0 -3.27680 -3.27680 -3.27680 -3.27680 -3.27680 -3.27680
18.80 18.822730 0.0 40.0 14.9380 0.0960 0.10 1.0 5.0 200.0 23.420810 508.333330 196.0 23.420810 6878.923080 889147.750 156.615380 45.230770 838679821.102670 0.0 0.0 0.0 0.0 0.0 0.0 0.0 -3.27680 -3.27680 -3.27680 -3.27680 -3.27680 -3.27680
18.79 18.810130 0.0 40.050 14.940670 0.0960 0.1010 1.0 4.916670 200.0 24.904980 507.50 196.0 24.904980 6856.615380 889148.50 156.538460 45.153850 838681234.20150 0.0 0.0 0.0 0.0 0.0 0.0 0.0 -3.27680 -3.27680 -3.27680 -3.27680 -3.27680 -3.27680
18.78 18.797530 0.0 40.10 14.943330 0.0960 0.1020 1.0 4.833330 200.0 26.389140 506.666670 196.0 26.389140 6834.307690 889149.250 156.461540 45.076920 838682647.300330 0.0 0.0 0.0 0.0 0.0 0.0 0.0 -3.27680 -3.27680 -3.27680 -3.27680 -3.27680 -3.27680
18.77 18.789130 0.0 40.133330 14.9460 0.0960 0.1020 1.0 4.750 200.0 27.87330 505.833330 196.0 27.87330 6812.0 889150.0 156.384620 45.0 838684060.399150 0.0 0.0 0.0 0.0 0.0 0.0 0.0 -3.27680 -3.27680 -3.27680 -3.27680 -3.27680 -3.27680
18.76 18.780730 0.0 40.166670 14.948670 0.0960 0.1020 1.0 4.666670 200.0 29.357470 505.0 196.0 29.357470 6788.50 889150.461540 156.307690 45.0 838684930.005760 0.0 0.0 0.0 0.0 0.0 0.0 0.0 -3.27680 -3.27680 -3.27680 -3.27680 -3.27680 -3.27680
18.75 18.772330 0.0 40.20 14.951330 0.0960 0.1020 1.0 4.583330 200.0 30.841630 504.166670 196.0 30.841630 6765.0 889150.923080 156.230770 45.0 838685799.612370 0.0 0.0 0.0 0.0 0.0 0.0 0.0 -3.27680 -3.27680 -3.27680 -3.27680 -3.27680 -3.27680
18.74 18.759730 0.0 40.250 14.9540 0.0960 0.1020 1.0 4.50 200.0 32.325790 503.333330 196.0 32.325790 6741.50 889151.384620 156.153850 45.0 838686669.218970 0.0 0.0 0.0 0.0 0.0 0.0 0.0 -3.27680 -3.27680 -3.27680 -3.27680 -3.27680 -3.27680
18.73 18.747120 0.0 40.30 14.956670 0.0960 0.1020 1.0 4.416670 200.0 33.809950 502.50 196.0 33.809950 6718.0 889151.846150 156.076920 45.0 838687538.825580 0.0 0.0 0.0 0.0 0.0 0.0 0.0 -3.27680 -3.27680 -3.27680 -3.27680 -3.27680 -3.27680
18.72 18.738990 0.0 40.333330 14.959330 0.0960 0.1020 1.0 4.333330 200.0 35.294120 501.666670 196.0 35.294120 6694.50 889152.307690 156.0 45.0 838688408.432180 0.0 0.0 0.0 0.0 0.0 0.0 0.0 -3.27680 -3.27680 -3.27680 -3.27680 -3.27680 -3.27680
18.71 18.730850 0.0 40.366670 14.9620 0.0960 0.1020 1.0 4.250 200.0 33.852940 500.833330 196.0 33.852940 6671.0 889152.769230 156.166670 45.0 838689278.038790 0.0 0.0 0.0 0.0 0.0 0.0 0.0 -3.27680 -3.27680 -3.27680 -3.27680 -3.27680 -3.27680
18.70 18.722710 0.0 40.40 14.964670 0.0960 0.1020 1.0 4.166670 200.0 32.411760 500.0 196.0 32.411760 6647.50 889153.230770 156.333330 45.0 838690147.645390 0.0 0.0 0.0 0.0 0.0 0.0 0.0 -3.27680 -3.27680 -3.27680 -3.27680 -3.27680 -3.27680
18.69 18.710110 0.0 40.450 14.967330 0.0960 0.1020 1.0 4.083330 200.0 30.970590 500.0 196.0 30.970590 6624.0 889153.692310 156.50 45.0 838691017.2520 0.0 0.0 0.0 0.0 0.0 0.0 0.0 -3.27680 -3.27680 -3.27680 -3.27680 -3.27680 -3.27680
18.68 18.697510 0.0 40.50 14.970 0.0960 0.1020 1.0 4.0 200.0 29.529410 500.0 196.0 29.529410 6600.50 889154.153850 156.666670 45.0 838691886.85860 0.0 0.0 0.0 0.0 0.0 0.0 0.0 -3.27680 -3.27680 -3.27680 -3.27680 -3.27680 -3.27680
18.67 18.68910 0.0 40.533330 14.973330 0.0960 0.1020 1.0 4.0 200.0 28.088240 500.0 196.0 28.088240 6577.0 889154.615380 156.833330 45.0 838692756.465210 0.0 0.0 0.0 0.0 0.0 0.0 0.0 -3.27680 -3.27680 -3.27680 -3.27680 -3.27680 -3.27680
18.66 18.68070 0.0 40.566670 14.976670 0.0960 0.1020 1.0 4.0 200.0 26.647060 500.0 196.0 26.647060 6553.50 889155.076920 157.0 45.0 838693626.071810 0.0 0.0 0.0 0.0 0.0 0.0 0.0 -3.27680 -3.27680 -3.27680 -3.27680 -3.27680 -3.27680
18.65 18.67230 0.0 40.60 14.980 0.0960 0.1020 1.0 4.0 200.0 25.205880 500.0 196.0 25.205880 6530.0 889155.538460 157.166670 45.0 838694495.678420 0.0 0.0 0.0 0.0 0.0 0.0 0.0 -3.27680 -3.27680 -3.27680 -3.27680 -3.27680 -3.27680
18.64 18.65970 0.0 40.650 14.983330 0.0960 0.1020 1.0 4.0 200.0 23.764710 500.0 196.0 23.764710 6508.692310 889156.0 157.333330 45.0 838695365.285030 0.0 0.0 0.0 0.0 0.0 0.0 0.0 -3.27680 -3.27680 -3.27680 -3.27680 -3.27680 -3.27680
18.63 18.64710 0.0 40.70 14.986670 0.0960 0.1020 1.0 4.0 200.0 22.323530 500.0 196.0 22.323530 6487.384620 889156.583330 157.50 45.0 838696464.379180 0.0 0.0 0.0 0.0 0.0 0.0 0.0 -3.27680 -3.27680 -3.27680 -3.27680 -3.27680 -3.27680
18.62 18.63870 0.0 40.733330 14.990 0.0960 0.101330 1.0 4.0 200.0 20.882350 500.0 196.0 20.882350 6466.076920 889157.166670 157.666670 45.0 838697563.473330 0.0 0.0 0.0 0.0 0.0 0.0 0.0 -3.27680 -3.27680 -3.27680 -3.27680 -3.27680 -3.27680
18.61 18.63030 0.0 40.766670 14.993330 0.0960 0.100670 1.0 4.0 200.0 19.441180 500.0 196.0 19.441180 6444.769230 889157.750 157.833330 45.0 838698662.567480 0.0 0.0 0.0 0.0 0.0 0.0 0.0 -3.27680 -3.27680 -3.27680 -3.27680 -3.27680 -3.27680
18.60 18.62190 0.0 40.80 14.996670 0.0960 0.10 1.0 4.0 200.0 18.0 500.0 196.0 18.0 6423.461540 889158.333330 158.0 45.0 838699761.661630 0.0 0.0 0.0 0.0 0.0 0.0 0.0 -3.27680 -3.27680 -3.27680 -3.27680 -3.27680 -3.27680
18.59 18.609290 0.0 40.850 15.0 0.0960 0.1010 1.0 4.0 200.0 17.846150 500.0 196.0 17.846150 6402.153850 889158.916670 158.0 45.0 838700860.755780 0.0 0.0 0.0 0.0 0.0 0.0 0.0 -3.27680 -3.27680 -3.27680 -3.27680 -3.27680 -3.27680
18.58 18.596690 0.0 40.90 15.003330 0.0960 0.1020 1.0 4.0 200.0 17.692310 500.0 196.0 17.692310 6380.846150 889159.50 158.0 45.0 838701959.849930 0.0 0.0 0.0 0.0 0.0 0.0 0.0 -3.27680 -3.27680 -3.27680 -3.27680 -3.27680 -3.27680
18.57 18.588290 0.0 40.933330 15.006670 0.0960 0.1020 1.0 4.0 200.0 17.538460 500.0 196.0 17.538460 6359.538460 889160.083330 158.0 45.0 838703058.944080 0.0 0.0 0.0 0.0 0.0 0.0 0.0 -3.27680 -3.27680 -3.27680 -3.27680 -3.27680 -3.27680
18.56 18.579890 0.0 40.966670 15.010 0.0960 0.1020 1.0 4.0 200.0 17.384620 500.0 196.0 17.384620 6338.230770 889160.666670 158.0 45.0 838704158.038230 0.0 0.0 0.0 0.0 0.0 0.0 0.0 -3.27680 -3.27680 -3.27680 -3.27680 -3.27680 -3.27680
18.55 18.571490 0.0 41.0 15.013330 0.0960 0.1020 1.0 4.0 200.0 17.230770 500.0 196.0 17.230770 6316.923080 889161.250 158.0 45.0 838705257.132390 0.0 0.0 0.0 0.0 0.0 0.0 0.0 -3.27680 -3.27680 -3.27680 -3.27680 -3.27680 -3.27680
18.54 18.558890 0.0 41.050 15.016670 0.0960 0.1010 1.0 4.083330 200.0 17.076920 500.0 196.0 17.076920 6295.615380 889161.833330 158.0 45.0 838706356.226540 0.0 0.0 0.0 0.0 0.0 0.0 0.0 -3.27680 -3.27680 -3.27680 -3.27680 -3.27680 -3.27680
18.53 18.546290 0.0 41.10 15.020 0.0960 0.10 1.0 4.166670 200.0 16.923080 500.0 196.0 16.923080 6274.307690 889162.416670 158.0 45.0 838707455.320690 0.0 0.0 0.0 0.0 0.0 0.0 0.0 -3.27680 -3.27680 -3.27680 -3.27680 -3.27680 -3.27680
18.52 18.537890 0.0 41.133330 15.029330 0.0960 0.100670 1.0 4.250 200.0 16.769230 500.0 196.0 16.769230 6253.0 889163.0 158.0 45.0 838708554.414840 0.0 0.0 0.0 0.0 0.0 0.0 0.0 -3.27680 -3.27680 -3.27680 -3.27680 -3.27680 -3.27680
18.51 18.529490 0.0 41.166670 15.038670 0.0960 0.101330 1.0 4.333330 200.0 16.615380 500.0 196.0 16.615380 6225.750 889164.0 158.0 45.0 838710438.59740 0.0 0.0 0.0 0.0 0.0 0.0 0.0 -3.27680 -3.27680 -3.27680 -3.27680 -3.27680 -3.27680
18.50 18.521080 0.0 41.20 15.0480 0.0960 0.1020 1.0 4.416670 200.0 16.461540 500.0 196.0 16.461540 6198.50 889165.0 158.0 45.0 838712322.779970 0.0 0.0 0.0 0.0 0.0 0.0 0.0 -3.27680 -3.27680 -3.27680 -3.27680 -3.27680 -3.27680
