~VERSION INFORMATION SECTION
VERS. 2.0 : CWLS LAS-VERSION 2.0
WRAP. NO : One line per depth step
~WELL INFORMATION SECTION
# MNEM.UNIT VALUE/NAME DESCRIPTION
#-------- -------------- ---------------------
STRT.Metres 2 : Start
STOP.Metres 22.45 : Stop
STEP.Metres 0.01 : Step
NULL.  -999.25 :NULL VALUE
DATE. 2026-02-09 : DATE
~CURVE INFORMATION SECTION
DEPTH.Metres : 0 Depth
Depth. : 1 Depth
Tension. : 2 Tension
Time. : 3 Time
Speed. : 4 Speed
Voltage. : 5 Voltage
Current. : 6 Current
WET. : 7 WET
Sig. : 8 Sig
Vth. : 9 Vth
GR.CPS : 10 GR
Timebase.ms : 11 Timebase
HeadVoltage.V : 12 Head Voltage
API.API : 13 API
Conductivity.uS : 14 Conductivity
PT100.Ohms : 15 PT100
Vmon.mV : 16 Vmon
Status. : 17 Status
Temperature.C : 18 Temperature
Incline.Deg : 19 Incline
Azimuth.Deg : 20 Azimuth
RelativeBearing.Deg : 21 Relative Bearing
MagneticToolFace.Deg : 22 Magnetic Tool Face
GravityMagnitude.G : 23 Gravity Magnitude
MagnetometerMagnitude.H : 24 Magnetometer Magnitude
Temperature.C : 25 Temperature
GX. : 26 GX
GY. : 27 GY
GZ. : 28 GZ
HX. : 29 HX
HY. : 30 HY
HZ. : 31 HZ
~PARAMETER INFORMATION SECTION
~OTHER
#-------------------------------------------------
#Produced By: GeoVista Logger - Version 7.1.107.0
Verticality Sonde - 6292
Temperature and Conductivity Sonde - Inline - 8974
Natural Gamma Sonde - 9931
WLIS - 10024
#-------------------------------------------------
~ASCII LOG DATA
# ...
10.78 10.78060 0.0 63.750 10.010 0.0960 0.1040 1.0 33.0 100.0 10.0 500.0 196.0 10.0 84.4490 109.639770 156.0 44.0 24.752240 0.2750 317.350 181.1250 138.8750 1.790980 6.05550 21.350 -0.0080 -0.00040 1.790850 0.19720 -0.17170 -0.546050
10.79 10.789260 0.0 63.80 10.010 0.0960 0.1040 1.0 33.0 100.0 10.250 500.0 196.0 10.250 84.585920 109.640310 156.0 44.0 24.753620 0.28750 317.6750 180.96250 139.03750 1.790990 6.054750 21.350 -0.008080 -0.000480 1.790860 0.19740 -0.171430 -0.546040
10.80 10.797530 0.0 63.850 10.010 0.0960 0.1040 1.0 33.0 100.0 10.50 500.0 196.0 10.50 84.722840 109.640840 156.0 44.0 24.7550 0.30 318.0 180.80 139.20 1.7910 6.0540 21.350 -0.008150 -0.000550 1.790880 0.19760 -0.171150 -0.546030
10.81 10.80580 0.0 63.90 10.010 0.0960 0.1040 1.0 33.0 100.0 10.750 500.0 196.0 10.750 84.859760 109.641380 156.0 44.0 24.756380 0.30 317.566670 181.233330 139.211110 1.7910 6.0540 21.350 -0.008230 -0.000630 1.790890 0.19780 -0.170880 -0.546010
10.82 10.822340 0.0 64.0 10.010 0.0960 0.1040 1.0 33.0 100.0 11.0 500.0 196.0 11.0 84.996680 109.641910 156.0 44.0 24.757760 0.30 317.133330 181.666670 139.222220 1.7910 6.0540 21.350 -0.00830 -0.00070 1.79090 0.1980 -0.17060 -0.5460
10.83 10.830610 0.0 64.050 10.010 0.0960 0.1040 1.0 33.0 100.0 11.250 500.0 196.0 11.250 85.13360 109.642450 156.0 44.0 24.759140 0.30 316.70 182.10 139.233330 1.7910 6.0540 21.350 -0.008360 -0.000760 1.79090 0.197790 -0.170850 -0.546040
10.84 10.838880 0.0 64.10 10.010 0.0960 0.1040 1.0 33.0 100.0 11.50 500.0 196.0 11.50 85.067580 109.642980 156.0 44.0 24.760520 0.30 316.266670 182.533330 139.244440 1.7910 6.0540 21.350 -0.008430 -0.000830 1.79090 0.197580 -0.17110 -0.546080
10.85 10.847150 0.0 64.150 10.010 0.0960 0.1040 1.0 33.0 100.0 11.750 500.0 196.0 11.750 85.001570 109.643520 156.0 44.0 24.76190 0.30 315.833330 182.966670 139.255560 1.7910 6.0540 21.350 -0.008490 -0.000890 1.79090 0.197360 -0.171350 -0.546110
10.86 10.855420 0.0 64.20 10.010 0.0960 0.1040 1.0 33.0 100.0 12.0 500.0 196.0 12.0 84.935560 109.644060 156.0 44.0 24.763290 0.30 315.40 183.40 139.266670 1.7910 6.0540 21.350 -0.008550 -0.000950 1.79090 0.197150 -0.17160 -0.546150
10.87 10.871960 0.0 64.30 10.010 0.0960 0.1040 1.0 33.0 100.0 11.480390 500.0 196.0 11.480390 84.869540 109.644590 156.0 44.0 24.764670 0.30 314.966670 183.833330 139.277780 1.7910 6.0540 21.350 -0.008610 -0.001010 1.79090 0.196940 -0.171850 -0.546190
10.88 10.880230 0.0 64.350 10.010 0.0960 0.1040 1.0 33.0 100.0 10.960780 500.0 196.0 10.960780 84.803530 109.645040 156.0 44.0 24.765830 0.30 314.533330 184.266670 139.288890 1.7910 6.0540 21.350 -0.008670 -0.001070 1.79090 0.196730 -0.17210 -0.546230
10.89 10.88850 0.0 64.40 10.010 0.0960 0.1040 1.0 33.0 100.0 10.441180 500.0 196.0 10.441180 84.737510 109.64550 156.0 44.0 24.766990 0.30 314.10 184.70 139.30 1.7910 6.0540 21.350 -0.008740 -0.001140 1.79090 0.196510 -0.172350 -0.546260
10.90 10.896770 0.0 64.450 10.010 0.0960 0.1040 1.0 33.0 100.0 9.921570 500.0 196.0 9.921570 84.67150 109.645950 156.0 44.0 24.768160 0.30 313.73750 185.0 139.2250 1.7910 6.054380 21.350 -0.00880 -0.00120 1.79090 0.19630 -0.17260 -0.54630
10.91 10.905040 0.0 64.50 10.010 0.0960 0.1040 1.0 33.0 100.0 9.401960 500.0 196.0 9.401960 84.605480 109.64640 156.0 44.0 24.769320 0.30 313.3750 185.30 139.150 1.7910 6.054750 21.350 -0.008810 -0.001160 1.79090 0.196620 -0.172280 -0.54630
10.92 10.922370 0.0 64.60 10.010 0.0960 0.1040 1.0 33.0 100.0 8.882350 500.0 196.0 8.882350 84.54680 109.646850 156.0 44.0 24.770490 0.30 313.01250 185.60 139.0750 1.7910 6.055130 21.350 -0.008820 -0.001110 1.79090 0.196940 -0.171960 -0.54630
10.93 10.930640 0.0 64.650 10.010 0.0960 0.1040 1.0 33.0 100.0 8.362750 500.0 196.0 8.362750 84.488120 109.64730 156.0 44.0 24.771650 0.30 312.650 185.90 139.0 1.7910 6.05550 21.350 -0.008830 -0.001070 1.79090 0.197270 -0.171630 -0.54630
10.94 10.938910 0.0 64.70 10.010 0.0960 0.1040 1.0 33.0 100.0 7.843140 500.0 196.0 7.843140 84.429440 109.647760 156.0 44.0 24.772820 0.30 312.28750 186.20 138.9250 1.7910 6.055880 21.350 -0.008840 -0.001020 1.79090 0.197590 -0.171310 -0.54630
10.95 10.947180 0.0 64.750 10.010 0.0960 0.1040 1.0 32.8750 100.0 7.860570 500.0 196.0 7.860570 84.370760 109.648210 156.0 44.0 24.773980 0.30 311.9250 186.50 138.850 1.7910 6.056250 21.350 -0.008860 -0.000980 1.79090 0.197910 -0.170990 -0.54630
10.96 10.955450 0.0 64.80 10.010 0.0960 0.1040 1.0 32.750 100.0 7.8780 500.0 196.0 7.8780 84.312080 109.648960 156.0 44.0 24.775920 0.30 311.56250 186.80 138.7750 1.7910 6.056630 21.350 -0.008870 -0.000930 1.79090 0.198230 -0.170670 -0.54630
10.97 10.971990 0.0 64.90 10.010 0.0960 0.1040 1.0 32.6250 100.0 7.895420 501.250 196.0 7.895420 84.253410 109.649710 156.0 44.0 24.777860 0.30 311.20 187.10 138.70 1.7910 6.0570 21.350 -0.008880 -0.000890 1.79090 0.198560 -0.170340 -0.54630
10.98 10.980260 0.0 64.950 10.0050 0.0960 0.1040 1.0 32.50 100.0 7.912850 502.50 196.0 7.912850 84.194730 109.650470 156.0 44.0 24.779810 0.30 311.5250 186.88750 138.81250 1.7910 6.057130 21.350 -0.008890 -0.000840 1.79090 0.198880 -0.170020 -0.54630
10.99 10.988530 0.0 65.0 10.0 0.0960 0.1040 1.0 32.3750 100.0 7.930280 503.750 196.0 7.930280 84.136050 109.651220 156.0 44.0 24.781750 0.30 311.850 186.6750 138.9250 1.7910 6.057250 21.350 -0.00890 -0.00080 1.79090 0.19920 -0.16970 -0.54630
11.00 10.99680 0.0 65.050 9.9950 0.0960 0.1040 1.0 32.250 100.0 7.947710 505.0 196.0 7.947710 84.077370 109.651970 156.0 44.0 24.783690 0.30 312.1750 186.46250 139.03750 1.7910 6.057380 21.350 -0.008840 -0.00080 1.79090 0.199410 -0.169460 -0.54630
11.01 11.005060 0.0 65.10 9.990 0.0960 0.1040 1.0 32.1250 100.0 7.965140 506.250 196.0 7.965140 84.158050 109.652730 156.0 44.0 24.785630 0.30 312.50 186.250 139.150 1.7910 6.05750 21.350 -0.008780 -0.00080 1.79090 0.199630 -0.169230 -0.54630
11.02 11.022390 0.0 65.20 9.9850 0.0960 0.1040 1.0 32.0 100.0 7.982570 507.50 196.0 7.982570 84.238740 109.653480 156.0 44.0 24.787570 0.30 312.8250 186.03750 139.26250 1.7910 6.057630 21.350 -0.008710 -0.00080 1.79090 0.199840 -0.168990 -0.54630
11.03 11.030660 0.0 65.250 9.980 0.0960 0.1040 1.0 32.111110 100.0 8.0 508.750 196.0 8.0 84.319420 109.654240 156.0 44.0 24.789510 0.30 313.150 185.8250 139.3750 1.7910 6.057750 21.350 -0.008650 -0.00080 1.79090 0.200050 -0.168750 -0.54630
11.04 11.038930 0.0 65.30 9.9750 0.0960 0.1040 1.0 32.222220 100.0 7.750 510.0 196.0 7.750 84.40010 109.654540 156.0 44.0 24.790290 0.30 313.4750 185.61250 139.48750 1.7910 6.057880 21.350 -0.008590 -0.00080 1.79090 0.200260 -0.168510 -0.54630
11.05 11.04720 0.0 65.350 9.970 0.0960 0.1040 1.0 32.333330 100.0 7.50 508.888890 196.0 7.50 84.480790 109.654840 156.0 44.0 24.791060 0.30 313.80 185.40 139.60 1.7910 6.0580 21.350 -0.008530 -0.00080 1.79090 0.200480 -0.168280 -0.54630
11.06 11.055470 0.0 65.40 9.9650 0.0960 0.1040 1.0 32.444440 100.0 7.250 507.777780 196.0 7.250 84.561470 109.655140 156.0 44.0 24.791840 0.30 313.788890 185.433330 139.633330 1.7910 6.0580 21.352220 -0.008460 -0.00080 1.79090 0.200690 -0.168040 -0.54630
11.07 11.072010 0.0 65.50 9.960 0.0960 0.1040 1.0 32.555560 100.0 7.0 506.666670 196.0 7.0 84.642160 109.655440 156.0 44.0 24.792620 0.30 313.777780 185.466670 139.666670 1.7910 6.0580 21.354440 -0.00840 -0.00080 1.79090 0.20090 -0.16780 -0.54630
11.08 11.080280 0.0 65.550 9.960 0.0960 0.1040 1.0 32.666670 100.0 6.750 505.555560 196.0 6.750 84.722840 109.655740 156.0 44.0 24.793390 0.30 313.766670 185.50 139.70 1.7910 6.0580 21.356670 -0.008420 -0.000870 1.79090 0.200550 -0.168210 -0.54630
11.09 11.088550 0.0 65.60 9.960 0.0960 0.1040 1.0 32.777780 100.0 6.50 504.444440 196.0 6.50 84.722840 109.656040 156.0 44.0 24.794170 0.30 313.755560 185.533330 139.733330 1.7910 6.0580 21.358890 -0.008450 -0.000950 1.79090 0.20020 -0.168630 -0.54630
11.10 11.097210 0.0 65.650 9.960 0.0960 0.1040 1.0 32.888890 100.0 6.250 503.333330 196.0 6.250 84.722840 109.656340 156.0 44.0 24.794950 0.30 313.744440 185.566670 139.766670 1.7910 6.0580 21.361110 -0.008470 -0.001020 1.79090 0.199850 -0.169040 -0.54630
