~VERSION INFORMATION SECTION
VERS. 2.0 : CWLS LAS-VERSION 2.0
WRAP. NO : One line per depth step
~WELL INFORMATION SECTION
# MNEM.UNIT VALUE/NAME DESCRIPTION
#-------- -------------- ---------------------
STRT.Metres 26 : Start
STOP.Metres -2.05 : Stop
STEP.Metres -0.01 : Step
NULL.  -999.25 :NULL VALUE
DATE. 2026-48-09 : DATE
~CURVE INFORMATION SECTION
DEPTH.Metres : 0 Depth
Depth. : 1 Depth
Tension. : 2 Tension
Time. : 3 Time
Speed. : 4 Speed
Voltage. : 5 Voltage
Current. : 6 Current
WET. : 7 WET
Sig. : 8 Sig
Vth. : 9 Vth
GR.CPS : 10 GR
Timebase.ms : 11 Timebase
HeadVoltage.V : 12 Head Voltage
API.API : 13 API
Conductivity.uS : 14 Conductivity
PT100.Ohms : 15 PT100
Vmon.mV : 16 Vmon
Status. : 17 Status
Temperature.C : 18 Temperature
Incline.Deg : 19 Incline
Azimuth.Deg : 20 Azimuth
RelativeBearing.Deg : 21 Relative Bearing
MagneticToolFace.Deg : 22 Magnetic Tool Face
GravityMagnitude.G : 23 Gravity Magnitude
MagnetometerMagnitude.H : 24 Magnetometer Magnitude
Temperature.C : 25 Temperature
GX. : 26 GX
GY. : 27 GY
GZ. : 28 GZ
HX. : 29 HX
HY. : 30 HY
HZ. : 31 HZ
~PARAMETER INFORMATION SECTION
~OTHER
#-------------------------------------------------
#Produced By: GeoVista Logger - Version 7.1.107.0
Verticality Sonde - 9605
Temperature and Conductivity Sonde - Inline - 8974
Natural Gamma Sonde - 9931
WLIS - 10021
#-------------------------------------------------
~ASCII LOG DATA
# ...
24.66 24.677190 0.0 16.133330 15.013330 0.0960 0.101330 1.0 1.0 200.0 64.333330 500.0 196.833330 64.333330 -999.25 -999.25 134.0 -999.25 -999.25 -999.25 -999.25 -999.25 -999.25 -999.25 -999.25 -999.25 -999.25 -999.25 -999.25 -999.25 -999.25 -999.25
24.65 24.668790 0.0 16.166670 15.016670 0.0960 0.100670 1.0 1.0 200.0 65.166670 500.0 196.750 65.166670 -999.25 -999.25 134.0 -999.25 -999.25 -999.25 -999.25 -999.25 -999.25 -999.25 -999.25 -999.25 -999.25 -999.25 -999.25 -999.25 -999.25 -999.25
24.64 24.660390 0.0 16.20 15.020 0.0960 0.10 1.0 1.0 200.0 66.0 500.0 196.666670 66.0 -999.25 -999.25 134.0 -999.25 -999.25 -999.25 -999.25 -999.25 -999.25 -999.25 -999.25 -999.25 -999.25 -999.25 -999.25 -999.25 -999.25 -999.25
24.63 24.648180 0.0 16.250 15.020 0.0960 0.1010 1.0 1.0 200.0 64.461540 500.0 196.583330 64.461540 -999.25 -999.25 134.0 -999.25 -999.25 -999.25 -999.25 -999.25 -999.25 -999.25 -999.25 -999.25 -999.25 -999.25 -999.25 -999.25 -999.25 -999.25
24.62 24.635970 0.0 16.30 15.020 0.0960 0.1020 1.0 1.0 200.0 62.923080 500.0 196.50 62.923080 17400.333330 -999.25 134.0 41.0 -999.25 -999.25 -999.25 -999.25 -999.25 -999.25 -999.25 -999.25 -999.25 -999.25 -999.25 -999.25 -999.25 -999.25
24.61 24.627570 0.0 16.333330 15.020 0.0960 0.1020 1.0 1.0 200.0 61.384620 500.0 196.416670 61.384620 17438.714290 -999.25 134.0 41.0 -999.25 -999.25 -999.25 -999.25 -999.25 -999.25 -999.25 -999.25 -999.25 -999.25 -999.25 -999.25 -999.25 -999.25
24.60 24.619170 0.0 16.366670 15.020 0.0960 0.1020 1.0 1.0 200.0 59.846150 500.0 196.333330 59.846150 17477.095240 -999.25 134.0 41.0 -999.25 -999.25 -999.25 -999.25 -999.25 -999.25 -999.25 -999.25 -999.25 -999.25 -999.25 -999.25 -999.25 -999.25
24.59 24.610770 0.0 16.40 15.020 0.0960 0.1020 1.0 1.0 200.0 58.307690 500.0 196.250 58.307690 17515.476190 -999.25 134.0 41.0 -999.25 -999.25 -999.25 -999.25 -999.25 -999.25 -999.25 -999.25 -999.25 -999.25 -999.25 -999.25 -999.25 -999.25
24.58 24.602110 0.0 16.433330 15.020 0.0960 0.1020 1.0 1.0 200.0 56.769230 500.0 196.166670 56.769230 17553.857140 -999.25 134.0 41.0 -999.25 -999.25 -999.25 -999.25 -999.25 -999.25 -999.25 -999.25 -999.25 -999.25 -999.25 -999.25 -999.25 -999.25
24.57 24.593440 0.0 16.466670 15.020 0.0960 0.1020 1.0 1.0 200.0 55.230770 500.0 196.083330 55.230770 17592.23810 -999.25 134.0 41.0 -999.25 -999.25 -999.25 -999.25 -999.25 -999.25 -999.25 -999.25 -999.25 -999.25 -999.25 -999.25 -999.25 -999.25
24.56 24.584780 0.0 16.50 15.020 0.0960 0.1020 1.0 1.0 200.0 53.692310 500.0 196.0 53.692310 17630.619050 -999.25 134.0 41.0 -999.25 -999.25 -999.25 -999.25 -999.25 -999.25 -999.25 -999.25 -999.25 -999.25 -999.25 -999.25 -999.25 -999.25
24.55 24.572180 0.0 16.550 15.020 0.0960 0.1020 1.0 1.0 200.0 52.153850 500.0 196.0 52.153850 17669.0 -999.25 134.0 41.0 -999.25 -999.25 -999.25 -999.25 -999.25 -999.25 -999.25 -999.25 -999.25 -999.25 -999.25 -999.25 -999.25 -999.25
24.54 24.559570 0.0 16.60 15.020 0.0960 0.1020 1.0 1.0 200.0 50.615380 500.0 196.0 50.615380 17698.416670 -999.25 134.0 41.0 -999.25 -999.25 -999.25 -999.25 -999.25 -999.25 -999.25 -999.25 -999.25 -999.25 -999.25 -999.25 -999.25 -999.25
24.53 24.546970 0.0 16.650 15.020 0.0960 0.1020 1.0 1.0 200.0 49.076920 500.0 196.0 49.076920 17727.833330 -999.25 134.0 41.0 -999.25 -999.25 -999.25 -999.25 -999.25 -999.25 -999.25 -999.25 -999.25 -999.25 -999.25 -999.25 -999.25 -999.25
24.52 24.534370 0.0 16.70 15.020 0.0960 0.1020 1.0 1.0 200.0 47.538460 500.0 196.0 47.538460 17757.250 -999.25 134.0 41.0 -999.25 -999.25 -999.25 -999.25 -999.25 -999.25 -999.25 -999.25 -999.25 -999.25 -999.25 -999.25 -999.25 -999.25
24.51 24.52650 0.0 16.733330 15.020 0.0960 0.1020 1.0 1.0 200.0 46.0 500.0 196.0 46.0 17786.666670 -999.25 134.0 41.0 -999.25 -999.25 -999.25 -999.25 -999.25 -999.25 -999.25 -999.25 -999.25 -999.25 -999.25 -999.25 -999.25 -999.25
24.50 24.518620 0.0 16.766670 15.020 0.0960 0.1020 1.0 1.0 200.0 45.0 500.0 196.0 45.0 17816.083330 -999.25 134.0 41.0 -999.25 -999.25 -999.25 -999.25 -999.25 -999.25 -999.25 -999.25 -999.25 -999.25 -999.25 -999.25 -999.25 -999.25
24.49 24.510740 0.0 16.80 15.020 0.0960 0.1020 1.0 1.0 200.0 44.0 500.0 196.0 44.0 17845.50 888983.952380 134.0 41.0 838371232.875730 -999.25 -999.25 -999.25 -999.25 -999.25 -999.25 -999.25 -999.25 -999.25 -999.25 -999.25 -999.25 -999.25
24.48 24.498140 0.0 16.850 15.016670 0.0960 0.1020 1.0 1.0 200.0 43.0 500.0 196.0 43.0 17874.916670 888978.959180 134.0 41.0 838361826.857910 -999.25 -999.25 -999.25 -999.25 -999.25 -999.25 -999.25 -999.25 -999.25 -999.25 -999.25 -999.25 -999.25
24.47 24.485540 0.0 16.90 15.013330 0.0960 0.1020 1.0 1.0 200.0 42.0 500.0 196.0 42.0 17904.333330 888973.965990 134.0 41.0 838352420.840090 -999.25 -999.25 -999.25 -999.25 -999.25 -999.25 -999.25 -999.25 -999.25 -999.25 -999.25 -999.25 -999.25
24.46 24.477140 0.0 16.933330 15.010 0.0960 0.1020 1.0 0.923080 200.0 41.0 500.0 196.0 41.0 17933.750 888968.972790 134.0 41.0 838343014.822280 -999.25 -999.25 -999.25 -999.25 -999.25 -999.25 -999.25 -999.25 -999.25 -999.25 -999.25 -999.25 -999.25
24.45 24.468740 0.0 16.966670 15.006670 0.0960 0.1020 1.0 0.846150 200.0 40.0 500.0 196.0 40.0 17963.166670 888963.979590 134.0 41.0 838333608.804460 -999.25 -999.25 -999.25 -999.25 -999.25 -999.25 -999.25 -999.25 -999.25 -999.25 -999.25 -999.25 -999.25
24.44 24.460340 0.0 17.0 15.003330 0.0960 0.1020 1.0 0.769230 200.0 39.0 500.0 196.0 39.0 17992.583330 888958.986390 134.0 41.0 838324202.786640 -999.25 -999.25 -999.25 -999.25 -999.25 -999.25 -999.25 -999.25 -999.25 -999.25 -999.25 -999.25 -999.25
24.43 24.447740 0.0 17.050 15.0 0.0960 0.1020 1.0 0.692310 200.0 38.0 500.0 196.0 38.0 18022.0 888953.99320 134.0 41.0 838314796.768820 -999.25 -999.25 -999.25 -999.25 -999.25 -999.25 -999.25 -999.25 -999.25 -999.25 -999.25 -999.25 -999.25
24.42 24.435130 0.0 17.10 14.996670 0.0960 0.1020 1.0 0.615380 200.0 37.0 500.0 196.083330 37.0 18032.750 888949.0 134.0 41.0 838305390.7510 -999.25 -999.25 -999.25 -999.25 -999.25 -999.25 -999.25 -999.25 -999.25 -999.25 -999.25 -999.25 -999.25
24.41 24.4270 0.0 17.133330 14.993330 0.0960 0.1020 1.0 0.538460 200.0 36.0 500.0 196.166670 36.0 18043.50 888948.833330 134.0 41.0 838305076.79870 -999.25 -999.25 -999.25 -999.25 -999.25 -999.25 -999.25 -999.25 -999.25 -999.25 -999.25 -999.25 -999.25
24.40 24.418860 0.0 17.166670 14.990 0.0960 0.1020 1.0 0.461540 200.0 35.0 500.0 196.250 35.0 18054.250 888948.666670 134.0 41.0 838304762.84640 -999.25 -999.25 -999.25 -999.25 -999.25 -999.25 -999.25 -999.25 -999.25 -999.25 -999.25 -999.25 -999.25
24.39 24.410720 0.0 17.20 14.986670 0.0960 0.1020 1.0 0.384620 200.0 34.0 500.0 196.333330 34.0 18065.0 888948.50 134.0 41.0 838304448.894110 -999.25 -999.25 -999.25 -999.25 -999.25 -999.25 -999.25 -999.25 -999.25 -999.25 -999.25 -999.25 -999.25
24.38 24.398510 0.0 17.250 14.983330 0.0960 0.1020 1.0 0.307690 200.0 33.230770 500.0 196.416670 33.230770 18075.750 888948.333330 134.0 41.0 838304134.941810 -999.25 -999.25 -999.25 -999.25 -999.25 -999.25 -999.25 -999.25 -999.25 -999.25 -999.25 -999.25 -999.25
24.37 24.38630 0.0 17.30 14.980 0.0960 0.1020 1.0 0.230770 200.0 32.461540 500.0 196.50 32.461540 18086.50 888948.166670 134.0 41.0 838303820.989510 -999.25 -999.25 -999.25 -999.25 -999.25 -999.25 -999.25 -999.25 -999.25 -999.25 -999.25 -999.25 -999.25
24.36 24.37790 0.0 17.333330 14.976670 0.0960 0.1020 1.0 0.153850 200.0 31.692310 500.0 196.583330 31.692310 18097.250 888948.0 134.0 41.0 838303507.037210 -999.25 -999.25 -999.25 -999.25 -999.25 -999.25 -999.25 -999.25 -999.25 -999.25 -999.25 -999.25 -999.25
24.35 24.36950 0.0 17.366670 14.973330 0.0960 0.1020 1.0 0.076920 200.0 30.923080 500.0 196.666670 30.923080 18108.0 888947.833330 134.0 41.0 838303193.084920 -999.25 -999.25 -999.25 -999.25 -999.25 -999.25 -999.25 -999.25 -999.25 -999.25 -999.25 -999.25 -999.25
24.34 24.36110 0.0 17.40 14.970 0.0960 0.1020 1.0 0.0 200.0 30.153850 500.0 196.750 30.153850 18118.750 888947.666670 134.0 41.0 838302879.132620 -999.25 -999.25 -999.25 -999.25 -999.25 -999.25 -999.25 -999.25 -999.25 -999.25 -999.25 -999.25 -999.25
