~VERSION INFORMATION SECTION
VERS. 2.0 : CWLS LAS-VERSION 2.0
WRAP. NO : One line per depth step
~WELL INFORMATION SECTION
# MNEM.UNIT VALUE/NAME DESCRIPTION
#-------- -------------- ---------------------
STRT.Metres 26 : Start
STOP.Metres -2.05 : Stop
STEP.Metres -0.01 : Step
NULL.  -999.25 :NULL VALUE
DATE. 2026-48-09 : DATE
~CURVE INFORMATION SECTION
DEPTH.Metres : 0 Depth
Depth. : 1 Depth
Tension. : 2 Tension
Time. : 3 Time
Speed. : 4 Speed
Voltage. : 5 Voltage
Current. : 6 Current
WET. : 7 WET
Sig. : 8 Sig
Vth. : 9 Vth
GR.CPS : 10 GR
Timebase.ms : 11 Timebase
HeadVoltage.V : 12 Head Voltage
API.API : 13 API
Conductivity.uS : 14 Conductivity
PT100.Ohms : 15 PT100
Vmon.mV : 16 Vmon
Status. : 17 Status
Temperature.C : 18 Temperature
Incline.Deg : 19 Incline
Azimuth.Deg : 20 Azimuth
RelativeBearing.Deg : 21 Relative Bearing
MagneticToolFace.Deg : 22 Magnetic Tool Face
GravityMagnitude.G : 23 Gravity Magnitude
MagnetometerMagnitude.H : 24 Magnetometer Magnitude
Temperature.C : 25 Temperature
GX. : 26 GX
GY. : 27 GY
GZ. : 28 GZ
HX. : 29 HX
HY. : 30 HY
HZ. : 31 HZ
~PARAMETER INFORMATION SECTION
~OTHER
#-------------------------------------------------
#Produced By: GeoVista Logger - Version 7.1.107.0
Verticality Sonde - 9605
Temperature and Conductivity Sonde - Inline - 8974
Natural Gamma Sonde - 9931
WLIS - 10021
#-------------------------------------------------
~ASCII LOG DATA
# ...
12.76 12.777420 0.0 63.733330 15.0720 0.0960 0.1020 1.0 34.0 200.0 17.666670 500.0 197.0 17.666670 2490.153850 889648.0 151.0 41.0 839622625.207690 0.0 0.0 0.0 0.0 0.0 0.0 0.0 -3.27680 -3.27680 -3.27680 -3.27680 -3.27680 -3.27680
12.75 12.769020 0.0 63.766670 15.0560 0.0960 0.1020 1.0 34.0 200.0 17.833330 500.0 197.0 17.833330 2491.538460 889648.50 151.0 41.0 839623567.807430 0.0 0.0 0.0 0.0 0.0 0.0 0.0 -3.27680 -3.27680 -3.27680 -3.27680 -3.27680 -3.27680
12.74 12.760610 0.0 63.80 15.040 0.0960 0.1020 1.0 34.0 200.0 18.0 500.0 197.0 18.0 2492.923080 889649.0 151.0 41.0 839624510.407180 0.0 0.0 0.0 0.0 0.0 0.0 0.0 -3.27680 -3.27680 -3.27680 -3.27680 -3.27680 -3.27680
12.73 12.748410 0.0 63.850 15.0240 0.0960 0.1020 1.0 34.0 200.0 18.615380 500.0 197.0 18.615380 2494.307690 889649.50 151.0 41.0 839625453.006930 0.0 0.0 0.0 0.0 0.0 0.0 0.0 -3.27680 -3.27680 -3.27680 -3.27680 -3.27680 -3.27680
12.72 12.73620 0.0 63.90 15.0080 0.0960 0.1020 1.0 34.0 200.0 19.230770 500.0 197.0 19.230770 2495.692310 889650.0 151.0 41.0 839626395.606680 0.0 0.0 0.0 0.0 0.0 0.0 0.0 -3.27680 -3.27680 -3.27680 -3.27680 -3.27680 -3.27680
12.71 12.72780 0.0 63.933330 14.9920 0.0960 0.1020 1.0 34.0 200.0 19.846150 500.0 197.0 19.846150 2497.076920 889650.50 151.0 41.0 839627338.206430 0.0 0.0 0.0 0.0 0.0 0.0 0.0 -3.27680 -3.27680 -3.27680 -3.27680 -3.27680 -3.27680
12.70 12.71940 0.0 63.966670 14.9760 0.0960 0.1020 1.0 34.0 200.0 20.461540 500.0 197.0 20.461540 2498.461540 889651.0 151.0 41.0 839628280.806170 0.0 0.0 0.0 0.0 0.0 0.0 0.0 -3.27680 -3.27680 -3.27680 -3.27680 -3.27680 -3.27680
12.69 12.7110 0.0 64.0 14.960 0.0960 0.1020 1.0 34.0 200.0 21.076920 500.0 197.0 21.076920 2499.846150 889651.50 151.0 41.0 839629223.405920 0.0 0.0 0.0 0.0 0.0 0.0 0.0 -3.27680 -3.27680 -3.27680 -3.27680 -3.27680 -3.27680
12.68 12.698390 0.0 64.050 14.9440 0.0960 0.1020 1.0 34.083330 200.0 21.692310 500.0 197.0 21.692310 2501.230770 889652.0 151.0 41.0 839630166.005670 0.0 0.0 0.0 0.0 0.0 0.0 0.0 -3.27680 -3.27680 -3.27680 -3.27680 -3.27680 -3.27680
12.67 12.685790 0.0 64.10 14.9280 0.0960 0.1020 1.0 34.166670 200.0 22.307690 500.0 197.0 22.307690 2502.615380 889652.50 151.0 41.0 839631108.605420 0.0 0.0 0.0 0.0 0.0 0.0 0.0 -3.27680 -3.27680 -3.27680 -3.27680 -3.27680 -3.27680
12.66 12.677650 0.0 64.133330 14.9120 0.0960 0.1020 1.0 34.250 200.0 22.923080 500.0 197.0 22.923080 2504.0 889653.0 151.0 41.0 839632051.205170 0.0 0.0 0.0 0.0 0.0 0.0 0.0 -3.27680 -3.27680 -3.27680 -3.27680 -3.27680 -3.27680
12.65 12.669520 0.0 64.166670 14.8960 0.0960 0.1020 1.0 34.333330 200.0 23.538460 500.0 197.0 23.538460 2502.0 889653.769230 151.0 41.0 839633501.371650 0.0 0.0 0.0 0.0 0.0 0.0 0.0 -3.27680 -3.27680 -3.27680 -3.27680 -3.27680 -3.27680
12.64 12.661380 0.0 64.20 14.880 0.0960 0.1020 1.0 34.416670 200.0 24.153850 500.0 197.0 24.153850 2500.0 889654.538460 151.0 41.0 839634951.538130 0.0 0.0 0.0 0.0 0.0 0.0 0.0 -3.27680 -3.27680 -3.27680 -3.27680 -3.27680 -3.27680
12.63 12.648780 0.0 64.250 14.883330 0.0960 0.1020 1.0 34.50 200.0 24.769230 500.0 197.0 24.769230 2498.0 889655.307690 151.0 41.0 839636401.704610 0.0 0.0 0.0 0.0 0.0 0.0 0.0 -3.27680 -3.27680 -3.27680 -3.27680 -3.27680 -3.27680
12.62 12.636170 0.0 64.30 14.886670 0.0960 0.1020 1.0 34.583330 200.0 25.384620 500.0 197.0 25.384620 2496.0 889656.076920 151.0 41.0 839637851.87110 0.0 0.0 0.0 0.0 0.0 0.0 0.0 -3.27680 -3.27680 -3.27680 -3.27680 -3.27680 -3.27680
12.61 12.627770 0.0 64.333330 14.890 0.0960 0.1020 1.0 34.666670 200.0 26.0 500.0 197.0 26.0 2494.0 889656.846150 151.0 41.0 839639302.037580 0.0 0.0 0.0 0.0 0.0 0.0 0.0 -3.27680 -3.27680 -3.27680 -3.27680 -3.27680 -3.27680
12.60 12.619370 0.0 64.366670 14.893330 0.0960 0.1020 1.0 34.750 200.0 25.333330 500.0 197.0 25.333330 2492.0 889657.615380 151.0 41.0 839640752.204060 0.0 0.0 0.0 0.0 0.0 0.0 0.0 -3.27680 -3.27680 -3.27680 -3.27680 -3.27680 -3.27680
12.59 12.610970 0.0 64.40 14.896670 0.0960 0.1020 1.0 34.833330 200.0 24.666670 500.0 197.0 24.666670 2490.0 889658.384620 151.0 41.0 839642202.370540 0.0 0.0 0.0 0.0 0.0 0.0 0.0 -3.27680 -3.27680 -3.27680 -3.27680 -3.27680 -3.27680
12.58 12.598760 0.0 64.450 14.90 0.0960 0.1020 1.0 34.916670 200.0 24.0 500.0 197.0 24.0 2488.0 889659.153850 151.0 41.0 839643652.537030 0.0 0.0 0.0 0.0 0.0 0.0 0.0 -3.27680 -3.27680 -3.27680 -3.27680 -3.27680 -3.27680
12.57 12.586560 0.0 64.50 14.903330 0.0960 0.1020 1.0 35.0 200.0 23.333330 500.0 197.0 23.333330 2486.0 889659.923080 151.0 41.0 839645102.703510 0.0 0.0 0.0 0.0 0.0 0.0 0.0 -3.27680 -3.27680 -3.27680 -3.27680 -3.27680 -3.27680
12.56 12.578150 0.0 64.533330 14.906670 0.0960 0.1020 1.0 35.0 200.0 22.666670 500.0 197.0 22.666670 2484.0 889660.692310 151.0 41.0 839646552.869990 0.0 0.0 0.0 0.0 0.0 0.0 0.0 -3.27680 -3.27680 -3.27680 -3.27680 -3.27680 -3.27680
12.55 12.569750 0.0 64.566670 14.910 0.0960 0.1020 1.0 35.0 200.0 22.0 500.0 197.0 22.0 2482.0 889661.461540 151.0 41.0 839648003.036470 0.0 0.0 0.0 0.0 0.0 0.0 0.0 -3.27680 -3.27680 -3.27680 -3.27680 -3.27680 -3.27680
12.54 12.561350 0.0 64.60 14.913330 0.0960 0.1020 1.0 35.0 200.0 21.333330 500.0 197.0 21.333330 2480.0 889662.230770 151.0 41.0 839649453.202960 0.0 0.0 0.0 0.0 0.0 0.0 0.0 -3.27680 -3.27680 -3.27680 -3.27680 -3.27680 -3.27680
12.53 12.548750 0.0 64.650 14.916670 0.0960 0.1020 1.0 35.0 200.0 20.666670 500.0 197.0 20.666670 2478.0 889663.0 151.0 41.0 839650903.369440 0.0 0.0 0.0 0.0 0.0 0.0 0.0 -3.27680 -3.27680 -3.27680 -3.27680 -3.27680 -3.27680
12.52 12.536150 0.0 64.70 14.920 0.0960 0.1020 1.0 35.0 200.0 20.0 500.0 197.0 20.0 2474.250 889663.538460 151.0 41.0 839651918.495660 0.0 0.0 0.0 0.0 0.0 0.0 0.0 -3.27680 -3.27680 -3.27680 -3.27680 -3.27680 -3.27680
12.51 12.528010 0.0 64.733330 14.923330 0.0960 0.1020 1.0 35.0 200.0 19.333330 500.0 197.0 19.333330 2470.50 889664.076920 151.0 41.0 839652933.621890 0.0 0.0 0.0 0.0 0.0 0.0 0.0 -3.27680 -3.27680 -3.27680 -3.27680 -3.27680 -3.27680
12.50 12.519870 0.0 64.766670 14.926670 0.0960 0.1020 1.0 35.0 200.0 18.666670 500.0 197.0 18.666670 2466.750 889664.615380 151.0 41.0 839653948.748110 0.0 0.0 0.0 0.0 0.0 0.0 0.0 -3.27680 -3.27680 -3.27680 -3.27680 -3.27680 -3.27680
12.49 12.511730 0.0 64.80 14.930 0.0960 0.1020 1.0 35.0 200.0 18.0 500.0 197.0 18.0 2463.0 889665.153850 151.0 41.0 839654963.874340 0.0 0.0 0.0 0.0 0.0 0.0 0.0 -3.27680 -3.27680 -3.27680 -3.27680 -3.27680 -3.27680
12.48 12.499130 0.0 64.850 14.9360 0.0960 0.1020 1.0 35.0 200.0 18.0 500.0 197.0 18.0 2459.250 889665.692310 151.0 41.0 839655979.000560 0.0 0.0 0.0 0.0 0.0 0.0 0.0 -3.27680 -3.27680 -3.27680 -3.27680 -3.27680 -3.27680
12.47 12.486530 0.0 64.90 14.9420 0.0960 0.1020 1.0 35.0 200.0 18.0 500.0 197.0 18.0 2455.50 889666.230770 151.0 41.0 839656994.126780 0.0 0.0 0.0 0.0 0.0 0.0 0.0 -3.27680 -3.27680 -3.27680 -3.27680 -3.27680 -3.27680
12.46 12.478130 0.0 64.933330 14.9480 0.0960 0.1020 1.0 35.0 200.0 18.0 500.0 197.0 18.0 2451.750 889666.769230 151.0 41.0 839658009.253010 0.0 0.0 0.0 0.0 0.0 0.0 0.0 -3.27680 -3.27680 -3.27680 -3.27680 -3.27680 -3.27680
12.45 12.469730 0.0 64.966670 14.9540 0.0960 0.1020 1.0 35.0 200.0 18.0 500.0 197.0 18.0 2448.0 889667.307690 151.0 41.0 839659024.379230 0.0 0.0 0.0 0.0 0.0 0.0 0.0 -3.27680 -3.27680 -3.27680 -3.27680 -3.27680 -3.27680
12.44 12.461330 0.0 65.0 14.960 0.0960 0.1020 1.0 35.0 200.0 18.0 500.0 197.0 18.0 2444.250 889667.846150 151.0 41.0 839660039.505460 0.0 0.0 0.0 0.0 0.0 0.0 0.0 -3.27680 -3.27680 -3.27680 -3.27680 -3.27680 -3.27680
12.43 12.448730 0.0 65.050 14.9660 0.0960 0.1020 1.0 35.083330 200.0 18.0 500.0 197.0 18.0 2440.50 889668.384620 151.0 41.0 839661054.631680 0.0 0.0 0.0 0.0 0.0 0.0 0.0 -3.27680 -3.27680 -3.27680 -3.27680 -3.27680 -3.27680
12.42 12.436130 0.0 65.10 14.9720 0.0960 0.1020 1.0 35.166670 200.0 18.0 500.0 197.0 18.0 2436.750 889668.923080 151.0 41.0 839662069.757910 0.0 0.0 0.0 0.0 0.0 0.0 0.0 -3.27680 -3.27680 -3.27680 -3.27680 -3.27680 -3.27680
12.41 12.427720 0.0 65.133330 14.9780 0.0960 0.1020 1.0 35.250 200.0 18.0 500.0 197.0 18.0 2433.0 889669.461540 151.0 41.0 839663084.884130 0.0 0.0 0.0 0.0 0.0 0.0 0.0 -3.27680 -3.27680 -3.27680 -3.27680 -3.27680 -3.27680
