~VERSION INFORMATION SECTION
VERS. 2.0 : CWLS LAS-VERSION 2.0
WRAP. NO : One line per depth step
~WELL INFORMATION SECTION
# MNEM.UNIT VALUE/NAME DESCRIPTION
#-------- -------------- ---------------------
STRT.Metres 26 : Start
STOP.Metres -2.04 : Stop
STEP.Metres -0.01 : Step
NULL.  -999.25 :NULL VALUE
DATE. 2026-36-09 : DATE
~CURVE INFORMATION SECTION
DEPTH.Metres : 0 Depth
Depth. : 1 Depth
Tension. : 2 Tension
Time. : 3 Time
Speed. : 4 Speed
Voltage. : 5 Voltage
Current. : 6 Current
WET. : 7 WET
Sig. : 8 Sig
Vth. : 9 Vth
GR.CPS : 10 GR
Timebase.ms : 11 Timebase
HeadVoltage.V : 12 Head Voltage
API.API : 13 API
Conductivity.uS : 14 Conductivity
PT100.Ohms : 15 PT100
Vmon.mV : 16 Vmon
Status. : 17 Status
Temperature.C : 18 Temperature
Incline.Deg : 19 Incline
Azimuth.Deg : 20 Azimuth
RelativeBearing.Deg : 21 Relative Bearing
MagneticToolFace.Deg : 22 Magnetic Tool Face
GravityMagnitude.G : 23 Gravity Magnitude
MagnetometerMagnitude.H : 24 Magnetometer Magnitude
Temperature.C : 25 Temperature
GX. : 26 GX
GY. : 27 GY
GZ. : 28 GZ
HX. : 29 HX
HY. : 30 HY
HZ. : 31 HZ
~PARAMETER INFORMATION SECTION
~OTHER
#-------------------------------------------------
#Produced By: GeoVista Logger - Version 7.1.107.0
Verticality Sonde - 9605
Temperature and Conductivity Sonde - Inline - 8974
Natural Gamma Sonde - 9931
WLIS - 10021
#-------------------------------------------------
~ASCII LOG DATA
# ...
0.79 0.797050 0.0 140.10 6.006670 0.0960 0.1020 0.0 992.0 200.0 26.40 500.0 197.0 26.40 129.166670 890669.615380 0.0 43.0 841549674.136710 0.0 0.0 0.0 0.0 0.0 0.0 0.0 -3.27680 -3.27680 -3.27680 -3.27680 -3.27680 -3.27680
0.78 0.78760 0.0 140.20 6.013330 0.0960 0.1020 0.0 992.0 200.0 30.80 500.0 197.0 30.80 121.583330 890669.076920 0.0 43.0 841548657.865180 0.0 0.0 0.0 0.0 0.0 0.0 0.0 -3.27680 -3.27680 -3.27680 -3.27680 -3.27680 -3.27680
0.77 0.777360 0.0 140.30 6.020 0.0960 0.1020 0.0 992.0 200.0 35.20 500.0 197.0 35.20 114.0 890668.538460 0.0 43.0 841547641.593660 0.0 0.0 0.0 0.0 0.0 0.0 0.0 -3.27680 -3.27680 -3.27680 -3.27680 -3.27680 -3.27680
0.76 0.767910 0.0 140.40 6.026670 0.0960 0.1020 0.0 992.20 200.0 39.60 500.0 197.0 39.60 105.230770 890668.0 0.0 43.0 841546625.322140 0.0 0.0 0.0 0.0 0.0 0.0 0.0 -3.27680 -3.27680 -3.27680 -3.27680 -3.27680 -3.27680
0.75 0.757670 0.0 140.50 6.033330 0.0960 0.1020 0.0 992.40 200.0 44.0 500.0 197.0 44.0 96.461540 890667.250 0.0 43.0 841545209.813790 0.0 0.0 0.0 0.0 0.0 0.0 0.0 -3.27680 -3.27680 -3.27680 -3.27680 -3.27680 -3.27680
0.74 0.747430 0.0 140.60 6.040 0.0960 0.1020 0.0 992.60 200.0 39.20 500.0 197.0 39.20 87.692310 890666.50 0.0 43.0 841543794.305440 0.0 0.0 0.0 0.0 0.0 0.0 0.0 -3.27680 -3.27680 -3.27680 -3.27680 -3.27680 -3.27680
0.73 0.737980 0.0 140.70 6.0250 0.0960 0.1020 0.0 992.80 200.0 34.40 500.0 197.0 34.40 78.923080 890665.750 0.0 43.0 841542378.797090 0.0 0.0 0.0 0.0 0.0 0.0 0.0 -3.27680 -3.27680 -3.27680 -3.27680 -3.27680 -3.27680
0.72 0.727740 0.0 140.80 6.010 0.0960 0.1020 0.0 993.0 200.0 29.60 500.0 197.0 29.60 70.153850 890665.0 0.0 43.0 841540963.288740 0.0 0.0 0.0 0.0 0.0 0.0 0.0 -3.27680 -3.27680 -3.27680 -3.27680 -3.27680 -3.27680
0.71 0.718290 0.0 140.90 5.9950 0.0960 0.1020 0.0 993.0 200.0 24.80 500.0 197.0 24.80 61.384620 890664.250 0.0 43.0 841539547.780390 0.0 0.0 0.0 0.0 0.0 0.0 0.0 -3.27680 -3.27680 -3.27680 -3.27680 -3.27680 -3.27680
0.70 0.708050 0.0 141.0 5.980 0.0960 0.1020 0.0 993.0 200.0 20.0 500.0 197.0 20.0 52.615380 890663.50 0.0 43.0 841538132.272040 0.0 0.0 0.0 0.0 0.0 0.0 0.0 -3.27680 -3.27680 -3.27680 -3.27680 -3.27680 -3.27680
0.69 0.697810 0.0 141.10 5.9650 0.0960 0.1020 0.0 993.0 200.0 22.40 500.0 197.0 22.40 43.846150 890662.750 0.0 43.0 841536716.763690 0.0 0.0 0.0 0.0 0.0 0.0 0.0 -3.27680 -3.27680 -3.27680 -3.27680 -3.27680 -3.27680
0.68 0.688360 0.0 141.20 5.950 0.0960 0.1020 0.0 993.0 200.0 24.80 500.0 197.0 24.80 35.076920 890662.0 0.0 43.0 841535301.255330 0.0 0.0 0.0 0.0 0.0 0.0 0.0 -3.27680 -3.27680 -3.27680 -3.27680 -3.27680 -3.27680
0.67 0.678120 0.0 141.30 5.958330 0.0960 0.1020 0.0 993.0 200.0 27.20 500.0 197.0 27.20 26.307690 890661.250 0.0 43.0 841533885.746980 0.0 0.0 0.0 0.0 0.0 0.0 0.0 -3.27680 -3.27680 -3.27680 -3.27680 -3.27680 -3.27680
0.66 0.667880 0.0 141.40 5.966670 0.0960 0.10 0.0 993.0 200.0 29.60 500.0 197.0 29.60 17.538460 890660.50 0.333330 43.0 841532470.238630 0.0 0.0 0.0 0.0 0.0 0.0 0.0 -3.27680 -3.27680 -3.27680 -3.27680 -3.27680 -3.27680
0.65 0.658430 0.0 141.50 5.9750 0.0960 0.1020 0.0 993.0 200.0 32.0 500.0 197.0 32.0 8.769230 890659.750 0.666670 43.0 841531054.730280 0.0 0.0 0.0 0.0 0.0 0.0 0.0 -3.27680 -3.27680 -3.27680 -3.27680 -3.27680 -3.27680
0.64 0.648190 0.0 141.60 5.983330 0.0960 0.1020 0.0 993.0 200.0 34.0 500.0 197.0 34.0 0.0 890659.0 1.0 43.0 841529639.221930 0.0 0.0 0.0 0.0 0.0 0.0 0.0 -3.27680 -3.27680 -3.27680 -3.27680 -3.27680 -3.27680
0.63 0.637950 0.0 141.70 5.991670 0.0960 0.1020 0.0 993.0 200.0 36.0 500.0 197.0 36.0 3.454550 890658.384620 1.333330 43.0 841528477.790250 0.0 0.0 0.0 0.0 0.0 0.0 0.0 -3.27680 -3.27680 -3.27680 -3.27680 -3.27680 -3.27680
0.62 0.627710 0.0 141.80 6.0 0.0960 0.1020 0.0 993.0 200.0 38.0 500.0 197.0 38.0 6.909090 890657.769230 1.666670 43.0 841527316.358570 0.0 0.0 0.0 0.0 0.0 0.0 0.0 -3.27680 -3.27680 -3.27680 -3.27680 -3.27680 -3.27680
0.61 0.618260 0.0 141.90 6.0 0.0960 0.1020 0.0 993.0 200.0 40.0 500.0 197.0 40.0 10.363640 890657.153850 2.0 43.0 841526154.92690 0.0 0.0 0.0 0.0 0.0 0.0 0.0 -3.27680 -3.27680 -3.27680 -3.27680 -3.27680 -3.27680
0.60 0.608020 0.0 142.0 6.0 0.0960 0.1020 0.0 993.0 200.0 42.0 500.0 197.0 42.0 13.818180 890656.538460 1.60 43.0 841524993.495220 0.0 0.0 0.0 0.0 0.0 0.0 0.0 -3.27680 -3.27680 -3.27680 -3.27680 -3.27680 -3.27680
0.59 0.597780 0.0 142.10 6.0 0.0960 0.1020 0.0 993.0 200.0 37.60 500.0 197.0 37.60 17.272730 890655.923080 1.20 43.0 841523832.063540 0.0 0.0 0.0 0.0 0.0 0.0 0.0 -3.27680 -3.27680 -3.27680 -3.27680 -3.27680 -3.27680
0.58 0.588330 0.0 142.20 6.0 0.0960 0.1020 0.0 993.0 200.0 33.20 500.0 197.0 33.20 20.727270 890655.307690 0.80 43.0 841522670.631860 0.0 0.0 0.0 0.0 0.0 0.0 0.0 -3.27680 -3.27680 -3.27680 -3.27680 -3.27680 -3.27680
0.57 0.578090 0.0 142.30 6.0 0.0960 0.1020 0.0 993.0 200.0 28.80 500.0 197.0 28.80 24.181820 890654.692310 0.40 43.0 841521509.200180 0.0 0.0 0.0 0.0 0.0 0.0 0.0 -3.27680 -3.27680 -3.27680 -3.27680 -3.27680 -3.27680
0.56 0.567860 0.0 142.40 6.0 0.0960 0.1020 0.0 993.0 200.0 24.40 500.0 197.0 24.40 27.636360 890654.076920 0.0 43.0 841520347.76850 0.0 0.0 0.0 0.0 0.0 0.0 0.0 -3.27680 -3.27680 -3.27680 -3.27680 -3.27680 -3.27680
0.55 0.55840 0.0 142.50 6.0 0.0960 0.1020 0.0 993.0 200.0 20.0 500.0 197.0 20.0 31.090910 890653.461540 0.0 43.0 841519186.336820 0.0 0.0 0.0 0.0 0.0 0.0 0.0 -3.27680 -3.27680 -3.27680 -3.27680 -3.27680 -3.27680
0.54 0.548170 0.0 142.60 6.0 0.0960 0.1020 0.0 993.0 200.0 23.20 500.0 197.0 23.20 34.545450 890652.846150 0.0 43.0 841518024.905140 0.0 0.0 0.0 0.0 0.0 0.0 0.0 -3.27680 -3.27680 -3.27680 -3.27680 -3.27680 -3.27680
0.53 0.537930 0.0 142.70 6.0 0.0960 0.1020 0.0 993.0 200.0 26.40 500.0 197.0 26.40 38.0 890652.230770 0.0 43.0 841516863.473470 0.0 0.0 0.0 0.0 0.0 0.0 0.0 -3.27680 -3.27680 -3.27680 -3.27680 -3.27680 -3.27680
0.52 0.527690 0.0 142.80 6.0 0.0960 0.1020 0.0 993.0 200.0 29.60 500.0 197.0 29.60 38.285710 890651.615380 0.0 43.0 841515702.041790 0.0 0.0 0.0 0.0 0.0 0.0 0.0 -3.27680 -3.27680 -3.27680 -3.27680 -3.27680 -3.27680
0.51 0.517450 0.0 142.90 6.0 0.0960 0.1020 0.0 993.20 200.0 32.80 500.0 197.0 32.80 38.571430 890651.0 0.0 43.0 841514540.610110 0.0 0.0 0.0 0.0 0.0 0.0 0.0 -3.27680 -3.27680 -3.27680 -3.27680 -3.27680 -3.27680
0.50 0.5080 0.0 143.0 6.0 0.0960 0.1020 0.0 993.40 200.0 36.0 500.0 197.0 36.0 38.857140 890650.181820 0.20 43.0 841512996.448620 0.0 0.0 0.0 0.0 0.0 0.0 0.0 -3.27680 -3.27680 -3.27680 -3.27680 -3.27680 -3.27680
0.49 0.497760 0.0 143.10 6.006670 0.0960 0.1020 0.0 993.60 200.0 34.0 500.0 197.0 34.0 39.142860 890649.363640 0.40 43.0 841511452.287130 0.0 0.0 0.0 0.0 0.0 0.0 0.0 -3.27680 -3.27680 -3.27680 -3.27680 -3.27680 -3.27680
0.48 0.487520 0.0 143.20 6.013330 0.0960 0.1020 0.0 993.80 200.0 32.0 500.0 197.0 32.0 39.428570 890648.545450 0.60 43.0 841509908.125640 0.0 0.0 0.0 0.0 0.0 0.0 0.0 -3.27680 -3.27680 -3.27680 -3.27680 -3.27680 -3.27680
0.47 0.477280 0.0 143.30 6.020 0.0960 0.1020 0.0 994.0 200.0 30.0 500.0 197.0 30.0 39.714290 890647.727270 0.80 43.0 841508363.964150 0.0 0.0 0.0 0.0 0.0 0.0 0.0 -3.27680 -3.27680 -3.27680 -3.27680 -3.27680 -3.27680
0.46 0.467040 0.0 143.40 6.026670 0.0960 0.1020 0.0 994.0 200.0 28.0 500.0 197.0 28.0 40.0 890646.909090 1.0 43.0 841506819.802660 0.0 0.0 0.0 0.0 0.0 0.0 0.0 -3.27680 -3.27680 -3.27680 -3.27680 -3.27680 -3.27680
0.45 0.457590 0.0 143.50 6.033330 0.0960 0.1020 0.0 994.0 200.0 26.0 500.0 197.0 26.0 32.0 890646.090910 0.80 43.0 841505275.641160 0.0 0.0 0.0 0.0 0.0 0.0 0.0 -3.27680 -3.27680 -3.27680 -3.27680 -3.27680 -3.27680
0.44 0.447350 0.0 143.60 6.040 0.0960 0.1020 0.0 994.0 200.0 24.40 502.0 197.0 24.40 24.0 890645.272730 0.60 43.0 841503731.479670 0.0 0.0 0.0 0.0 0.0 0.0 0.0 -3.27680 -3.27680 -3.27680 -3.27680 -3.27680 -3.27680
0.43 0.437120 0.0 143.70 6.033330 0.0960 0.10 0.0 994.0 200.0 22.80 504.0 197.0 22.80 16.0 890644.454550 0.40 43.0 841502187.318180 0.0 0.0 0.0 0.0 0.0 0.0 0.0 -3.27680 -3.27680 -3.27680 -3.27680 -3.27680 -3.27680
0.42 0.427660 0.0 143.80 6.026670 0.0960 0.1020 0.0 994.0 200.0 21.20 506.0 197.0 21.20 8.0 890643.636360 0.20 43.0 841500643.156690 0.0 0.0 0.0 0.0 0.0 0.0 0.0 -3.27680 -3.27680 -3.27680 -3.27680 -3.27680 -3.27680
