~VERSION INFORMATION SECTION
VERS. 2.0 : CWLS LAS-VERSION 2.0
WRAP. NO : One line per depth step
~WELL INFORMATION SECTION
# MNEM.UNIT VALUE/NAME DESCRIPTION
#-------- -------------- ---------------------
STRT.Metres 26 : Start
STOP.Metres -2.04 : Stop
STEP.Metres -0.01 : Step
NULL.  -999.25 :NULL VALUE
DATE. 2026-36-09 : DATE
~CURVE INFORMATION SECTION
DEPTH.Metres : 0 Depth
Depth. : 1 Depth
Tension. : 2 Tension
Time. : 3 Time
Speed. : 4 Speed
Voltage. : 5 Voltage
Current. : 6 Current
WET. : 7 WET
Sig. : 8 Sig
Vth. : 9 Vth
GR.CPS : 10 GR
Timebase.ms : 11 Timebase
HeadVoltage.V : 12 Head Voltage
API.API : 13 API
Conductivity.uS : 14 Conductivity
PT100.Ohms : 15 PT100
Vmon.mV : 16 Vmon
Status. : 17 Status
Temperature.C : 18 Temperature
Incline.Deg : 19 Incline
Azimuth.Deg : 20 Azimuth
RelativeBearing.Deg : 21 Relative Bearing
MagneticToolFace.Deg : 22 Magnetic Tool Face
GravityMagnitude.G : 23 Gravity Magnitude
MagnetometerMagnitude.H : 24 Magnetometer Magnitude
Temperature.C : 25 Temperature
GX. : 26 GX
GY. : 27 GY
GZ. : 28 GZ
HX. : 29 HX
HY. : 30 HY
HZ. : 31 HZ
~PARAMETER INFORMATION SECTION
~OTHER
#-------------------------------------------------
#Produced By: GeoVista Logger - Version 7.1.107.0
Verticality Sonde - 9605
Temperature and Conductivity Sonde - Inline - 8974
Natural Gamma Sonde - 9931
WLIS - 10021
#-------------------------------------------------
~ASCII LOG DATA
# ...
12.83 12.851450 0.0 85.366670 15.066670 0.0960 0.1020 1.0 36.0 200.0 21.437910 500.833330 197.0 21.437910 2409.50 889629.538460 159.0 43.0 839587821.996070 0.0 0.0 0.0 0.0 0.0 0.0 0.0 -3.27680 -3.27680 -3.27680 -3.27680 -3.27680 -3.27680
12.82 12.843310 0.0 85.40 15.070 0.0960 0.1020 1.0 36.0 200.0 21.307190 500.0 197.0 21.307190 2409.416670 889630.461540 159.0 43.0 839589562.141150 0.0 0.0 0.0 0.0 0.0 0.0 0.0 -3.27680 -3.27680 -3.27680 -3.27680 -3.27680 -3.27680
12.81 12.830710 0.0 85.450 15.063330 0.0960 0.1020 1.0 36.0 200.0 21.176470 500.0 197.0 21.176470 2409.333330 889631.384620 159.0 43.0 839591302.286230 0.0 0.0 0.0 0.0 0.0 0.0 0.0 -3.27680 -3.27680 -3.27680 -3.27680 -3.27680 -3.27680
12.80 12.818110 0.0 85.50 15.056670 0.0960 0.1020 1.0 36.0 200.0 21.045750 500.0 197.0 21.045750 2409.250 889632.307690 159.0 43.0 839593042.43130 0.0 0.0 0.0 0.0 0.0 0.0 0.0 -3.27680 -3.27680 -3.27680 -3.27680 -3.27680 -3.27680
12.79 12.809970 0.0 85.533330 15.050 0.0960 0.1020 1.0 36.0 200.0 20.915030 500.0 197.0 20.915030 2409.166670 889633.230770 159.0 43.0 839594782.576380 0.0 0.0 0.0 0.0 0.0 0.0 0.0 -3.27680 -3.27680 -3.27680 -3.27680 -3.27680 -3.27680
12.78 12.801830 0.0 85.566670 15.043330 0.0960 0.1020 1.0 36.0 200.0 20.784310 500.0 197.0 20.784310 2409.083330 889634.153850 159.0 43.0 839596522.721460 0.0 0.0 0.0 0.0 0.0 0.0 0.0 -3.27680 -3.27680 -3.27680 -3.27680 -3.27680 -3.27680
12.77 12.793690 0.0 85.60 15.036670 0.0960 0.1020 1.0 36.0 200.0 20.653590 500.0 197.0 20.653590 2409.0 889635.076920 159.0 43.0 839598262.866540 0.0 0.0 0.0 0.0 0.0 0.0 0.0 -3.27680 -3.27680 -3.27680 -3.27680 -3.27680 -3.27680
12.76 12.781090 0.0 85.650 15.030 0.0960 0.1020 1.0 36.0 200.0 20.522880 500.0 197.0 20.522880 2406.769230 889636.0 159.0 43.0 839600003.011620 0.0 0.0 0.0 0.0 0.0 0.0 0.0 -3.27680 -3.27680 -3.27680 -3.27680 -3.27680 -3.27680
12.75 12.768490 0.0 85.70 15.023330 0.0960 0.1020 1.0 36.0 200.0 20.392160 500.0 197.0 20.392160 2404.538460 889636.666670 159.0 43.0 839601259.797170 0.0 0.0 0.0 0.0 0.0 0.0 0.0 -3.27680 -3.27680 -3.27680 -3.27680 -3.27680 -3.27680
12.74 12.760090 0.0 85.733330 15.016670 0.0960 0.101330 1.0 36.0 200.0 20.261440 500.0 197.0 20.261440 2402.307690 889637.333330 159.0 43.0 839602516.582730 0.0 0.0 0.0 0.0 0.0 0.0 0.0 -3.27680 -3.27680 -3.27680 -3.27680 -3.27680 -3.27680
12.73 12.751690 0.0 85.766670 15.010 0.0960 0.100670 1.0 36.0 200.0 20.130720 500.0 197.0 20.130720 2400.076920 889638.0 159.0 43.0 839603773.368280 0.0 0.0 0.0 0.0 0.0 0.0 0.0 -3.27680 -3.27680 -3.27680 -3.27680 -3.27680 -3.27680
12.72 12.743290 0.0 85.80 15.003330 0.0960 0.10 1.0 36.0 200.0 20.0 500.0 197.0 20.0 2397.846150 889638.666670 159.0 43.0 839605030.153840 0.0 0.0 0.0 0.0 0.0 0.0 0.0 -3.27680 -3.27680 -3.27680 -3.27680 -3.27680 -3.27680
12.71 12.731080 0.0 85.850 14.996670 0.0960 0.1010 1.0 36.0 200.0 20.307690 500.0 197.0 20.307690 2395.615380 889639.333330 159.0 43.0 839606286.939390 0.0 0.0 0.0 0.0 0.0 0.0 0.0 -3.27680 -3.27680 -3.27680 -3.27680 -3.27680 -3.27680
12.70 12.718870 0.0 85.90 14.990 0.0960 0.1020 1.0 36.0 200.0 20.615380 500.0 197.0 20.615380 2393.384620 889640.0 159.0 43.0 839607543.724950 0.0 0.0 0.0 0.0 0.0 0.0 0.0 -3.27680 -3.27680 -3.27680 -3.27680 -3.27680 -3.27680
12.69 12.710470 0.0 85.933330 14.983330 0.0960 0.1020 1.0 36.0 200.0 20.923080 500.0 197.0 20.923080 2391.153850 889640.666670 159.0 43.0 839608800.51050 0.0 0.0 0.0 0.0 0.0 0.0 0.0 -3.27680 -3.27680 -3.27680 -3.27680 -3.27680 -3.27680
12.68 12.702070 0.0 85.966670 14.976670 0.0960 0.1020 1.0 36.0 200.0 21.230770 500.0 197.0 21.230770 2388.923080 889641.333330 159.0 43.0 839610057.296060 0.0 0.0 0.0 0.0 0.0 0.0 0.0 -3.27680 -3.27680 -3.27680 -3.27680 -3.27680 -3.27680
12.67 12.693670 0.0 86.0 14.970 0.0960 0.1020 1.0 36.0 200.0 21.538460 500.0 197.0 21.538460 2386.692310 889642.0 159.0 43.0 839611314.081610 0.0 0.0 0.0 0.0 0.0 0.0 0.0 -3.27680 -3.27680 -3.27680 -3.27680 -3.27680 -3.27680
12.66 12.681070 0.0 86.050 14.970 0.0960 0.1020 1.0 36.083330 200.0 21.846150 500.0 197.0 21.846150 2384.461540 889642.666670 159.0 43.0 839612570.867160 0.0 0.0 0.0 0.0 0.0 0.0 0.0 -3.27680 -3.27680 -3.27680 -3.27680 -3.27680 -3.27680
12.65 12.668470 0.0 86.10 14.970 0.0960 0.1020 1.0 36.166670 200.0 22.153850 500.0 197.0 22.153850 2382.230770 889643.333330 159.0 43.0 839613827.652720 0.0 0.0 0.0 0.0 0.0 0.0 0.0 -3.27680 -3.27680 -3.27680 -3.27680 -3.27680 -3.27680
12.64 12.660330 0.0 86.133330 14.970 0.0960 0.1020 1.0 36.250 200.0 22.461540 500.0 197.0 22.461540 2380.0 889644.0 159.0 43.0 839615084.438270 0.0 0.0 0.0 0.0 0.0 0.0 0.0 -3.27680 -3.27680 -3.27680 -3.27680 -3.27680 -3.27680
12.63 12.652190 0.0 86.166670 14.970 0.0960 0.1020 1.0 36.333330 200.0 22.769230 500.0 197.0 22.769230 2378.583330 889644.692310 159.0 43.0 839616389.574190 0.0 0.0 0.0 0.0 0.0 0.0 0.0 -3.27680 -3.27680 -3.27680 -3.27680 -3.27680 -3.27680
12.62 12.644050 0.0 86.20 14.970 0.0960 0.1020 1.0 36.416670 200.0 23.076920 500.0 197.0 23.076920 2377.166670 889645.384620 159.0 43.0 839617694.71010 0.0 0.0 0.0 0.0 0.0 0.0 0.0 -3.27680 -3.27680 -3.27680 -3.27680 -3.27680 -3.27680
12.61 12.631450 0.0 86.250 14.970 0.0960 0.1020 1.0 36.50 200.0 23.384620 500.0 197.0 23.384620 2375.750 889646.076920 159.0 43.0 839618999.846020 0.0 0.0 0.0 0.0 0.0 0.0 0.0 -3.27680 -3.27680 -3.27680 -3.27680 -3.27680 -3.27680
12.60 12.618850 0.0 86.30 14.970 0.0960 0.1020 1.0 36.583330 200.0 23.692310 500.0 197.0 23.692310 2374.333330 889646.769230 159.0 43.0 839620304.981930 0.0 0.0 0.0 0.0 0.0 0.0 0.0 -3.27680 -3.27680 -3.27680 -3.27680 -3.27680 -3.27680
12.59 12.610450 0.0 86.333330 14.970 0.0960 0.1020 1.0 36.666670 200.0 24.0 500.0 197.0 24.0 2372.916670 889647.461540 159.0 43.0 839621610.117850 0.0 0.0 0.0 0.0 0.0 0.0 0.0 -3.27680 -3.27680 -3.27680 -3.27680 -3.27680 -3.27680
12.58 12.602050 0.0 86.366670 14.970 0.0960 0.1020 1.0 36.750 200.0 24.666670 500.0 197.0 24.666670 2371.50 889648.153850 159.0 43.0 839622915.253760 0.0 0.0 0.0 0.0 0.0 0.0 0.0 -3.27680 -3.27680 -3.27680 -3.27680 -3.27680 -3.27680
12.57 12.593640 0.0 86.40 14.970 0.0960 0.1020 1.0 36.833330 200.0 25.333330 500.0 197.0 25.333330 2370.083330 889648.846150 159.0 43.0 839624220.389680 0.0 0.0 0.0 0.0 0.0 0.0 0.0 -3.27680 -3.27680 -3.27680 -3.27680 -3.27680 -3.27680
12.56 12.581440 0.0 86.450 14.970 0.0960 0.1020 1.0 36.916670 200.0 26.0 500.0 197.0 26.0 2368.666670 889649.538460 159.0 43.0 839625525.525590 0.0 0.0 0.0 0.0 0.0 0.0 0.0 -3.27680 -3.27680 -3.27680 -3.27680 -3.27680 -3.27680
12.55 12.569230 0.0 86.50 14.970 0.0960 0.1020 1.0 37.0 200.0 26.666670 500.0 197.0 26.666670 2367.250 889650.230770 159.0 43.0 839626830.661510 0.0 0.0 0.0 0.0 0.0 0.0 0.0 -3.27680 -3.27680 -3.27680 -3.27680 -3.27680 -3.27680
12.54 12.560830 0.0 86.533330 14.970 0.0960 0.1020 1.0 37.0 200.0 27.333330 500.0 197.0 27.333330 2365.833330 889650.923080 159.0 43.0 839628135.797420 0.0 0.0 0.0 0.0 0.0 0.0 0.0 -3.27680 -3.27680 -3.27680 -3.27680 -3.27680 -3.27680
12.53 12.552430 0.0 86.566670 14.970 0.0960 0.1020 1.0 37.0 200.0 28.0 500.0 197.0 28.0 2364.416670 889651.615380 159.0 43.0 839629440.933340 0.0 0.0 0.0 0.0 0.0 0.0 0.0 -3.27680 -3.27680 -3.27680 -3.27680 -3.27680 -3.27680
12.52 12.544030 0.0 86.60 14.970 0.0960 0.1020 1.0 37.0 200.0 28.666670 500.0 197.0 28.666670 2363.0 889652.307690 159.0 43.0 839630746.069250 0.0 0.0 0.0 0.0 0.0 0.0 0.0 -3.27680 -3.27680 -3.27680 -3.27680 -3.27680 -3.27680
12.51 12.531820 0.0 86.650 14.967330 0.0960 0.1020 1.0 37.0 200.0 29.333330 500.0 197.0 29.333330 2362.307690 889653.0 159.0 43.0 839632051.205170 0.0 0.0 0.0 0.0 0.0 0.0 0.0 -3.27680 -3.27680 -3.27680 -3.27680 -3.27680 -3.27680
12.50 12.519610 0.0 86.70 14.964670 0.0960 0.1020 1.0 37.0 200.0 30.0 500.0 197.0 30.0 2361.615380 889653.833330 159.0 43.0 839633622.218860 0.0 0.0 0.0 0.0 0.0 0.0 0.0 -3.27680 -3.27680 -3.27680 -3.27680 -3.27680 -3.27680
12.49 12.511210 0.0 86.733330 14.9620 0.0960 0.1020 1.0 37.0 200.0 30.666670 500.0 197.0 30.666670 2360.923080 889654.666670 159.0 43.0 839635193.232550 0.0 0.0 0.0 0.0 0.0 0.0 0.0 -3.27680 -3.27680 -3.27680 -3.27680 -3.27680 -3.27680
