~VERSION INFORMATION SECTION
VERS. 2.0 : CWLS LAS-VERSION 2.0
WRAP. NO : One line per depth step
~WELL INFORMATION SECTION
# MNEM.UNIT VALUE/NAME DESCRIPTION
#-------- -------------- ---------------------
STRT.Metres 23 : Start
STOP.Metres -2.05 : Stop
STEP.Metres -0.01 : Step
NULL.  -999.25 :NULL VALUE
DATE. 2026-45-09 : DATE
~CURVE INFORMATION SECTION
DEPTH.Metres : 0 Depth
Depth. : 1 Depth
Tension. : 2 Tension
Time. : 3 Time
Speed. : 4 Speed
Voltage. : 5 Voltage
Current. : 6 Current
WET. : 7 WET
Sig. : 8 Sig
Vth. : 9 Vth
GR.CPS : 10 GR
Timebase.ms : 11 Timebase
HeadVoltage.V : 12 Head Voltage
API.API : 13 API
Conductivity.uS : 14 Conductivity
PT100.Ohms : 15 PT100
Vmon.mV : 16 Vmon
Status. : 17 Status
Temperature.C : 18 Temperature
Incline.Deg : 19 Incline
Azimuth.Deg : 20 Azimuth
RelativeBearing.Deg : 21 Relative Bearing
MagneticToolFace.Deg : 22 Magnetic Tool Face
GravityMagnitude.G : 23 Gravity Magnitude
MagnetometerMagnitude.H : 24 Magnetometer Magnitude
Temperature.C : 25 Temperature
GX. : 26 GX
GY. : 27 GY
GZ. : 28 GZ
HX. : 29 HX
HY. : 30 HY
HZ. : 31 HZ
~PARAMETER INFORMATION SECTION
~OTHER
#-------------------------------------------------
#Produced By: GeoVista Logger - Version 7.1.107.0
Verticality Sonde - 9605
Temperature and Conductivity Sonde - Inline - 8974
Natural Gamma Sonde - 9931
WLIS - 10021
#-------------------------------------------------
~ASCII LOG DATA
# ...
13.30 13.316390 0.0 48.933330 15.056670 0.0960 0.1020 1.0 33.0 200.0 30.0 500.0 197.0 30.0 2477.666670 889623.750 154.0 42.0 839576909.855620 0.0 0.0 0.0 0.0 0.0 0.0 0.0 -3.27680 -3.27680 -3.27680 -3.27680 -3.27680 -3.27680
13.29 13.308260 0.0 48.966670 15.063330 0.0960 0.1020 1.0 33.0 200.0 30.0 500.0 197.0 30.0 2475.833330 889624.50 154.0 42.0 839578323.710010 0.0 0.0 0.0 0.0 0.0 0.0 0.0 -3.27680 -3.27680 -3.27680 -3.27680 -3.27680 -3.27680
13.28 13.300120 0.0 49.0 15.070 0.0960 0.1020 1.0 33.0 200.0 30.0 500.0 197.0 30.0 2474.0 889625.250 154.0 42.0 839579737.564390 0.0 0.0 0.0 0.0 0.0 0.0 0.0 -3.27680 -3.27680 -3.27680 -3.27680 -3.27680 -3.27680
13.27 13.291720 0.0 49.033330 15.063330 0.0960 0.1020 1.0 33.0 200.0 30.0 500.0 197.0 30.0 2472.0 889626.0 154.0 42.0 839581151.418770 0.0 0.0 0.0 0.0 0.0 0.0 0.0 -3.27680 -3.27680 -3.27680 -3.27680 -3.27680 -3.27680
13.26 13.283310 0.0 49.066670 15.056670 0.0960 0.1020 1.0 33.0 200.0 30.0 500.0 197.0 30.0 2470.0 889626.583330 154.0 42.0 839582251.093170 0.0 0.0 0.0 0.0 0.0 0.0 0.0 -3.27680 -3.27680 -3.27680 -3.27680 -3.27680 -3.27680
13.25 13.274910 0.0 49.10 15.050 0.0960 0.1020 1.0 33.0 200.0 30.0 500.0 197.0 30.0 2468.0 889627.166670 154.0 42.0 839583350.767570 0.0 0.0 0.0 0.0 0.0 0.0 0.0 -3.27680 -3.27680 -3.27680 -3.27680 -3.27680 -3.27680
13.24 13.262310 0.0 49.150 15.043330 0.0960 0.1020 1.0 33.0 200.0 30.0 500.0 197.0 30.0 2466.0 889627.750 154.0 42.0 839584450.441970 0.0 0.0 0.0 0.0 0.0 0.0 0.0 -3.27680 -3.27680 -3.27680 -3.27680 -3.27680 -3.27680
13.23 13.249710 0.0 49.20 15.036670 0.0960 0.1020 1.0 33.0 200.0 30.0 500.0 197.0 30.0 2464.0 889628.333330 154.0 42.0 839585550.116360 0.0 0.0 0.0 0.0 0.0 0.0 0.0 -3.27680 -3.27680 -3.27680 -3.27680 -3.27680 -3.27680
13.22 13.23750 0.0 49.250 15.030 0.0960 0.1020 1.0 33.0 200.0 29.846150 500.0 197.0 29.846150 2462.0 889628.916670 154.0 42.0 839586649.790760 0.0 0.0 0.0 0.0 0.0 0.0 0.0 -3.27680 -3.27680 -3.27680 -3.27680 -3.27680 -3.27680
13.21 13.22530 0.0 49.30 15.023330 0.0960 0.1020 1.0 33.0 200.0 29.692310 500.0 197.0 29.692310 2460.0 889629.50 154.0 42.0 839587749.465160 0.0 0.0 0.0 0.0 0.0 0.0 0.0 -3.27680 -3.27680 -3.27680 -3.27680 -3.27680 -3.27680
13.20 13.216890 0.0 49.333330 15.016670 0.0960 0.1020 1.0 33.0 200.0 29.538460 500.0 197.0 29.538460 2458.0 889630.083330 154.0 42.0 839588849.139560 0.0 0.0 0.0 0.0 0.0 0.0 0.0 -3.27680 -3.27680 -3.27680 -3.27680 -3.27680 -3.27680
13.19 13.208490 0.0 49.366670 15.010 0.0960 0.1020 1.0 33.0 200.0 29.384620 500.0 197.0 29.384620 2456.0 889630.666670 154.0 42.0 839589948.813950 0.0 0.0 0.0 0.0 0.0 0.0 0.0 -3.27680 -3.27680 -3.27680 -3.27680 -3.27680 -3.27680
13.18 13.200090 0.0 49.40 15.003330 0.0960 0.1020 1.0 33.0 200.0 29.230770 500.0 197.0 29.230770 2454.0 889631.250 154.0 42.0 839591048.488350 0.0 0.0 0.0 0.0 0.0 0.0 0.0 -3.27680 -3.27680 -3.27680 -3.27680 -3.27680 -3.27680
13.17 13.191690 0.0 49.433330 14.996670 0.0960 0.1020 1.0 33.0 200.0 29.076920 500.0 197.0 29.076920 2452.0 889631.833330 154.0 42.0 839592148.162750 0.0 0.0 0.0 0.0 0.0 0.0 0.0 -3.27680 -3.27680 -3.27680 -3.27680 -3.27680 -3.27680
13.16 13.183290 0.0 49.466670 14.990 0.0960 0.1020 1.0 33.0 200.0 28.923080 500.0 197.0 28.923080 2450.0 889632.416670 154.0 42.0 839593247.837150 0.0 0.0 0.0 0.0 0.0 0.0 0.0 -3.27680 -3.27680 -3.27680 -3.27680 -3.27680 -3.27680
13.15 13.174890 0.0 49.50 14.983330 0.0960 0.1020 1.0 33.0 200.0 28.769230 500.0 197.0 28.769230 2448.0 889633.0 154.0 42.0 839594347.511540 0.0 0.0 0.0 0.0 0.0 0.0 0.0 -3.27680 -3.27680 -3.27680 -3.27680 -3.27680 -3.27680
13.14 13.162290 0.0 49.550 14.976670 0.0960 0.1020 1.0 33.0 200.0 28.615380 500.0 197.0 28.615380 2446.307690 889634.076920 154.0 42.0 839596377.703590 0.0 0.0 0.0 0.0 0.0 0.0 0.0 -3.27680 -3.27680 -3.27680 -3.27680 -3.27680 -3.27680
13.13 13.149690 0.0 49.60 14.970 0.0960 0.1020 1.0 33.0 200.0 28.461540 500.0 197.0 28.461540 2444.615380 889635.153850 154.0 42.0 839598407.895640 0.0 0.0 0.0 0.0 0.0 0.0 0.0 -3.27680 -3.27680 -3.27680 -3.27680 -3.27680 -3.27680
13.12 13.137480 0.0 49.650 14.970 0.0960 0.1020 1.0 33.0 200.0 28.307690 500.0 197.0 28.307690 2442.923080 889636.230770 154.0 42.0 839600438.087690 0.0 0.0 0.0 0.0 0.0 0.0 0.0 -3.27680 -3.27680 -3.27680 -3.27680 -3.27680 -3.27680
13.11 13.125270 0.0 49.70 14.970 0.0960 0.1020 1.0 33.0 200.0 28.153850 500.0 197.0 28.153850 2441.230770 889637.307690 154.0 42.0 839602468.279740 0.0 0.0 0.0 0.0 0.0 0.0 0.0 -3.27680 -3.27680 -3.27680 -3.27680 -3.27680 -3.27680
13.10 13.116870 0.0 49.733330 14.970 0.0960 0.1020 1.0 33.0 200.0 28.0 500.0 197.0 28.0 2439.538460 889638.384620 154.0 42.0 839604498.471790 0.0 0.0 0.0 0.0 0.0 0.0 0.0 -3.27680 -3.27680 -3.27680 -3.27680 -3.27680 -3.27680
13.09 13.108470 0.0 49.766670 14.970 0.0960 0.1020 1.0 33.0 200.0 28.333330 500.0 197.0 28.333330 2437.846150 889639.461540 154.0 42.0 839606528.663840 0.0 0.0 0.0 0.0 0.0 0.0 0.0 -3.27680 -3.27680 -3.27680 -3.27680 -3.27680 -3.27680
13.08 13.100070 0.0 49.80 14.970 0.0960 0.1020 1.0 33.0 200.0 28.666670 500.0 197.0 28.666670 2436.153850 889640.538460 154.0 42.0 839608558.855890 0.0 0.0 0.0 0.0 0.0 0.0 0.0 -3.27680 -3.27680 -3.27680 -3.27680 -3.27680 -3.27680
13.07 13.087860 0.0 49.850 14.970 0.0960 0.1010 1.0 33.0 200.0 29.0 500.0 197.0 29.0 2434.461540 889641.615380 154.0 42.0 839610589.047940 0.0 0.0 0.0 0.0 0.0 0.0 0.0 -3.27680 -3.27680 -3.27680 -3.27680 -3.27680 -3.27680
13.06 13.075650 0.0 49.90 14.970 0.0960 0.10 1.0 33.0 200.0 29.333330 500.0 197.0 29.333330 2432.769230 889642.692310 154.0 42.0 839612619.239990 0.0 0.0 0.0 0.0 0.0 0.0 0.0 -3.27680 -3.27680 -3.27680 -3.27680 -3.27680 -3.27680
13.05 13.067250 0.0 49.933330 14.970 0.0960 0.100670 1.0 33.153850 200.0 29.666670 500.0 197.0 29.666670 2431.076920 889643.769230 154.0 42.0 839614649.432040 0.0 0.0 0.0 0.0 0.0 0.0 0.0 -3.27680 -3.27680 -3.27680 -3.27680 -3.27680 -3.27680
13.04 13.058850 0.0 49.966670 14.970 0.0960 0.101330 1.0 33.307690 200.0 30.0 500.0 197.0 30.0 2429.384620 889644.846150 154.0 42.0 839616679.624090 0.0 0.0 0.0 0.0 0.0 0.0 0.0 -3.27680 -3.27680 -3.27680 -3.27680 -3.27680 -3.27680
13.03 13.050450 0.0 50.0 14.970 0.0960 0.1020 1.0 33.461540 200.0 30.333330 500.0 197.0 30.333330 2427.692310 889645.923080 154.0 42.0 839618709.816140 0.0 0.0 0.0 0.0 0.0 0.0 0.0 -3.27680 -3.27680 -3.27680 -3.27680 -3.27680 -3.27680
13.02 13.041790 0.0 50.033330 14.970 0.0960 0.1020 1.0 33.615380 200.0 30.666670 500.0 197.0 30.666670 2426.0 889647.0 154.0 42.0 839620740.008190 0.0 0.0 0.0 0.0 0.0 0.0 0.0 -3.27680 -3.27680 -3.27680 -3.27680 -3.27680 -3.27680
13.01 13.033120 0.0 50.066670 14.970 0.0960 0.1020 1.0 33.769230 200.0 31.0 500.0 197.0 31.0 2424.0 889647.461540 154.0 42.0 839621610.100270 0.0 0.0 0.0 0.0 0.0 0.0 0.0 -3.27680 -3.27680 -3.27680 -3.27680 -3.27680 -3.27680
13.00 13.024460 0.0 50.10 14.970 0.0960 0.1020 1.0 33.923080 200.0 31.333330 500.0 197.0 31.333330 2422.0 889647.923080 154.0 42.0 839622480.192340 0.0 0.0 0.0 0.0 0.0 0.0 0.0 -3.27680 -3.27680 -3.27680 -3.27680 -3.27680 -3.27680
12.99 13.011860 0.0 50.150 14.970 0.0960 0.1020 1.0 34.076920 200.0 31.666670 500.0 197.0 31.666670 2420.0 889648.384620 154.0 42.0 839623350.284420 0.0 0.0 0.0 0.0 0.0 0.0 0.0 -3.27680 -3.27680 -3.27680 -3.27680 -3.27680 -3.27680
12.98 12.999260 0.0 50.20 14.970 0.0960 0.1020 1.0 34.230770 200.0 32.0 500.0 197.0 32.0 2418.0 889648.846150 154.0 42.0 839624220.376490 0.0 0.0 0.0 0.0 0.0 0.0 0.0 -3.27680 -3.27680 -3.27680 -3.27680 -3.27680 -3.27680
12.97 12.991120 0.0 50.233330 14.976670 0.0960 0.1020 1.0 34.384620 200.0 31.846150 500.0 197.0 31.846150 2416.0 889649.307690 154.0 42.0 839625090.468570 0.0 0.0 0.0 0.0 0.0 0.0 0.0 -3.27680 -3.27680 -3.27680 -3.27680 -3.27680 -3.27680
12.96 12.982980 0.0 50.266670 14.983330 0.0960 0.1020 1.0 34.538460 200.0 31.692310 500.0 197.0 31.692310 2414.0 889649.769230 154.0 42.0 839625960.560640 0.0 0.0 0.0 0.0 0.0 0.0 0.0 -3.27680 -3.27680 -3.27680 -3.27680 -3.27680 -3.27680
12.95 12.974840 0.0 50.30 14.990 0.0960 0.1020 1.0 34.692310 200.0 31.538460 500.0 197.0 31.538460 2412.0 889650.230770 154.0 42.0 839626830.652720 0.0 0.0 0.0 0.0 0.0 0.0 0.0 -3.27680 -3.27680 -3.27680 -3.27680 -3.27680 -3.27680
