~VERSION INFORMATION SECTION
VERS. 2.0 : CWLS LAS-VERSION 2.0
WRAP. NO : One line per depth step
~WELL INFORMATION SECTION
# MNEM.UNIT VALUE/NAME DESCRIPTION
#-------- -------------- ---------------------
STRT.Metres 19 : Start
STOP.Metres -2.05 : Stop
STEP.Metres -0.01 : Step
NULL.  -999.25 :NULL VALUE
DATE. 2026-03-09 : DATE
~CURVE INFORMATION SECTION
DEPTH.Metres : 0 Depth
Depth. : 1 Depth
Tension. : 2 Tension
Time. : 3 Time
Speed. : 4 Speed
Voltage. : 5 Voltage
Current. : 6 Current
WET. : 7 WET
Sig. : 8 Sig
Vth. : 9 Vth
GR.CPS : 10 GR
Timebase.ms : 11 Timebase
HeadVoltage.V : 12 Head Voltage
API.API : 13 API
Conductivity.uS : 14 Conductivity
PT100.Ohms : 15 PT100
Vmon.mV : 16 Vmon
Status. : 17 Status
Temperature.C : 18 Temperature
Incline.Deg : 19 Incline
Azimuth.Deg : 20 Azimuth
RelativeBearing.Deg : 21 Relative Bearing
MagneticToolFace.Deg : 22 Magnetic Tool Face
GravityMagnitude.G : 23 Gravity Magnitude
MagnetometerMagnitude.H : 24 Magnetometer Magnitude
Temperature.C : 25 Temperature
GX. : 26 GX
GY. : 27 GY
GZ. : 28 GZ
HX. : 29 HX
HY. : 30 HY
HZ. : 31 HZ
~PARAMETER INFORMATION SECTION
~OTHER
#-------------------------------------------------
#Produced By: GeoVista Logger - Version 7.1.107.0
Verticality Sonde - 9605
Temperature and Conductivity Sonde - Inline - 8974
Natural Gamma Sonde - 9931
WLIS - 10021
#-------------------------------------------------
~ASCII LOG DATA
# ...
16.05 16.052760 0.0 60.80 5.050 0.0960 0.1020 1.0 12.0 200.0 21.0 500.0 197.0 21.0 3203.250 889710.50 143.250 41.0 839740454.040730 0.0 0.0 0.0 0.0 0.0 0.0 0.0 -3.27680 -3.27680 -3.27680 -3.27680 -3.27680 -3.27680
16.04 16.04410 0.0 60.90 5.040 0.0960 0.1020 1.0 12.250 200.0 26.0 500.0 197.0 26.0 3204.50 889711.0 143.50 41.0 839741396.705030 0.0 0.0 0.0 0.0 0.0 0.0 0.0 -3.27680 -3.27680 -3.27680 -3.27680 -3.27680 -3.27680
16.03 16.036220 0.0 61.0 5.030 0.0960 0.1020 1.0 12.50 200.0 22.40 500.0 197.0 22.40 3205.750 889711.50 143.750 41.0 839742339.369330 0.0 0.0 0.0 0.0 0.0 0.0 0.0 -3.27680 -3.27680 -3.27680 -3.27680 -3.27680 -3.27680
16.02 16.027560 0.0 61.10 5.020 0.0960 0.1020 1.0 12.750 200.0 18.80 500.0 197.0 18.80 3207.0 889712.0 144.0 41.0 839743282.033630 0.0 0.0 0.0 0.0 0.0 0.0 0.0 -3.27680 -3.27680 -3.27680 -3.27680 -3.27680 -3.27680
16.01 16.015740 0.0 61.250 5.010 0.0960 0.1020 1.0 13.0 200.0 15.20 500.0 197.0 15.20 3201.250 889711.0 144.0 41.0 839741396.707150 0.0 0.0 0.0 0.0 0.0 0.0 0.0 -3.27680 -3.27680 -3.27680 -3.27680 -3.27680 -3.27680
16.00 16.003140 0.0 61.40 5.0 0.0960 0.1020 1.0 13.250 200.0 11.60 502.50 197.0 11.60 3195.50 889710.0 144.0 41.0 839739511.380670 0.0 0.0 0.0 0.0 0.0 0.0 0.0 -3.27680 -3.27680 -3.27680 -3.27680 -3.27680 -3.27680
15.99 15.994480 0.0 61.50 5.0 0.0960 0.1020 1.0 13.50 200.0 8.0 505.0 197.0 8.0 3189.750 889709.0 144.0 41.0 839737626.054190 0.0 0.0 0.0 0.0 0.0 0.0 0.0 -3.27680 -3.27680 -3.27680 -3.27680 -3.27680 -3.27680
15.98 15.98660 0.0 61.60 5.0 0.0960 0.1040 1.0 13.750 200.0 8.0 507.50 197.0 8.0 3184.0 889708.0 144.0 41.0 839735740.727710 0.0 0.0 0.0 0.0 0.0 0.0 0.0 -3.27680 -3.27680 -3.27680 -3.27680 -3.27680 -3.27680
15.97 15.977940 0.0 61.70 5.0 0.0960 0.1020 1.0 14.0 200.0 8.0 510.0 197.0 8.0 3188.750 889708.40 144.0 41.0 839736494.857450 0.0 0.0 0.0 0.0 0.0 0.0 0.0 -3.27680 -3.27680 -3.27680 -3.27680 -3.27680 -3.27680
15.96 15.965340 0.0 61.850 5.0 0.0960 0.1020 1.0 14.20 200.0 8.0 507.50 197.0 8.0 3193.50 889708.80 144.0 41.0 839737248.98720 0.0 0.0 0.0 0.0 0.0 0.0 0.0 -3.27680 -3.27680 -3.27680 -3.27680 -3.27680 -3.27680
15.95 15.952740 0.0 62.0 5.0 0.0960 0.1020 1.0 14.40 200.0 8.0 505.0 197.0 8.0 3198.250 889709.20 144.0 41.0 839738003.116940 0.0 0.0 0.0 0.0 0.0 0.0 0.0 -3.27680 -3.27680 -3.27680 -3.27680 -3.27680 -3.27680
15.94 15.944860 0.0 62.10 4.9920 0.0960 0.1040 1.0 14.60 200.0 10.50 502.50 197.0 10.50 3203.0 889709.60 144.0 41.0 839738757.246690 0.0 0.0 0.0 0.0 0.0 0.0 0.0 -3.27680 -3.27680 -3.27680 -3.27680 -3.27680 -3.27680
15.93 15.93620 0.0 62.20 4.9840 0.0960 0.1020 1.0 14.80 200.0 13.0 500.0 197.0 13.0 3196.0 889710.0 144.0 41.0 839739511.376430 0.0 0.0 0.0 0.0 0.0 0.0 0.0 -3.27680 -3.27680 -3.27680 -3.27680 -3.27680 -3.27680
15.92 15.928320 0.0 62.30 4.9760 0.0960 0.1020 1.0 15.0 200.0 15.50 500.0 197.0 15.50 3189.0 889709.250 144.0 41.0 839738097.383960 0.0 0.0 0.0 0.0 0.0 0.0 0.0 -3.27680 -3.27680 -3.27680 -3.27680 -3.27680 -3.27680
15.91 15.915330 0.0 62.450 4.9680 0.0960 0.1020 1.0 14.750 200.0 18.0 500.0 197.0 18.0 3182.0 889708.50 144.0 41.0 839736683.391480 0.0 0.0 0.0 0.0 0.0 0.0 0.0 -3.27680 -3.27680 -3.27680 -3.27680 -3.27680 -3.27680
15.90 15.903120 0.0 62.60 4.960 0.0960 0.1020 1.0 14.50 200.0 16.441180 500.0 197.0 16.441180 3175.0 889707.750 144.0 41.0 839735269.3990 0.0 0.0 0.0 0.0 0.0 0.0 0.0 -3.27680 -3.27680 -3.27680 -3.27680 -3.27680 -3.27680
15.89 15.894450 0.0 62.70 4.9680 0.0960 0.1020 1.0 14.250 200.0 14.882350 500.0 197.0 14.882350 3171.50 889707.0 144.0 41.0 839733855.406520 0.0 0.0 0.0 0.0 0.0 0.0 0.0 -3.27680 -3.27680 -3.27680 -3.27680 -3.27680 -3.27680
15.88 15.886580 0.0 62.80 4.9760 0.0960 0.1020 1.0 14.0 200.0 13.323530 500.0 197.0 13.323530 3168.0 889707.250 144.0 41.0 839734326.736820 0.0 0.0 0.0 0.0 0.0 0.0 0.0 -3.27680 -3.27680 -3.27680 -3.27680 -3.27680 -3.27680
15.87 15.877920 0.0 62.90 4.9840 0.0960 0.1020 1.0 14.250 200.0 11.764710 500.0 197.0 11.764710 3164.50 889707.50 144.0 41.0 839734798.067110 0.0 0.0 0.0 0.0 0.0 0.0 0.0 -3.27680 -3.27680 -3.27680 -3.27680 -3.27680 -3.27680
15.86 15.865310 0.0 63.050 4.9920 0.0960 0.1020 1.0 14.50 200.0 11.823530 500.0 197.0 11.823530 3161.0 889707.750 144.0 41.0 839735269.397410 0.0 0.0 0.0 0.0 0.0 0.0 0.0 -3.27680 -3.27680 -3.27680 -3.27680 -3.27680 -3.27680
15.85 15.852710 0.0 63.20 5.0 0.0960 0.1020 1.0 14.750 200.0 11.882350 500.0 197.0 11.882350 3166.0 889708.0 144.0 41.0 839735740.727710 0.0 0.0 0.0 0.0 0.0 0.0 0.0 -3.27680 -3.27680 -3.27680 -3.27680 -3.27680 -3.27680
15.84 15.844840 0.0 63.30 5.010 0.0960 0.1020 1.0 15.0 200.0 11.941180 500.0 197.0 11.941180 3171.0 889708.0 143.750 41.0 839735740.727710 0.0 0.0 0.0 0.0 0.0 0.0 0.0 -3.27680 -3.27680 -3.27680 -3.27680 -3.27680 -3.27680
15.83 15.836170 0.0 63.40 5.020 0.0960 0.1020 1.0 15.0 200.0 12.0 500.0 197.0 12.0 3176.0 889708.0 143.50 41.0 839735740.727710 0.0 0.0 0.0 0.0 0.0 0.0 0.0 -3.27680 -3.27680 -3.27680 -3.27680 -3.27680 -3.27680
15.82 15.82830 0.0 63.50 5.030 0.0960 0.1020 1.0 15.0 200.0 14.50 500.0 197.0 14.50 3181.0 889708.0 143.250 41.0 839735740.727710 0.0 0.0 0.0 0.0 0.0 0.0 0.0 -3.27680 -3.27680 -3.27680 -3.27680 -3.27680 -3.27680
15.81 15.81570 0.0 63.650 5.040 0.0960 0.1020 1.0 15.0 200.0 17.0 500.0 197.0 17.0 3175.0 889708.0 143.0 41.0 839735740.727710 0.0 0.0 0.0 0.0 0.0 0.0 0.0 -3.27680 -3.27680 -3.27680 -3.27680 -3.27680 -3.27680
15.80 15.803090 0.0 63.80 5.050 0.0960 0.1040 1.0 15.0 200.0 19.50 500.0 197.0 19.50 3169.0 889707.750 143.0 41.0 839735269.397410 0.0 0.0 0.0 0.0 0.0 0.0 0.0 -3.27680 -3.27680 -3.27680 -3.27680 -3.27680 -3.27680
15.79 15.795220 0.0 63.90 5.040 0.0960 0.1020 1.0 15.250 200.0 22.0 500.0 197.0 22.0 3163.0 889707.50 143.0 41.0 839734798.067110 0.0 0.0 0.0 0.0 0.0 0.0 0.0 -3.27680 -3.27680 -3.27680 -3.27680 -3.27680 -3.27680
15.78 15.786550 0.0 64.0 5.030 0.0960 0.1020 1.0 15.50 200.0 24.0 500.0 197.0 24.0 3157.0 889707.250 143.0 41.0 839734326.736820 0.0 0.0 0.0 0.0 0.0 0.0 0.0 -3.27680 -3.27680 -3.27680 -3.27680 -3.27680 -3.27680
15.77 15.773950 0.0 64.150 5.020 0.0960 0.1020 1.0 15.750 200.0 26.0 500.0 197.0 26.0 3159.80 889707.0 143.0 41.0 839733855.406520 0.0 0.0 0.0 0.0 0.0 0.0 0.0 -3.27680 -3.27680 -3.27680 -3.27680 -3.27680 -3.27680
15.76 15.761350 0.0 64.30 5.010 0.0960 0.1020 1.0 16.0 200.0 28.0 500.0 197.0 28.0 3162.60 889707.50 143.0 41.0 839734798.067640 0.0 0.0 0.0 0.0 0.0 0.0 0.0 -3.27680 -3.27680 -3.27680 -3.27680 -3.27680 -3.27680
15.75 15.753480 0.0 64.40 5.0 0.0960 0.1020 1.0 16.0 200.0 30.0 500.0 197.0 30.0 3165.40 889708.0 143.0 41.0 839735740.728770 0.0 0.0 0.0 0.0 0.0 0.0 0.0 -3.27680 -3.27680 -3.27680 -3.27680 -3.27680 -3.27680
15.74 15.744810 0.0 64.50 4.9920 0.0960 0.1020 1.0 16.0 200.0 26.40 500.0 197.0 26.40 3168.20 889708.50 143.0 41.0 839736683.389890 0.0 0.0 0.0 0.0 0.0 0.0 0.0 -3.27680 -3.27680 -3.27680 -3.27680 -3.27680 -3.27680
15.73 15.736150 0.0 64.60 4.9840 0.0960 0.1020 1.0 16.0 200.0 22.80 500.0 197.0 22.80 3171.0 889709.0 143.0 41.0 839737626.051010 0.0 0.0 0.0 0.0 0.0 0.0 0.0 -3.27680 -3.27680 -3.27680 -3.27680 -3.27680 -3.27680
15.72 15.724330 0.0 64.750 4.9760 0.0960 0.1020 1.0 16.0 200.0 19.20 500.0 197.0 19.20 3169.50 889708.750 143.0 41.0 839737154.720190 0.0 0.0 0.0 0.0 0.0 0.0 0.0 -3.27680 -3.27680 -3.27680 -3.27680 -3.27680 -3.27680
15.71 15.711730 0.0 64.90 4.9680 0.0960 0.1020 1.0 15.50 200.0 15.60 500.0 197.0 15.60 3168.0 889708.50 143.0 41.0 839736683.389360 0.0 0.0 0.0 0.0 0.0 0.0 0.0 -3.27680 -3.27680 -3.27680 -3.27680 -3.27680 -3.27680
15.70 15.703070 0.0 65.0 4.960 0.0960 0.1020 1.0 15.0 200.0 12.0 500.0 197.0 12.0 3166.50 889708.250 143.0 41.0 839736212.058530 0.0 0.0 0.0 0.0 0.0 0.0 0.0 -3.27680 -3.27680 -3.27680 -3.27680 -3.27680 -3.27680
15.69 15.695190 0.0 65.10 4.960 0.0960 0.1020 1.0 14.50 200.0 12.0 500.0 197.0 12.0 3165.0 889708.0 143.0 41.0 839735740.727710 0.0 0.0 0.0 0.0 0.0 0.0 0.0 -3.27680 -3.27680 -3.27680 -3.27680 -3.27680 -3.27680
15.68 15.686530 0.0 65.20 4.960 0.0960 0.1020 1.0 14.0 200.0 12.0 500.0 197.0 12.0 3159.250 889707.50 143.0 41.0 839734798.067640 0.0 0.0 0.0 0.0 0.0 0.0 0.0 -3.27680 -3.27680 -3.27680 -3.27680 -3.27680 -3.27680
