~VERSION INFORMATION SECTION
VERS. 2.0 : CWLS LAS-VERSION 2.0
WRAP. NO : One line per depth step
~WELL INFORMATION SECTION
# MNEM.UNIT VALUE/NAME DESCRIPTION
#-------- -------------- ---------------------
STRT.Metres 26 : Start
STOP.Metres -2.05 : Stop
STEP.Metres -0.01 : Step
NULL.  -999.25 :NULL VALUE
DATE. 2026-29-09 : DATE
~CURVE INFORMATION SECTION
DEPTH.Metres : 0 Depth
Depth. : 1 Depth
Tension. : 2 Tension
Time. : 3 Time
Speed. : 4 Speed
Voltage. : 5 Voltage
Current. : 6 Current
WET. : 7 WET
Sig. : 8 Sig
Vth. : 9 Vth
GR.CPS : 10 GR
Timebase.ms : 11 Timebase
HeadVoltage.V : 12 Head Voltage
API.API : 13 API
Conductivity.uS : 14 Conductivity
PT100.Ohms : 15 PT100
Vmon.mV : 16 Vmon
Status. : 17 Status
Temperature.C : 18 Temperature
Incline.Deg : 19 Incline
Azimuth.Deg : 20 Azimuth
RelativeBearing.Deg : 21 Relative Bearing
MagneticToolFace.Deg : 22 Magnetic Tool Face
GravityMagnitude.G : 23 Gravity Magnitude
MagnetometerMagnitude.H : 24 Magnetometer Magnitude
Temperature.C : 25 Temperature
GX. : 26 GX
GY. : 27 GY
GZ. : 28 GZ
HX. : 29 HX
HY. : 30 HY
HZ. : 31 HZ
~PARAMETER INFORMATION SECTION
~OTHER
#-------------------------------------------------
#Produced By: GeoVista Logger - Version 7.1.107.0
Verticality Sonde - 9605
Temperature and Conductivity Sonde - Inline - 8974
Natural Gamma Sonde - 9931
WLIS - 10021
#-------------------------------------------------
~ASCII LOG DATA
# ...
19.50 19.522120 0.0 124.750 14.973330 0.0960 0.1020 1.0 1.333330 200.0 23.384620 500.0 197.0 23.384620 11642.916670 889093.692310 146.692310 43.0 838577972.111960 0.0 0.0 0.0 0.0 0.0 0.0 0.0 -3.27680 -3.27680 -3.27680 -3.27680 -3.27680 -3.27680
19.49 19.509520 0.0 124.80 14.976670 0.0960 0.1020 1.0 1.416670 200.0 23.538460 500.0 197.0 23.538460 11598.833330 889094.384620 146.769230 43.0 838579276.440550 0.0 0.0 0.0 0.0 0.0 0.0 0.0 -3.27680 -3.27680 -3.27680 -3.27680 -3.27680 -3.27680
19.48 19.496910 0.0 124.850 14.980 0.0960 0.1020 1.0 1.50 200.0 23.692310 500.0 197.0 23.692310 11554.750 889095.076920 146.846150 43.0 838580580.769140 0.0 0.0 0.0 0.0 0.0 0.0 0.0 -3.27680 -3.27680 -3.27680 -3.27680 -3.27680 -3.27680
19.47 19.484310 0.0 124.90 14.983330 0.0960 0.1020 1.0 1.583330 200.0 23.846150 500.0 197.0 23.846150 11510.666670 889095.769230 146.923080 43.0 838581885.097730 0.0 0.0 0.0 0.0 0.0 0.0 0.0 -3.27680 -3.27680 -3.27680 -3.27680 -3.27680 -3.27680
19.46 19.476440 0.0 124.933330 14.986670 0.0960 0.1020 1.0 1.666670 200.0 24.0 500.0 197.0 24.0 11466.583330 889096.461540 147.0 43.0 838583189.426320 0.0 0.0 0.0 0.0 0.0 0.0 0.0 -3.27680 -3.27680 -3.27680 -3.27680 -3.27680 -3.27680
19.45 19.468560 0.0 124.966670 14.990 0.0960 0.1020 1.0 1.750 200.0 24.166670 500.0 197.0 24.166670 11422.50 889097.153850 146.916670 43.0 838584493.754910 0.0 0.0 0.0 0.0 0.0 0.0 0.0 -3.27680 -3.27680 -3.27680 -3.27680 -3.27680 -3.27680
19.44 19.460680 0.0 125.0 14.993330 0.0960 0.1020 1.0 1.833330 200.0 24.333330 500.0 197.0 24.333330 11378.416670 889097.846150 146.833330 43.0 838585798.08350 0.0 0.0 0.0 0.0 0.0 0.0 0.0 -3.27680 -3.27680 -3.27680 -3.27680 -3.27680 -3.27680
19.43 19.452280 0.0 125.033330 14.996670 0.0960 0.1020 1.0 1.916670 200.0 24.50 500.0 197.0 24.50 11334.333330 889098.538460 146.750 43.0 838587102.412090 0.0 0.0 0.0 0.0 0.0 0.0 0.0 -3.27680 -3.27680 -3.27680 -3.27680 -3.27680 -3.27680
19.42 19.443880 0.0 125.066670 15.0 0.0960 0.1020 1.0 2.0 200.0 24.666670 500.0 197.0 24.666670 11290.250 889099.230770 146.666670 43.0 838588406.740680 0.0 0.0 0.0 0.0 0.0 0.0 0.0 -3.27680 -3.27680 -3.27680 -3.27680 -3.27680 -3.27680
19.41 19.435480 0.0 125.10 15.003330 0.0960 0.1020 1.0 2.0 200.0 24.833330 500.0 197.0 24.833330 11246.166670 889099.923080 146.583330 43.0 838589711.069270 0.0 0.0 0.0 0.0 0.0 0.0 0.0 -3.27680 -3.27680 -3.27680 -3.27680 -3.27680 -3.27680
19.40 19.422490 0.0 125.150 15.006670 0.0960 0.1020 1.0 2.0 200.0 25.0 500.0 197.0 25.0 11202.083330 889100.615380 146.50 43.0 838591015.397860 0.0 0.0 0.0 0.0 0.0 0.0 0.0 -3.27680 -3.27680 -3.27680 -3.27680 -3.27680 -3.27680
19.39 19.409490 0.0 125.20 15.010 0.0960 0.1020 1.0 2.0 200.0 25.166670 500.0 197.0 25.166670 11158.0 889101.307690 146.416670 43.0 838592319.726450 0.0 0.0 0.0 0.0 0.0 0.0 0.0 -3.27680 -3.27680 -3.27680 -3.27680 -3.27680 -3.27680
19.38 19.401350 0.0 125.233330 15.013330 0.0960 0.1020 1.0 2.0 200.0 25.333330 500.0 197.0 25.333330 11114.384620 889102.0 146.333330 43.0 838593624.055040 0.0 0.0 0.0 0.0 0.0 0.0 0.0 -3.27680 -3.27680 -3.27680 -3.27680 -3.27680 -3.27680
19.37 19.393210 0.0 125.266670 15.016670 0.0960 0.1020 1.0 2.0 200.0 25.50 500.0 197.0 25.50 11070.769230 889102.50 146.250 43.0 838594566.078070 0.0 0.0 0.0 0.0 0.0 0.0 0.0 -3.27680 -3.27680 -3.27680 -3.27680 -3.27680 -3.27680
19.36 19.385080 0.0 125.30 15.020 0.0960 0.1020 1.0 2.0 200.0 25.666670 500.0 197.0 25.666670 11027.153850 889103.0 146.166670 43.0 838595508.10110 0.0 0.0 0.0 0.0 0.0 0.0 0.0 -3.27680 -3.27680 -3.27680 -3.27680 -3.27680 -3.27680
19.35 19.372470 0.0 125.350 15.013570 0.0960 0.1030 1.0 2.0 200.0 25.833330 500.0 197.0 25.833330 10983.538460 889103.50 146.083330 43.0 838596450.124130 0.0 0.0 0.0 0.0 0.0 0.0 0.0 -3.27680 -3.27680 -3.27680 -3.27680 -3.27680 -3.27680
19.34 19.359870 0.0 125.40 15.007140 0.0960 0.1040 1.0 2.0 200.0 26.0 500.0 197.0 26.0 10939.923080 889104.0 146.0 43.0 838597392.147160 0.0 0.0 0.0 0.0 0.0 0.0 0.0 -3.27680 -3.27680 -3.27680 -3.27680 -3.27680 -3.27680
19.33 19.347660 0.0 125.450 15.000710 0.0960 0.1030 1.0 2.0 200.0 26.461540 500.0 197.0 26.461540 10896.307690 889104.50 146.076920 43.0 838598334.170180 0.0 0.0 0.0 0.0 0.0 0.0 0.0 -3.27680 -3.27680 -3.27680 -3.27680 -3.27680 -3.27680
19.32 19.335460 0.0 125.50 14.994290 0.0960 0.1020 1.0 2.0 200.0 26.923080 500.0 197.0 26.923080 10852.692310 889105.0 146.153850 43.0 838599276.193210 0.0 0.0 0.0 0.0 0.0 0.0 0.0 -3.27680 -3.27680 -3.27680 -3.27680 -3.27680 -3.27680
19.31 19.327060 0.0 125.533330 14.987860 0.0960 0.1020 1.0 2.0 200.0 27.384620 500.0 197.0 27.384620 10809.076920 889105.50 146.230770 43.0 838600218.216240 0.0 0.0 0.0 0.0 0.0 0.0 0.0 -3.27680 -3.27680 -3.27680 -3.27680 -3.27680 -3.27680
19.30 19.318660 0.0 125.566670 14.981430 0.0960 0.1020 1.0 2.0 200.0 27.846150 500.0 197.0 27.846150 10765.461540 889106.0 146.307690 43.0 838601160.239270 0.0 0.0 0.0 0.0 0.0 0.0 0.0 -3.27680 -3.27680 -3.27680 -3.27680 -3.27680 -3.27680
19.29 19.310250 0.0 125.60 14.9750 0.0960 0.1020 1.0 2.0 200.0 28.307690 500.0 197.0 28.307690 10721.846150 889106.50 146.384620 43.0 838602102.26230 0.0 0.0 0.0 0.0 0.0 0.0 0.0 -3.27680 -3.27680 -3.27680 -3.27680 -3.27680 -3.27680
19.28 19.301850 0.0 125.633330 14.968570 0.0960 0.1020 1.0 2.083330 200.0 28.769230 500.0 197.0 28.769230 10678.230770 889107.0 146.461540 43.0 838603044.285330 0.0 0.0 0.0 0.0 0.0 0.0 0.0 -3.27680 -3.27680 -3.27680 -3.27680 -3.27680 -3.27680
19.27 19.293450 0.0 125.666670 14.962140 0.0960 0.1020 1.0 2.166670 200.0 29.230770 500.0 197.0 29.230770 10634.615380 889107.50 146.538460 43.0 838603986.308360 0.0 0.0 0.0 0.0 0.0 0.0 0.0 -3.27680 -3.27680 -3.27680 -3.27680 -3.27680 -3.27680
19.26 19.285050 0.0 125.70 14.955710 0.0960 0.1020 1.0 2.250 200.0 29.692310 500.0 197.0 29.692310 10591.0 889108.0 146.615380 43.0 838604928.331390 0.0 0.0 0.0 0.0 0.0 0.0 0.0 -3.27680 -3.27680 -3.27680 -3.27680 -3.27680 -3.27680
19.25 19.272450 0.0 125.750 14.949290 0.0960 0.1020 1.0 2.333330 200.0 30.153850 500.0 197.0 30.153850 10547.0 889108.769230 146.692310 43.0 838606377.610610 0.0 0.0 0.0 0.0 0.0 0.0 0.0 -3.27680 -3.27680 -3.27680 -3.27680 -3.27680 -3.27680
19.24 19.259850 0.0 125.80 14.942860 0.0960 0.1020 1.0 2.416670 200.0 30.615380 500.0 197.0 30.615380 10503.0 889109.538460 146.769230 43.0 838607826.889830 0.0 0.0 0.0 0.0 0.0 0.0 0.0 -3.27680 -3.27680 -3.27680 -3.27680 -3.27680 -3.27680
19.23 19.247640 0.0 125.850 14.936430 0.0960 0.1020 1.0 2.50 200.0 31.076920 500.0 197.0 31.076920 10459.0 889110.307690 146.846150 43.0 838609276.169060 0.0 0.0 0.0 0.0 0.0 0.0 0.0 -3.27680 -3.27680 -3.27680 -3.27680 -3.27680 -3.27680
19.22 19.235430 0.0 125.90 14.930 0.0960 0.1020 1.0 2.583330 200.0 31.538460 500.0 197.0 31.538460 10415.0 889111.076920 146.923080 43.0 838610725.448280 0.0 0.0 0.0 0.0 0.0 0.0 0.0 -3.27680 -3.27680 -3.27680 -3.27680 -3.27680 -3.27680
19.21 19.227290 0.0 125.933330 14.930 0.0960 0.102670 1.0 2.666670 200.0 32.0 500.0 197.0 32.0 10371.0 889111.846150 147.0 43.0 838612174.72750 0.0 0.0 0.0 0.0 0.0 0.0 0.0 -3.27680 -3.27680 -3.27680 -3.27680 -3.27680 -3.27680
19.20 19.219160 0.0 125.966670 14.930 0.0960 0.103330 1.0 2.750 200.0 31.333330 500.0 197.0 31.333330 10327.0 889112.615380 147.083330 43.0 838613624.006720 0.0 0.0 0.0 0.0 0.0 0.0 0.0 -3.27680 -3.27680 -3.27680 -3.27680 -3.27680 -3.27680
19.19 19.211020 0.0 126.0 14.930 0.0960 0.1040 1.0 2.833330 200.0 30.666670 500.0 197.0 30.666670 10283.0 889113.384620 147.166670 43.0 838615073.285940 0.0 0.0 0.0 0.0 0.0 0.0 0.0 -3.27680 -3.27680 -3.27680 -3.27680 -3.27680 -3.27680
19.18 19.202350 0.0 126.033330 14.930 0.0960 0.103330 1.0 2.916670 200.0 30.0 500.0 197.0 30.0 10239.0 889114.153850 147.250 43.0 838616522.565170 0.0 0.0 0.0 0.0 0.0 0.0 0.0 -3.27680 -3.27680 -3.27680 -3.27680 -3.27680 -3.27680
19.17 19.193690 0.0 126.066670 14.930 0.0960 0.102670 1.0 3.0 200.0 29.333330 500.0 197.0 29.333330 10195.0 889114.923080 147.333330 43.0 838617971.844390 0.0 0.0 0.0 0.0 0.0 0.0 0.0 -3.27680 -3.27680 -3.27680 -3.27680 -3.27680 -3.27680
