~VERSION INFORMATION SECTION
VERS. 2.0 : CWLS LAS-VERSION 2.0
WRAP. NO : One line per depth step
~WELL INFORMATION SECTION
# MNEM.UNIT VALUE/NAME DESCRIPTION
#-------- -------------- ---------------------
STRT.Metres 26 : Start
STOP.Metres -2.05 : Stop
STEP.Metres -0.01 : Step
NULL.  -999.25 :NULL VALUE
DATE. 2026-40-09 : DATE
~CURVE INFORMATION SECTION
DEPTH.Metres : 0 Depth
Depth. : 1 Depth
Tension. : 2 Tension
Time. : 3 Time
Speed. : 4 Speed
Voltage. : 5 Voltage
Current. : 6 Current
WET. : 7 WET
Sig. : 8 Sig
Vth. : 9 Vth
GR.CPS : 10 GR
Timebase.ms : 11 Timebase
HeadVoltage.V : 12 Head Voltage
API.API : 13 API
Conductivity.uS : 14 Conductivity
PT100.Ohms : 15 PT100
Vmon.mV : 16 Vmon
Status. : 17 Status
Temperature.C : 18 Temperature
Incline.Deg : 19 Incline
Azimuth.Deg : 20 Azimuth
RelativeBearing.Deg : 21 Relative Bearing
MagneticToolFace.Deg : 22 Magnetic Tool Face
GravityMagnitude.G : 23 Gravity Magnitude
MagnetometerMagnitude.H : 24 Magnetometer Magnitude
Temperature.C : 25 Temperature
GX. : 26 GX
GY. : 27 GY
GZ. : 28 GZ
HX. : 29 HX
HY. : 30 HY
HZ. : 31 HZ
~PARAMETER INFORMATION SECTION
~OTHER
#-------------------------------------------------
#Produced By: GeoVista Logger - Version 7.1.107.0
Verticality Sonde - 9605
Temperature and Conductivity Sonde - Inline - 8974
Natural Gamma Sonde - 9931
WLIS - 10021
#-------------------------------------------------
~ASCII LOG DATA
# ...
11.08 11.0980 0.0 92.50 14.990 0.0960 0.1020 1.0 39.0 200.0 16.0 501.538460 197.0 16.0 2226.50 889784.0 156.0 42.0 839879031.368750 0.0 0.0 0.0 0.0 0.0 0.0 0.0 -3.27680 -3.27680 -3.27680 -3.27680 -3.27680 -3.27680
11.07 11.08960 0.0 92.533330 14.9840 0.0960 0.1020 1.0 39.076920 200.0 16.0 502.307690 197.0 16.0 2225.0 889785.0 156.0 42.0 839880916.846560 0.0 0.0 0.0 0.0 0.0 0.0 0.0 -3.27680 -3.27680 -3.27680 -3.27680 -3.27680 -3.27680
11.06 11.08120 0.0 92.566670 14.9780 0.0960 0.1020 1.0 39.153850 200.0 16.0 503.076920 197.0 16.0 2223.50 889786.0 156.0 42.0 839882802.324360 0.0 0.0 0.0 0.0 0.0 0.0 0.0 -3.27680 -3.27680 -3.27680 -3.27680 -3.27680 -3.27680
11.05 11.07280 0.0 92.60 14.9720 0.0960 0.1020 1.0 39.230770 200.0 16.0 503.846150 197.0 16.0 2222.0 889787.0 156.0 42.0 839884687.802160 0.0 0.0 0.0 0.0 0.0 0.0 0.0 -3.27680 -3.27680 -3.27680 -3.27680 -3.27680 -3.27680
11.04 11.060590 0.0 92.650 14.9660 0.0960 0.1020 1.0 39.307690 200.0 16.0 504.615380 197.0 16.0 2220.846150 889788.0 156.0 42.0 839886573.279960 0.0 0.0 0.0 0.0 0.0 0.0 0.0 -3.27680 -3.27680 -3.27680 -3.27680 -3.27680 -3.27680
11.03 11.048380 0.0 92.70 14.960 0.0960 0.1020 1.0 39.384620 200.0 16.0 505.384620 197.0 16.0 2219.692310 889789.250 156.0 42.0 839888930.164250 0.0 0.0 0.0 0.0 0.0 0.0 0.0 -3.27680 -3.27680 -3.27680 -3.27680 -3.27680 -3.27680
11.02 11.039980 0.0 92.733330 14.9540 0.0960 0.1020 1.0 39.461540 200.0 16.0 506.153850 197.0 16.0 2218.538460 889790.50 156.0 42.0 839891287.048540 0.0 0.0 0.0 0.0 0.0 0.0 0.0 -3.27680 -3.27680 -3.27680 -3.27680 -3.27680 -3.27680
11.01 11.031580 0.0 92.766670 14.9480 0.0960 0.1020 1.0 39.538460 200.0 16.0 506.923080 197.0 16.0 2217.384620 889791.750 156.0 42.0 839893643.932830 0.0 0.0 0.0 0.0 0.0 0.0 0.0 -3.27680 -3.27680 -3.27680 -3.27680 -3.27680 -3.27680
11.00 11.023180 0.0 92.80 14.9420 0.0960 0.1020 1.0 39.615380 200.0 16.0 507.692310 197.0 16.0 2216.230770 889793.0 156.0 42.0 839896000.817120 0.0 0.0 0.0 0.0 0.0 0.0 0.0 -3.27680 -3.27680 -3.27680 -3.27680 -3.27680 -3.27680
10.99 11.010970 0.0 92.850 14.9360 0.0960 0.1020 1.0 39.692310 200.0 15.825040 508.461540 197.0 15.825040 2215.076920 889794.250 156.076920 42.0 839898357.701410 0.0 0.0 0.0 0.0 0.0 0.0 0.0 -3.27680 -3.27680 -3.27680 -3.27680 -3.27680 -3.27680
10.98 10.998760 0.0 92.90 14.930 0.0960 0.1020 1.0 39.769230 200.0 15.650080 509.230770 197.0 15.650080 2213.923080 889795.50 156.153850 42.0 839900714.58570 0.0 0.0 0.0 0.0 0.0 0.0 0.0 -3.27680 -3.27680 -3.27680 -3.27680 -3.27680 -3.27680
10.97 10.990360 0.0 92.933330 14.932670 0.0960 0.1020 1.0 39.846150 200.0 15.475110 510.0 197.0 15.475110 2212.769230 889796.750 156.230770 42.0 839903071.470 0.0 0.0 0.0 0.0 0.0 0.0 0.0 -3.27680 -3.27680 -3.27680 -3.27680 -3.27680 -3.27680
10.96 10.981960 0.0 92.966670 14.935330 0.0960 0.1020 1.0 39.923080 200.0 15.300150 509.166670 197.0 15.300150 2211.615380 889798.0 156.307690 42.0 839905428.354290 0.0 0.0 0.0 0.0 0.0 0.0 0.0 -3.27680 -3.27680 -3.27680 -3.27680 -3.27680 -3.27680
10.95 10.973560 0.0 93.0 14.9380 0.0960 0.1020 1.0 40.0 200.0 15.125190 508.333330 197.0 15.125190 2210.461540 889799.250 156.384620 42.0 839907785.238580 0.0 0.0 0.0 0.0 0.0 0.0 0.0 -3.27680 -3.27680 -3.27680 -3.27680 -3.27680 -3.27680
10.94 10.960960 0.0 93.050 14.940670 0.0960 0.1020 1.0 40.0 200.0 14.950230 507.50 197.0 14.950230 2209.307690 889800.50 156.461540 42.0 839910142.122870 0.0 0.0 0.0 0.0 0.0 0.0 0.0 -3.27680 -3.27680 -3.27680 -3.27680 -3.27680 -3.27680
10.93 10.948360 0.0 93.10 14.943330 0.0960 0.1020 1.0 40.0 200.0 14.775260 506.666670 197.0 14.775260 2208.153850 889801.750 156.538460 42.0 839912499.007160 0.0 0.0 0.0 0.0 0.0 0.0 0.0 -3.27680 -3.27680 -3.27680 -3.27680 -3.27680 -3.27680
10.92 10.939960 0.0 93.133330 14.9460 0.0960 0.1020 1.0 40.0 200.0 14.60030 505.833330 197.0 14.60030 2207.0 889803.0 156.615380 42.0 839914855.891450 0.0 0.0 0.0 0.0 0.0 0.0 0.0 -3.27680 -3.27680 -3.27680 -3.27680 -3.27680 -3.27680
10.91 10.931560 0.0 93.166670 14.948670 0.0960 0.1020 1.0 40.0 200.0 14.425340 505.0 197.0 14.425340 2204.833330 889804.153850 156.692310 42.0 839917031.513570 0.0 0.0 0.0 0.0 0.0 0.0 0.0 -3.27680 -3.27680 -3.27680 -3.27680 -3.27680 -3.27680
10.90 10.923160 0.0 93.20 14.951330 0.0960 0.1020 1.0 40.0 200.0 14.250380 504.166670 197.0 14.250380 2202.666670 889805.307690 156.769230 42.0 839919207.13570 0.0 0.0 0.0 0.0 0.0 0.0 0.0 -3.27680 -3.27680 -3.27680 -3.27680 -3.27680 -3.27680
10.89 10.910550 0.0 93.250 14.9540 0.0960 0.1020 1.0 40.0 200.0 14.075410 503.333330 197.0 14.075410 2200.50 889806.461540 156.846150 42.0 839921382.757830 0.0 0.0 0.0 0.0 0.0 0.0 0.0 -3.27680 -3.27680 -3.27680 -3.27680 -3.27680 -3.27680
10.88 10.897950 0.0 93.30 14.956670 0.0960 0.1020 1.0 40.0 200.0 13.900450 502.50 197.0 13.900450 2198.333330 889807.615380 156.923080 42.0 839923558.379960 0.0 0.0 0.0 0.0 0.0 0.0 0.0 -3.27680 -3.27680 -3.27680 -3.27680 -3.27680 -3.27680
10.87 10.889550 0.0 93.333330 14.959330 0.0960 0.1020 1.0 40.0 200.0 13.725490 501.666670 197.0 13.725490 2196.166670 889808.769230 157.0 42.0 839925734.002090 0.0 0.0 0.0 0.0 0.0 0.0 0.0 -3.27680 -3.27680 -3.27680 -3.27680 -3.27680 -3.27680
10.86 10.881150 0.0 93.366670 14.9620 0.0960 0.1020 1.0 40.0 200.0 13.915030 500.833330 197.0 13.915030 2194.0 889809.923080 156.916670 42.0 839927909.624220 0.0 0.0 0.0 0.0 0.0 0.0 0.0 -3.27680 -3.27680 -3.27680 -3.27680 -3.27680 -3.27680
10.85 10.872750 0.0 93.40 14.964670 0.0960 0.1020 1.0 40.0 200.0 14.104580 500.0 197.0 14.104580 2191.833330 889811.076920 156.833330 42.0 839930085.246350 0.0 0.0 0.0 0.0 0.0 0.0 0.0 -3.27680 -3.27680 -3.27680 -3.27680 -3.27680 -3.27680
10.84 10.859750 0.0 93.450 14.967330 0.0960 0.1020 1.0 40.0 200.0 14.294120 500.0 197.0 14.294120 2189.666670 889812.230770 156.750 42.0 839932260.868480 0.0 0.0 0.0 0.0 0.0 0.0 0.0 -3.27680 -3.27680 -3.27680 -3.27680 -3.27680 -3.27680
10.83 10.846760 0.0 93.50 14.970 0.0960 0.1020 1.0 40.0 200.0 14.483660 500.0 197.0 14.483660 2187.50 889813.384620 156.666670 42.0 839934436.49060 0.0 0.0 0.0 0.0 0.0 0.0 0.0 -3.27680 -3.27680 -3.27680 -3.27680 -3.27680 -3.27680
10.82 10.838620 0.0 93.533330 14.980 0.0960 0.1020 1.0 40.0 200.0 14.67320 500.0 197.0 14.67320 2185.333330 889814.538460 156.583330 42.0 839936612.112730 0.0 0.0 0.0 0.0 0.0 0.0 0.0 -3.27680 -3.27680 -3.27680 -3.27680 -3.27680 -3.27680
10.81 10.830480 0.0 93.566670 14.990 0.0960 0.1020 1.0 40.0 200.0 14.862750 500.0 197.0 14.862750 2183.166670 889815.692310 156.50 42.0 839938787.734860 0.0 0.0 0.0 0.0 0.0 0.0 0.0 -3.27680 -3.27680 -3.27680 -3.27680 -3.27680 -3.27680
10.80 10.822340 0.0 93.60 15.0 0.0960 0.1020 1.0 40.0 200.0 15.052290 500.0 197.0 15.052290 2181.0 889816.846150 156.416670 42.0 839940963.356990 0.0 0.0 0.0 0.0 0.0 0.0 0.0 -3.27680 -3.27680 -3.27680 -3.27680 -3.27680 -3.27680
10.79 10.810140 0.0 93.650 15.010 0.0960 0.1020 1.0 40.0 200.0 15.241830 500.0 197.0 15.241830 2181.538460 889818.0 156.333330 42.0 839943138.979120 0.0 0.0 0.0 0.0 0.0 0.0 0.0 -3.27680 -3.27680 -3.27680 -3.27680 -3.27680 -3.27680
10.78 10.797930 0.0 93.70 15.020 0.0960 0.1020 1.0 40.0 200.0 15.431370 500.0 197.0 15.431370 2182.076920 889819.250 156.250 42.0 839945495.942770 0.0 0.0 0.0 0.0 0.0 0.0 0.0 -3.27680 -3.27680 -3.27680 -3.27680 -3.27680 -3.27680
10.77 10.789530 0.0 93.733330 15.030 0.0960 0.1020 1.0 40.0 200.0 15.620920 500.0 197.0 15.620920 2182.615380 889820.50 156.166670 42.0 839947852.906430 0.0 0.0 0.0 0.0 0.0 0.0 0.0 -3.27680 -3.27680 -3.27680 -3.27680 -3.27680 -3.27680
10.76 10.781130 0.0 93.766670 15.040 0.0960 0.1020 1.0 40.0 200.0 15.810460 500.0 197.0 15.810460 2183.153850 889821.750 156.083330 42.0 839950209.870090 0.0 0.0 0.0 0.0 0.0 0.0 0.0 -3.27680 -3.27680 -3.27680 -3.27680 -3.27680 -3.27680
10.75 10.772720 0.0 93.80 15.050 0.0960 0.1020 1.0 40.0 200.0 16.0 500.0 197.0 16.0 2183.692310 889823.0 156.0 42.0 839952566.833740 0.0 0.0 0.0 0.0 0.0 0.0 0.0 -3.27680 -3.27680 -3.27680 -3.27680 -3.27680 -3.27680
10.74 10.760120 0.0 93.850 15.060 0.0960 0.1020 1.0 40.0 200.0 15.538460 500.0 197.0 15.538460 2184.230770 889824.250 156.0 42.0 839954923.79740 0.0 0.0 0.0 0.0 0.0 0.0 0.0 -3.27680 -3.27680 -3.27680 -3.27680 -3.27680 -3.27680
