~VERSION INFORMATION SECTION
VERS. 2.0 : CWLS LAS-VERSION 2.0
WRAP. NO : One line per depth step
~WELL INFORMATION SECTION
# MNEM.UNIT VALUE/NAME DESCRIPTION
#-------- -------------- ---------------------
STRT.Metres 26 : Start
STOP.Metres -2.05 : Stop
STEP.Metres -0.01 : Step
NULL.  -999.25 :NULL VALUE
DATE. 2026-29-09 : DATE
~CURVE INFORMATION SECTION
DEPTH.Metres : 0 Depth
Depth. : 1 Depth
Tension. : 2 Tension
Time. : 3 Time
Speed. : 4 Speed
Voltage. : 5 Voltage
Current. : 6 Current
WET. : 7 WET
Sig. : 8 Sig
Vth. : 9 Vth
GR.CPS : 10 GR
Timebase.ms : 11 Timebase
HeadVoltage.V : 12 Head Voltage
API.API : 13 API
Conductivity.uS : 14 Conductivity
PT100.Ohms : 15 PT100
Vmon.mV : 16 Vmon
Status. : 17 Status
Temperature.C : 18 Temperature
Incline.Deg : 19 Incline
Azimuth.Deg : 20 Azimuth
RelativeBearing.Deg : 21 Relative Bearing
MagneticToolFace.Deg : 22 Magnetic Tool Face
GravityMagnitude.G : 23 Gravity Magnitude
MagnetometerMagnitude.H : 24 Magnetometer Magnitude
Temperature.C : 25 Temperature
GX. : 26 GX
GY. : 27 GY
GZ. : 28 GZ
HX. : 29 HX
HY. : 30 HY
HZ. : 31 HZ
~PARAMETER INFORMATION SECTION
~OTHER
#-------------------------------------------------
#Produced By: GeoVista Logger - Version 7.1.107.0
Verticality Sonde - 9605
Temperature and Conductivity Sonde - Inline - 8974
Natural Gamma Sonde - 9931
WLIS - 10021
#-------------------------------------------------
~ASCII LOG DATA
# ...
4.41 4.42760 0.0 185.133330 15.056670 0.0960 0.1020 1.0 41.846150 200.0 20.615380 500.0 197.0 20.615380 1765.384620 890729.666670 160.0 43.0 841663016.192160 0.0 0.0 0.0 0.0 0.0 0.0 0.0 -3.27680 -3.27680 -3.27680 -3.27680 -3.27680 -3.27680
4.40 4.419460 0.0 185.166670 15.060 0.0960 0.1020 1.0 41.923080 200.0 20.153850 500.0 197.0 20.153850 1764.307690 890730.333330 160.0 43.0 841664274.514220 0.0 0.0 0.0 0.0 0.0 0.0 0.0 -3.27680 -3.27680 -3.27680 -3.27680 -3.27680 -3.27680
4.39 4.411320 0.0 185.20 15.063330 0.0960 0.1020 1.0 42.0 200.0 19.692310 500.0 197.0 19.692310 1763.230770 890731.0 160.0 43.0 841665532.836280 0.0 0.0 0.0 0.0 0.0 0.0 0.0 -3.27680 -3.27680 -3.27680 -3.27680 -3.27680 -3.27680
4.38 4.398720 0.0 185.250 15.066670 0.0960 0.1020 1.0 42.0 200.0 19.230770 500.0 197.0 19.230770 1762.153850 890731.666670 160.0 43.0 841666791.158340 0.0 0.0 0.0 0.0 0.0 0.0 0.0 -3.27680 -3.27680 -3.27680 -3.27680 -3.27680 -3.27680
4.37 4.386120 0.0 185.30 15.070 0.0960 0.1020 1.0 42.0 200.0 18.769230 500.0 197.0 18.769230 1761.076920 890732.333330 160.0 43.0 841668049.48040 0.0 0.0 0.0 0.0 0.0 0.0 0.0 -3.27680 -3.27680 -3.27680 -3.27680 -3.27680 -3.27680
4.36 4.377720 0.0 185.333330 15.063330 0.0960 0.1020 1.0 42.0 200.0 18.307690 500.0 197.0 18.307690 1760.0 890733.0 160.0 43.0 841669307.802460 0.0 0.0 0.0 0.0 0.0 0.0 0.0 -3.27680 -3.27680 -3.27680 -3.27680 -3.27680 -3.27680
4.35 4.369310 0.0 185.366670 15.056670 0.0960 0.1020 1.0 42.0 200.0 17.846150 500.0 197.0 17.846150 1760.416670 890733.230770 160.0 43.0 841669743.378170 0.0 0.0 0.0 0.0 0.0 0.0 0.0 -3.27680 -3.27680 -3.27680 -3.27680 -3.27680 -3.27680
4.34 4.360910 0.0 185.40 15.050 0.0960 0.1020 1.0 42.0 200.0 17.384620 500.0 197.0 17.384620 1760.833330 890733.461540 160.0 43.0 841670178.953880 0.0 0.0 0.0 0.0 0.0 0.0 0.0 -3.27680 -3.27680 -3.27680 -3.27680 -3.27680 -3.27680
4.33 4.348710 0.0 185.450 15.043330 0.0960 0.1020 1.0 42.0 200.0 16.923080 500.0 197.0 16.923080 1761.250 890733.692310 160.0 43.0 841670614.529580 0.0 0.0 0.0 0.0 0.0 0.0 0.0 -3.27680 -3.27680 -3.27680 -3.27680 -3.27680 -3.27680
4.32 4.33650 0.0 185.50 15.036670 0.0960 0.1020 1.0 42.0 200.0 16.461540 500.0 197.0 16.461540 1761.666670 890733.923080 160.0 43.0 841671050.105290 0.0 0.0 0.0 0.0 0.0 0.0 0.0 -3.27680 -3.27680 -3.27680 -3.27680 -3.27680 -3.27680
4.31 4.32810 0.0 185.533330 15.030 0.0960 0.1020 1.0 42.0 200.0 16.0 500.0 197.0 16.0 1762.083330 890734.153850 160.0 43.0 841671485.6810 0.0 0.0 0.0 0.0 0.0 0.0 0.0 -3.27680 -3.27680 -3.27680 -3.27680 -3.27680 -3.27680
4.30 4.31970 0.0 185.566670 15.023330 0.0960 0.1020 1.0 42.0 200.0 15.666670 500.0 197.0 15.666670 1762.50 890734.384620 160.0 43.0 841671921.256710 0.0 0.0 0.0 0.0 0.0 0.0 0.0 -3.27680 -3.27680 -3.27680 -3.27680 -3.27680 -3.27680
4.29 4.31130 0.0 185.60 15.016670 0.0960 0.1020 1.0 42.0 200.0 15.333330 500.0 197.0 15.333330 1762.916670 890734.615380 160.0 43.0 841672356.832410 0.0 0.0 0.0 0.0 0.0 0.0 0.0 -3.27680 -3.27680 -3.27680 -3.27680 -3.27680 -3.27680
4.28 4.298690 0.0 185.650 15.010 0.0960 0.1020 1.0 42.0 200.0 15.0 500.0 197.0 15.0 1763.333330 890734.846150 160.0 43.0 841672792.408120 0.0 0.0 0.0 0.0 0.0 0.0 0.0 -3.27680 -3.27680 -3.27680 -3.27680 -3.27680 -3.27680
4.27 4.286090 0.0 185.70 15.003330 0.0960 0.1020 1.0 42.0 200.0 14.666670 500.0 197.0 14.666670 1763.750 890735.076920 160.0 43.0 841673227.983830 0.0 0.0 0.0 0.0 0.0 0.0 0.0 -3.27680 -3.27680 -3.27680 -3.27680 -3.27680 -3.27680
4.26 4.277690 0.0 185.733330 14.996670 0.0960 0.1020 1.0 42.0 200.0 14.333330 500.0 197.0 14.333330 1764.166670 890735.307690 160.0 43.0 841673663.559540 0.0 0.0 0.0 0.0 0.0 0.0 0.0 -3.27680 -3.27680 -3.27680 -3.27680 -3.27680 -3.27680
4.25 4.269290 0.0 185.766670 14.990 0.0960 0.1020 1.0 42.0 200.0 14.0 500.0 197.0 14.0 1764.583330 890735.538460 160.0 43.0 841674099.135240 0.0 0.0 0.0 0.0 0.0 0.0 0.0 -3.27680 -3.27680 -3.27680 -3.27680 -3.27680 -3.27680
4.24 4.260890 0.0 185.80 14.983330 0.0960 0.1020 1.0 42.0 200.0 13.666670 500.0 197.0 13.666670 1765.0 890735.769230 160.0 43.0 841674534.710950 0.0 0.0 0.0 0.0 0.0 0.0 0.0 -3.27680 -3.27680 -3.27680 -3.27680 -3.27680 -3.27680
4.23 4.248680 0.0 185.850 14.976670 0.0960 0.1020 1.0 42.0 200.0 13.333330 500.0 197.0 13.333330 1763.384620 890736.0 160.0 43.0 841674970.286660 0.0 0.0 0.0 0.0 0.0 0.0 0.0 -3.27680 -3.27680 -3.27680 -3.27680 -3.27680 -3.27680
4.22 4.236470 0.0 185.90 14.970 0.0960 0.1020 1.0 42.0 200.0 13.0 500.0 197.0 13.0 1761.769230 890736.166670 160.0 43.0 841675284.869990 0.0 0.0 0.0 0.0 0.0 0.0 0.0 -3.27680 -3.27680 -3.27680 -3.27680 -3.27680 -3.27680
4.21 4.228070 0.0 185.933330 14.970 0.0960 0.1020 1.0 42.0 200.0 12.666670 500.0 197.0 12.666670 1760.153850 890736.333330 160.0 43.0 841675599.453330 0.0 0.0 0.0 0.0 0.0 0.0 0.0 -3.27680 -3.27680 -3.27680 -3.27680 -3.27680 -3.27680
4.20 4.219670 0.0 185.966670 14.970 0.0960 0.1020 1.0 42.0 200.0 12.333330 500.0 197.0 12.333330 1758.538460 890736.50 160.0 43.0 841675914.036670 0.0 0.0 0.0 0.0 0.0 0.0 0.0 -3.27680 -3.27680 -3.27680 -3.27680 -3.27680 -3.27680
4.19 4.211270 0.0 186.0 14.970 0.0960 0.1020 1.0 42.0 200.0 12.0 500.0 197.0 12.0 1756.923080 890736.666670 160.0 43.0 841676228.620010 0.0 0.0 0.0 0.0 0.0 0.0 0.0 -3.27680 -3.27680 -3.27680 -3.27680 -3.27680 -3.27680
4.18 4.199060 0.0 186.050 14.970 0.0960 0.1020 1.0 42.0 200.0 13.230770 500.0 197.0 13.230770 1755.307690 890736.833330 160.0 43.0 841676543.203340 0.0 0.0 0.0 0.0 0.0 0.0 0.0 -3.27680 -3.27680 -3.27680 -3.27680 -3.27680 -3.27680
4.17 4.186860 0.0 186.10 14.970 0.0960 0.1020 1.0 42.0 200.0 14.461540 500.0 197.0 14.461540 1753.692310 890737.0 160.0 43.0 841676857.786680 0.0 0.0 0.0 0.0 0.0 0.0 0.0 -3.27680 -3.27680 -3.27680 -3.27680 -3.27680 -3.27680
4.16 4.178450 0.0 186.133330 14.970 0.0960 0.1020 1.0 42.0 200.0 15.692310 500.0 197.0 15.692310 1752.076920 890737.166670 160.0 43.0 841677172.370020 0.0 0.0 0.0 0.0 0.0 0.0 0.0 -3.27680 -3.27680 -3.27680 -3.27680 -3.27680 -3.27680
4.15 4.170050 0.0 186.166670 14.970 0.0960 0.1020 1.0 42.0 200.0 16.923080 500.0 197.0 16.923080 1750.461540 890737.333330 160.0 43.0 841677486.953350 0.0 0.0 0.0 0.0 0.0 0.0 0.0 -3.27680 -3.27680 -3.27680 -3.27680 -3.27680 -3.27680
4.14 4.161650 0.0 186.20 14.970 0.0960 0.1020 1.0 42.0 200.0 18.153850 500.0 197.0 18.153850 1748.846150 890737.50 160.0 43.0 841677801.536690 0.0 0.0 0.0 0.0 0.0 0.0 0.0 -3.27680 -3.27680 -3.27680 -3.27680 -3.27680 -3.27680
4.13 4.149050 0.0 186.250 14.970 0.0960 0.1020 1.0 42.0 200.0 19.384620 500.0 197.0 19.384620 1747.230770 890737.666670 160.0 43.0 841678116.120030 0.0 0.0 0.0 0.0 0.0 0.0 0.0 -3.27680 -3.27680 -3.27680 -3.27680 -3.27680 -3.27680
4.12 4.136450 0.0 186.30 14.970 0.0960 0.1020 1.0 42.0 200.0 20.615380 500.0 197.0 20.615380 1745.615380 890737.833330 160.0 43.0 841678430.703370 0.0 0.0 0.0 0.0 0.0 0.0 0.0 -3.27680 -3.27680 -3.27680 -3.27680 -3.27680 -3.27680
4.11 4.128050 0.0 186.333330 14.970 0.0960 0.1020 1.0 42.0 200.0 21.846150 500.0 197.0 21.846150 1744.0 890738.0 160.0 43.0 841678745.28670 0.0 0.0 0.0 0.0 0.0 0.0 0.0 -3.27680 -3.27680 -3.27680 -3.27680 -3.27680 -3.27680
4.10 4.119650 0.0 186.366670 14.970 0.0960 0.1020 1.0 42.0 200.0 23.076920 500.0 197.0 23.076920 1745.750 890738.384620 160.0 43.0 841679471.25110 0.0 0.0 0.0 0.0 0.0 0.0 0.0 -3.27680 -3.27680 -3.27680 -3.27680 -3.27680 -3.27680
4.09 4.111250 0.0 186.40 14.970 0.0960 0.1020 1.0 42.0 200.0 24.307690 500.0 197.0 24.307690 1747.50 890738.769230 160.0 43.0 841680197.21550 0.0 0.0 0.0 0.0 0.0 0.0 0.0 -3.27680 -3.27680 -3.27680 -3.27680 -3.27680 -3.27680
4.08 4.098640 0.0 186.450 14.970 0.0960 0.1020 1.0 42.0 200.0 25.538460 500.0 197.0 25.538460 1749.250 890739.153850 160.0 43.0 841680923.179890 0.0 0.0 0.0 0.0 0.0 0.0 0.0 -3.27680 -3.27680 -3.27680 -3.27680 -3.27680 -3.27680
4.07 4.086040 0.0 186.50 14.970 0.0960 0.1020 1.0 42.0 200.0 26.769230 500.0 197.0 26.769230 1751.0 890739.538460 160.0 43.0 841681649.144290 0.0 0.0 0.0 0.0 0.0 0.0 0.0 -3.27680 -3.27680 -3.27680 -3.27680 -3.27680 -3.27680
4.06 4.077640 0.0 186.533330 14.976670 0.0960 0.1020 1.0 42.0 200.0 28.0 500.0 197.0 28.0 1752.750 890739.923080 160.0 43.0 841682375.108680 0.0 0.0 0.0 0.0 0.0 0.0 0.0 -3.27680 -3.27680 -3.27680 -3.27680 -3.27680 -3.27680
