~VERSION INFORMATION SECTION
VERS. 2.0 : CWLS LAS-VERSION 2.0
WRAP. NO : One line per depth step
~WELL INFORMATION SECTION
# MNEM.UNIT VALUE/NAME DESCRIPTION
#-------- -------------- ---------------------
STRT.Metres 23 : Start
STOP.Metres -2.05 : Stop
STEP.Metres -0.01 : Step
NULL.  -999.25 :NULL VALUE
DATE. 2026-45-09 : DATE
~CURVE INFORMATION SECTION
DEPTH.Metres : 0 Depth
Depth. : 1 Depth
Tension. : 2 Tension
Time. : 3 Time
Speed. : 4 Speed
Voltage. : 5 Voltage
Current. : 6 Current
WET. : 7 WET
Sig. : 8 Sig
Vth. : 9 Vth
GR.CPS : 10 GR
Timebase.ms : 11 Timebase
HeadVoltage.V : 12 Head Voltage
API.API : 13 API
Conductivity.uS : 14 Conductivity
PT100.Ohms : 15 PT100
Vmon.mV : 16 Vmon
Status. : 17 Status
Temperature.C : 18 Temperature
Incline.Deg : 19 Incline
Azimuth.Deg : 20 Azimuth
RelativeBearing.Deg : 21 Relative Bearing
MagneticToolFace.Deg : 22 Magnetic Tool Face
GravityMagnitude.G : 23 Gravity Magnitude
MagnetometerMagnitude.H : 24 Magnetometer Magnitude
Temperature.C : 25 Temperature
GX. : 26 GX
GY. : 27 GY
GZ. : 28 GZ
HX. : 29 HX
HY. : 30 HY
HZ. : 31 HZ
~PARAMETER INFORMATION SECTION
~OTHER
#-------------------------------------------------
#Produced By: GeoVista Logger - Version 7.1.107.0
Verticality Sonde - 9605
Temperature and Conductivity Sonde - Inline - 8974
Natural Gamma Sonde - 9931
WLIS - 10021
#-------------------------------------------------
~ASCII LOG DATA
# ...
17.85 17.866860 0.0 30.733330 15.037330 0.0960 0.1020 1.0 5.666670 200.0 17.647060 501.666670 197.0 17.647060 5523.384620 889291.230770 148.0 42.0 838950180.261030 0.0 0.0 0.0 0.0 0.0 0.0 0.0 -3.27680 -3.27680 -3.27680 -3.27680 -3.27680 -3.27680
17.84 17.858450 0.0 30.766670 15.0220 0.0960 0.1020 1.0 5.750 200.0 18.00980 500.833330 197.0 18.00980 5507.461540 889292.076920 148.0 42.0 838951774.789620 0.0 0.0 0.0 0.0 0.0 0.0 0.0 -3.27680 -3.27680 -3.27680 -3.27680 -3.27680 -3.27680
17.83 17.850050 0.0 30.80 15.006670 0.0960 0.1020 1.0 5.833330 200.0 18.372550 500.0 197.0 18.372550 5491.538460 889292.923080 148.0 42.0 838953369.318220 0.0 0.0 0.0 0.0 0.0 0.0 0.0 -3.27680 -3.27680 -3.27680 -3.27680 -3.27680 -3.27680
17.82 17.841650 0.0 30.833330 14.991330 0.0960 0.1020 1.0 5.916670 200.0 18.735290 500.0 197.0 18.735290 5475.615380 889293.769230 148.0 42.0 838954963.846810 0.0 0.0 0.0 0.0 0.0 0.0 0.0 -3.27680 -3.27680 -3.27680 -3.27680 -3.27680 -3.27680
17.81 17.833250 0.0 30.866670 14.9760 0.0960 0.1020 1.0 6.0 200.0 19.098040 500.0 197.0 19.098040 5459.692310 889294.615380 148.0 42.0 838956558.37540 0.0 0.0 0.0 0.0 0.0 0.0 0.0 -3.27680 -3.27680 -3.27680 -3.27680 -3.27680 -3.27680
17.80 17.824850 0.0 30.90 14.960670 0.0960 0.1020 1.0 6.0 200.0 19.460780 500.0 197.0 19.460780 5443.769230 889295.461540 148.0 42.0 838958152.9040 0.0 0.0 0.0 0.0 0.0 0.0 0.0 -3.27680 -3.27680 -3.27680 -3.27680 -3.27680 -3.27680
17.79 17.812250 0.0 30.950 14.945330 0.0960 0.1020 1.0 6.0 200.0 19.823530 500.0 197.0 19.823530 5427.846150 889296.307690 148.0 42.0 838959747.432590 0.0 0.0 0.0 0.0 0.0 0.0 0.0 -3.27680 -3.27680 -3.27680 -3.27680 -3.27680 -3.27680
17.78 17.799650 0.0 31.0 14.930 0.0960 0.1020 1.0 6.0 200.0 20.186270 500.0 197.0 20.186270 5411.923080 889297.153850 148.0 42.0 838961341.961180 0.0 0.0 0.0 0.0 0.0 0.0 0.0 -3.27680 -3.27680 -3.27680 -3.27680 -3.27680 -3.27680
17.77 17.787440 0.0 31.050 14.932670 0.0960 0.1020 1.0 6.0 200.0 20.549020 500.0 197.0 20.549020 5396.0 889298.0 148.0 42.0 838962936.489780 0.0 0.0 0.0 0.0 0.0 0.0 0.0 -3.27680 -3.27680 -3.27680 -3.27680 -3.27680 -3.27680
17.76 17.775230 0.0 31.10 14.935330 0.0960 0.1020 1.0 6.0 200.0 20.911760 500.0 197.0 20.911760 5380.50 889298.692310 148.0 42.0 838964241.118730 0.0 0.0 0.0 0.0 0.0 0.0 0.0 -3.27680 -3.27680 -3.27680 -3.27680 -3.27680 -3.27680
17.75 17.766830 0.0 31.133330 14.9380 0.0960 0.1020 1.0 6.0 200.0 21.274510 500.0 197.0 21.274510 5365.0 889299.384620 148.0 42.0 838965545.747690 0.0 0.0 0.0 0.0 0.0 0.0 0.0 -3.27680 -3.27680 -3.27680 -3.27680 -3.27680 -3.27680
17.74 17.758430 0.0 31.166670 14.940670 0.0960 0.1020 1.0 6.0 200.0 21.637250 500.0 197.0 21.637250 5349.50 889300.076920 148.0 42.0 838966850.376640 0.0 0.0 0.0 0.0 0.0 0.0 0.0 -3.27680 -3.27680 -3.27680 -3.27680 -3.27680 -3.27680
17.73 17.750030 0.0 31.20 14.943330 0.0960 0.1020 1.0 6.0 200.0 22.0 500.0 197.0 22.0 5334.0 889300.769230 148.0 42.0 838968155.00560 0.0 0.0 0.0 0.0 0.0 0.0 0.0 -3.27680 -3.27680 -3.27680 -3.27680 -3.27680 -3.27680
17.72 17.741630 0.0 31.233330 14.9460 0.0960 0.1020 1.0 6.0 200.0 21.538460 500.0 197.0 21.538460 5318.50 889301.461540 148.076920 42.0 838969459.634550 0.0 0.0 0.0 0.0 0.0 0.0 0.0 -3.27680 -3.27680 -3.27680 -3.27680 -3.27680 -3.27680
17.71 17.733230 0.0 31.266670 14.948670 0.0960 0.1020 1.0 6.0 200.0 21.076920 500.0 197.0 21.076920 5303.0 889302.153850 148.153850 42.0 838970764.263510 0.0 0.0 0.0 0.0 0.0 0.0 0.0 -3.27680 -3.27680 -3.27680 -3.27680 -3.27680 -3.27680
17.70 17.724830 0.0 31.30 14.951330 0.0960 0.1020 1.0 6.0 200.0 20.615380 500.0 197.0 20.615380 5287.50 889302.846150 148.230770 42.0 838972068.892460 0.0 0.0 0.0 0.0 0.0 0.0 0.0 -3.27680 -3.27680 -3.27680 -3.27680 -3.27680 -3.27680
17.69 17.712220 0.0 31.350 14.9540 0.0960 0.1020 1.0 6.0 200.0 20.153850 500.0 197.0 20.153850 5272.0 889303.538460 148.307690 42.0 838973373.521420 0.0 0.0 0.0 0.0 0.0 0.0 0.0 -3.27680 -3.27680 -3.27680 -3.27680 -3.27680 -3.27680
17.68 17.699620 0.0 31.40 14.956670 0.0960 0.1020 1.0 6.0 200.0 19.692310 500.0 197.0 19.692310 5256.50 889304.230770 148.384620 42.0 838974678.150380 0.0 0.0 0.0 0.0 0.0 0.0 0.0 -3.27680 -3.27680 -3.27680 -3.27680 -3.27680 -3.27680
17.67 17.687410 0.0 31.450 14.959330 0.0960 0.1020 1.0 6.0 200.0 19.230770 500.0 197.0 19.230770 5241.0 889304.923080 148.461540 42.0 838975982.779330 0.0 0.0 0.0 0.0 0.0 0.0 0.0 -3.27680 -3.27680 -3.27680 -3.27680 -3.27680 -3.27680
17.66 17.675210 0.0 31.50 14.9620 0.0960 0.1020 1.0 6.0 200.0 18.769230 500.0 197.0 18.769230 5225.50 889305.615380 148.538460 42.0 838977287.408290 0.0 0.0 0.0 0.0 0.0 0.0 0.0 -3.27680 -3.27680 -3.27680 -3.27680 -3.27680 -3.27680
17.65 17.666810 0.0 31.533330 14.964670 0.0960 0.1020 1.0 6.0 200.0 18.307690 500.0 197.0 18.307690 5210.0 889306.307690 148.615380 42.0 838978592.037240 0.0 0.0 0.0 0.0 0.0 0.0 0.0 -3.27680 -3.27680 -3.27680 -3.27680 -3.27680 -3.27680
17.64 17.65840 0.0 31.566670 14.967330 0.0960 0.1020 1.0 6.0 200.0 17.846150 500.0 197.0 17.846150 5194.50 889307.0 148.692310 42.0 838979896.66620 0.0 0.0 0.0 0.0 0.0 0.0 0.0 -3.27680 -3.27680 -3.27680 -3.27680 -3.27680 -3.27680
17.63 17.650 0.0 31.60 14.970 0.0960 0.1020 1.0 6.0 200.0 17.384620 500.0 197.0 17.384620 5179.0 889307.750 148.769230 42.0 838981310.028520 0.0 0.0 0.0 0.0 0.0 0.0 0.0 -3.27680 -3.27680 -3.27680 -3.27680 -3.27680 -3.27680
17.62 17.64160 0.0 31.633330 14.970 0.0960 0.1020 1.0 6.0 200.0 16.923080 500.0 197.0 16.923080 5163.50 889308.50 148.846150 42.0 838982723.390840 0.0 0.0 0.0 0.0 0.0 0.0 0.0 -3.27680 -3.27680 -3.27680 -3.27680 -3.27680 -3.27680
17.61 17.63320 0.0 31.666670 14.970 0.0960 0.1020 1.0 6.0 200.0 16.461540 500.0 197.0 16.461540 5148.0 889309.250 148.923080 42.0 838984136.753160 0.0 0.0 0.0 0.0 0.0 0.0 0.0 -3.27680 -3.27680 -3.27680 -3.27680 -3.27680 -3.27680
17.60 17.62480 0.0 31.70 14.970 0.0960 0.1020 1.0 6.0 200.0 16.0 500.0 197.0 16.0 5132.50 889310.0 149.0 42.0 838985550.115480 0.0 0.0 0.0 0.0 0.0 0.0 0.0 -3.27680 -3.27680 -3.27680 -3.27680 -3.27680 -3.27680
17.59 17.61220 0.0 31.750 14.970 0.0960 0.1020 1.0 6.0 200.0 17.833330 500.0 197.0 17.833330 5117.0 889310.750 148.916670 42.0 838986963.47780 0.0 0.0 0.0 0.0 0.0 0.0 0.0 -3.27680 -3.27680 -3.27680 -3.27680 -3.27680 -3.27680
17.58 17.59960 0.0 31.80 14.970 0.0960 0.1020 1.0 6.0 200.0 19.666670 500.0 197.0 19.666670 5101.50 889311.50 148.833330 42.0 838988376.840120 0.0 0.0 0.0 0.0 0.0 0.0 0.0 -3.27680 -3.27680 -3.27680 -3.27680 -3.27680 -3.27680
17.57 17.59120 0.0 31.833330 14.970 0.0960 0.1020 1.0 6.0 200.0 21.50 500.0 197.0 21.50 5086.0 889312.250 148.750 42.0 838989790.202440 0.0 0.0 0.0 0.0 0.0 0.0 0.0 -3.27680 -3.27680 -3.27680 -3.27680 -3.27680 -3.27680
17.56 17.58280 0.0 31.866670 14.970 0.0960 0.1020 1.0 6.0 200.0 23.333330 500.0 197.0 23.333330 5070.50 889313.0 148.666670 42.0 838991203.564770 0.0 0.0 0.0 0.0 0.0 0.0 0.0 -3.27680 -3.27680 -3.27680 -3.27680 -3.27680 -3.27680
17.55 17.574390 0.0 31.90 14.970 0.0960 0.1020 1.0 6.0 200.0 25.166670 500.0 197.0 25.166670 5055.0 889313.750 148.583330 42.0 838992616.927090 0.0 0.0 0.0 0.0 0.0 0.0 0.0 -3.27680 -3.27680 -3.27680 -3.27680 -3.27680 -3.27680
17.54 17.562190 0.0 31.950 14.970 0.0960 0.1020 1.0 6.083330 200.0 27.0 500.0 197.0 27.0 5039.50 889314.50 148.50 42.0 838994030.289410 0.0 0.0 0.0 0.0 0.0 0.0 0.0 -3.27680 -3.27680 -3.27680 -3.27680 -3.27680 -3.27680
17.53 17.549980 0.0 32.0 14.970 0.0960 0.1020 1.0 6.166670 200.0 28.833330 500.0 197.0 28.833330 5024.0 889315.250 148.416670 42.0 838995443.651730 0.0 0.0 0.0 0.0 0.0 0.0 0.0 -3.27680 -3.27680 -3.27680 -3.27680 -3.27680 -3.27680
17.52 17.541580 0.0 32.033330 14.970 0.0960 0.1020 1.0 6.250 200.0 30.666670 500.0 197.0 30.666670 5008.153850 889316.0 148.333330 42.0 838996857.014050 0.0 0.0 0.0 0.0 0.0 0.0 0.0 -3.27680 -3.27680 -3.27680 -3.27680 -3.27680 -3.27680
17.51 17.533180 0.0 32.066670 14.970 0.0960 0.1020 1.0 6.333330 200.0 32.50 500.0 197.0 32.50 4992.307690 889316.583330 148.250 42.0 838997956.305730 0.0 0.0 0.0 0.0 0.0 0.0 0.0 -3.27680 -3.27680 -3.27680 -3.27680 -3.27680 -3.27680
