~VERSION INFORMATION SECTION
VERS. 2.0 : CWLS LAS-VERSION 2.0
WRAP. NO : One line per depth step
~WELL INFORMATION SECTION
# MNEM.UNIT VALUE/NAME DESCRIPTION
#-------- -------------- ---------------------
STRT.Metres 23 : Start
STOP.Metres -2.05 : Stop
STEP.Metres -0.01 : Step
NULL.  -999.25 :NULL VALUE
DATE. 2026-45-09 : DATE
~CURVE INFORMATION SECTION
DEPTH.Metres : 0 Depth
Depth. : 1 Depth
Tension. : 2 Tension
Time. : 3 Time
Speed. : 4 Speed
Voltage. : 5 Voltage
Current. : 6 Current
WET. : 7 WET
Sig. : 8 Sig
Vth. : 9 Vth
GR.CPS : 10 GR
Timebase.ms : 11 Timebase
HeadVoltage.V : 12 Head Voltage
API.API : 13 API
Conductivity.uS : 14 Conductivity
PT100.Ohms : 15 PT100
Vmon.mV : 16 Vmon
Status. : 17 Status
Temperature.C : 18 Temperature
Incline.Deg : 19 Incline
Azimuth.Deg : 20 Azimuth
RelativeBearing.Deg : 21 Relative Bearing
MagneticToolFace.Deg : 22 Magnetic Tool Face
GravityMagnitude.G : 23 Gravity Magnitude
MagnetometerMagnitude.H : 24 Magnetometer Magnitude
Temperature.C : 25 Temperature
GX. : 26 GX
GY. : 27 GY
GZ. : 28 GZ
HX. : 29 HX
HY. : 30 HY
HZ. : 31 HZ
~PARAMETER INFORMATION SECTION
~OTHER
#-------------------------------------------------
#Produced By: GeoVista Logger - Version 7.1.107.0
Verticality Sonde - 9605
Temperature and Conductivity Sonde - Inline - 8974
Natural Gamma Sonde - 9931
WLIS - 10021
#-------------------------------------------------
~ASCII LOG DATA
# ...
3.73 3.748160 0.0 87.20 14.926670 0.0960 0.1020 1.0 42.416670 200.0 36.696830 502.50 197.0 36.696830 1735.333330 890699.923080 155.076920 42.0 841606876.54920 0.0 0.0 0.0 0.0 0.0 0.0 0.0 -3.27680 -3.27680 -3.27680 -3.27680 -3.27680 -3.27680
3.72 3.740030 0.0 87.233330 14.917330 0.0960 0.1020 1.0 42.333330 200.0 37.25490 501.666670 197.0 37.25490 1733.916670 890700.153850 155.0 42.0 841607312.108310 0.0 0.0 0.0 0.0 0.0 0.0 0.0 -3.27680 -3.27680 -3.27680 -3.27680 -3.27680 -3.27680
3.71 3.731890 0.0 87.266670 14.9080 0.0960 0.1020 1.0 42.250 200.0 36.650330 500.833330 197.0 36.650330 1732.50 890700.384620 155.0 42.0 841607747.667410 0.0 0.0 0.0 0.0 0.0 0.0 0.0 -3.27680 -3.27680 -3.27680 -3.27680 -3.27680 -3.27680
3.70 3.723750 0.0 87.30 14.898670 0.0960 0.1020 1.0 42.166670 200.0 36.045750 500.0 197.0 36.045750 1731.083330 890700.615380 155.0 42.0 841608183.226510 0.0 0.0 0.0 0.0 0.0 0.0 0.0 -3.27680 -3.27680 -3.27680 -3.27680 -3.27680 -3.27680
3.69 3.711150 0.0 87.350 14.889330 0.0960 0.1020 1.0 42.083330 200.0 35.441180 500.0 197.0 35.441180 1729.666670 890700.846150 155.0 42.0 841608618.785610 0.0 0.0 0.0 0.0 0.0 0.0 0.0 -3.27680 -3.27680 -3.27680 -3.27680 -3.27680 -3.27680
3.68 3.698550 0.0 87.40 14.880 0.0960 0.1020 1.0 42.0 200.0 34.83660 500.0 197.0 34.83660 1728.250 890701.076920 155.0 42.0 841609054.344710 0.0 0.0 0.0 0.0 0.0 0.0 0.0 -3.27680 -3.27680 -3.27680 -3.27680 -3.27680 -3.27680
3.67 3.690150 0.0 87.433330 14.8860 0.0960 0.1020 1.0 42.076920 200.0 34.232030 500.0 197.0 34.232030 1726.833330 890701.307690 155.0 42.0 841609489.903810 0.0 0.0 0.0 0.0 0.0 0.0 0.0 -3.27680 -3.27680 -3.27680 -3.27680 -3.27680 -3.27680
3.66 3.681740 0.0 87.466670 14.8920 0.0960 0.1020 1.0 42.153850 200.0 33.627450 500.0 197.0 33.627450 1725.416670 890701.538460 155.0 42.0 841609925.462920 0.0 0.0 0.0 0.0 0.0 0.0 0.0 -3.27680 -3.27680 -3.27680 -3.27680 -3.27680 -3.27680
3.65 3.673340 0.0 87.50 14.8980 0.0960 0.1020 1.0 42.230770 200.0 33.022880 500.0 197.0 33.022880 1724.0 890701.769230 155.0 42.0 841610361.022020 0.0 0.0 0.0 0.0 0.0 0.0 0.0 -3.27680 -3.27680 -3.27680 -3.27680 -3.27680 -3.27680
3.64 3.660740 0.0 87.550 14.9040 0.0960 0.1020 1.0 42.307690 200.0 32.41830 500.0 197.0 32.41830 1724.230770 890702.0 155.0 42.0 841610796.581120 0.0 0.0 0.0 0.0 0.0 0.0 0.0 -3.27680 -3.27680 -3.27680 -3.27680 -3.27680 -3.27680
3.63 3.648140 0.0 87.60 14.910 0.0960 0.1020 1.0 42.384620 200.0 31.813730 500.0 197.0 31.813730 1724.461540 890701.916670 155.0 42.0 841610639.295710 0.0 0.0 0.0 0.0 0.0 0.0 0.0 -3.27680 -3.27680 -3.27680 -3.27680 -3.27680 -3.27680
3.62 3.639740 0.0 87.633330 14.9160 0.0960 0.1020 1.0 42.461540 200.0 31.209150 500.0 197.0 31.209150 1724.692310 890701.833330 155.0 42.0 841610482.01030 0.0 0.0 0.0 0.0 0.0 0.0 0.0 -3.27680 -3.27680 -3.27680 -3.27680 -3.27680 -3.27680
3.61 3.631340 0.0 87.666670 14.9220 0.0960 0.1020 1.0 42.538460 200.0 30.604580 500.0 197.0 30.604580 1724.923080 890701.750 155.0 42.0 841610324.72490 0.0 0.0 0.0 0.0 0.0 0.0 0.0 -3.27680 -3.27680 -3.27680 -3.27680 -3.27680 -3.27680
3.60 3.622940 0.0 87.70 14.9280 0.0960 0.1020 1.0 42.615380 200.0 30.0 500.0 197.0 30.0 1725.153850 890701.666670 155.0 42.0 841610167.439490 0.0 0.0 0.0 0.0 0.0 0.0 0.0 -3.27680 -3.27680 -3.27680 -3.27680 -3.27680 -3.27680
3.59 3.610340 0.0 87.750 14.9340 0.0960 0.1020 1.0 42.692310 200.0 28.769230 500.0 197.0 28.769230 1725.384620 890701.583330 155.0 42.0 841610010.154080 0.0 0.0 0.0 0.0 0.0 0.0 0.0 -3.27680 -3.27680 -3.27680 -3.27680 -3.27680 -3.27680
3.58 3.597730 0.0 87.80 14.940 0.0960 0.1020 1.0 42.769230 200.0 27.538460 500.0 197.0 27.538460 1725.615380 890701.50 155.0 42.0 841609852.868670 0.0 0.0 0.0 0.0 0.0 0.0 0.0 -3.27680 -3.27680 -3.27680 -3.27680 -3.27680 -3.27680
3.57 3.589330 0.0 87.833330 14.9460 0.0960 0.1020 1.0 42.846150 200.0 26.307690 500.0 197.0 26.307690 1725.846150 890701.416670 155.0 42.0 841609695.583270 0.0 0.0 0.0 0.0 0.0 0.0 0.0 -3.27680 -3.27680 -3.27680 -3.27680 -3.27680 -3.27680
3.56 3.580930 0.0 87.866670 14.9520 0.0960 0.1020 1.0 42.923080 200.0 25.076920 500.0 197.0 25.076920 1726.076920 890701.333330 155.0 42.0 841609538.297860 0.0 0.0 0.0 0.0 0.0 0.0 0.0 -3.27680 -3.27680 -3.27680 -3.27680 -3.27680 -3.27680
3.55 3.572530 0.0 87.90 14.9580 0.0960 0.1020 1.0 43.0 200.0 23.846150 500.0 197.0 23.846150 1726.307690 890701.250 155.0 42.0 841609381.012450 0.0 0.0 0.0 0.0 0.0 0.0 0.0 -3.27680 -3.27680 -3.27680 -3.27680 -3.27680 -3.27680
3.54 3.559930 0.0 87.950 14.9640 0.0960 0.1020 1.0 43.0 200.0 22.615380 500.0 197.0 22.615380 1726.538460 890701.166670 155.0 42.0 841609223.727040 0.0 0.0 0.0 0.0 0.0 0.0 0.0 -3.27680 -3.27680 -3.27680 -3.27680 -3.27680 -3.27680
3.53 3.547330 0.0 88.0 14.970 0.0960 0.1020 1.0 43.0 200.0 21.384620 500.0 197.0 21.384620 1726.769230 890701.083330 155.0 42.0 841609066.441640 0.0 0.0 0.0 0.0 0.0 0.0 0.0 -3.27680 -3.27680 -3.27680 -3.27680 -3.27680 -3.27680
3.52 3.538930 0.0 88.033330 14.976670 0.0960 0.1020 1.0 43.0 200.0 20.153850 500.0 197.0 20.153850 1727.0 890701.0 155.0 42.0 841608909.156230 0.0 0.0 0.0 0.0 0.0 0.0 0.0 -3.27680 -3.27680 -3.27680 -3.27680 -3.27680 -3.27680
3.51 3.530530 0.0 88.066670 14.983330 0.0960 0.1020 1.0 43.0 200.0 18.923080 500.0 197.0 18.923080 1726.333330 890701.230770 155.0 42.0 841609344.716310 0.0 0.0 0.0 0.0 0.0 0.0 0.0 -3.27680 -3.27680 -3.27680 -3.27680 -3.27680 -3.27680
3.50 3.522120 0.0 88.10 14.990 0.0960 0.1020 1.0 43.0 200.0 17.692310 500.0 197.0 17.692310 1725.666670 890701.461540 155.0 42.0 841609780.276390 0.0 0.0 0.0 0.0 0.0 0.0 0.0 -3.27680 -3.27680 -3.27680 -3.27680 -3.27680 -3.27680
3.49 3.509920 0.0 88.150 14.996670 0.0960 0.1020 1.0 43.0 200.0 16.461540 500.0 197.0 16.461540 1725.0 890701.692310 155.0 42.0 841610215.836460 0.0 0.0 0.0 0.0 0.0 0.0 0.0 -3.27680 -3.27680 -3.27680 -3.27680 -3.27680 -3.27680
3.48 3.497710 0.0 88.20 15.003330 0.0960 0.1020 1.0 43.0 200.0 15.230770 500.0 197.0 15.230770 1724.333330 890701.923080 155.0 42.0 841610651.396540 0.0 0.0 0.0 0.0 0.0 0.0 0.0 -3.27680 -3.27680 -3.27680 -3.27680 -3.27680 -3.27680
3.47 3.489050 0.0 88.233330 15.010 0.0960 0.102670 1.0 43.0 200.0 14.0 500.0 197.0 14.0 1723.666670 890702.153850 155.0 42.0 841611086.956620 0.0 0.0 0.0 0.0 0.0 0.0 0.0 -3.27680 -3.27680 -3.27680 -3.27680 -3.27680 -3.27680
3.46 3.480380 0.0 88.266670 15.016670 0.0960 0.103330 1.0 43.0 200.0 14.166670 500.0 197.0 14.166670 1723.0 890702.384620 155.0 42.0 841611522.51670 0.0 0.0 0.0 0.0 0.0 0.0 0.0 -3.27680 -3.27680 -3.27680 -3.27680 -3.27680 -3.27680
3.45 3.471720 0.0 88.30 15.023330 0.0960 0.1040 1.0 43.0 200.0 14.333330 500.0 197.0 14.333330 1722.333330 890702.615380 155.0 42.0 841611958.076780 0.0 0.0 0.0 0.0 0.0 0.0 0.0 -3.27680 -3.27680 -3.27680 -3.27680 -3.27680 -3.27680
3.44 3.459510 0.0 88.350 15.030 0.0960 0.1030 1.0 43.0 200.0 14.50 500.0 197.0 14.50 1721.666670 890702.846150 155.0 42.0 841612393.636860 0.0 0.0 0.0 0.0 0.0 0.0 0.0 -3.27680 -3.27680 -3.27680 -3.27680 -3.27680 -3.27680
3.43 3.44730 0.0 88.40 15.036670 0.0960 0.1020 1.0 43.0 200.0 14.666670 500.0 197.0 14.666670 1721.0 890703.076920 155.0 42.0 841612829.196940 0.0 0.0 0.0 0.0 0.0 0.0 0.0 -3.27680 -3.27680 -3.27680 -3.27680 -3.27680 -3.27680
3.42 3.439160 0.0 88.433330 15.043330 0.0960 0.1020 1.0 43.0 200.0 14.833330 500.0 197.0 14.833330 1720.333330 890703.307690 155.0 42.0 841613264.757010 0.0 0.0 0.0 0.0 0.0 0.0 0.0 -3.27680 -3.27680 -3.27680 -3.27680 -3.27680 -3.27680
3.41 3.431030 0.0 88.466670 15.050 0.0960 0.1020 1.0 43.0 200.0 15.0 500.0 197.0 15.0 1719.666670 890703.538460 155.0 42.0 841613700.317090 0.0 0.0 0.0 0.0 0.0 0.0 0.0 -3.27680 -3.27680 -3.27680 -3.27680 -3.27680 -3.27680
3.40 3.422890 0.0 88.50 15.056670 0.0960 0.1020 1.0 43.0 200.0 15.166670 500.0 197.0 15.166670 1719.0 890703.769230 155.0 42.0 841614135.877170 0.0 0.0 0.0 0.0 0.0 0.0 0.0 -3.27680 -3.27680 -3.27680 -3.27680 -3.27680 -3.27680
3.39 3.410290 0.0 88.550 15.063330 0.0960 0.1020 1.0 43.0 200.0 15.333330 500.0 197.0 15.333330 1718.230770 890704.0 155.0 42.0 841614571.437250 0.0 0.0 0.0 0.0 0.0 0.0 0.0 -3.27680 -3.27680 -3.27680 -3.27680 -3.27680 -3.27680
