~VERSION INFORMATION SECTION
VERS. 2.0 : CWLS LAS-VERSION 2.0
WRAP. NO : One line per depth step
~WELL INFORMATION SECTION
# MNEM.UNIT VALUE/NAME DESCRIPTION
#-------- -------------- ---------------------
STRT.Metres 23 : Start
STOP.Metres -2.05 : Stop
STEP.Metres -0.01 : Step
NULL.  -999.25 :NULL VALUE
DATE. 2026-45-09 : DATE
~CURVE INFORMATION SECTION
DEPTH.Metres : 0 Depth
Depth. : 1 Depth
Tension. : 2 Tension
Time. : 3 Time
Speed. : 4 Speed
Voltage. : 5 Voltage
Current. : 6 Current
WET. : 7 WET
Sig. : 8 Sig
Vth. : 9 Vth
GR.CPS : 10 GR
Timebase.ms : 11 Timebase
HeadVoltage.V : 12 Head Voltage
API.API : 13 API
Conductivity.uS : 14 Conductivity
PT100.Ohms : 15 PT100
Vmon.mV : 16 Vmon
Status. : 17 Status
Temperature.C : 18 Temperature
Incline.Deg : 19 Incline
Azimuth.Deg : 20 Azimuth
RelativeBearing.Deg : 21 Relative Bearing
MagneticToolFace.Deg : 22 Magnetic Tool Face
GravityMagnitude.G : 23 Gravity Magnitude
MagnetometerMagnitude.H : 24 Magnetometer Magnitude
Temperature.C : 25 Temperature
GX. : 26 GX
GY. : 27 GY
GZ. : 28 GZ
HX. : 29 HX
HY. : 30 HY
HZ. : 31 HZ
~PARAMETER INFORMATION SECTION
~OTHER
#-------------------------------------------------
#Produced By: GeoVista Logger - Version 7.1.107.0
Verticality Sonde - 9605
Temperature and Conductivity Sonde - Inline - 8974
Natural Gamma Sonde - 9931
WLIS - 10021
#-------------------------------------------------
~ASCII LOG DATA
# ...
6.91 6.931360 0.0 74.466670 14.954670 0.0960 0.1020 1.0 42.0 200.0 7.0 500.0 197.0 7.0 1813.333330 890452.692310 155.50 42.0 841140312.576120 0.0 0.0 0.0 0.0 0.0 0.0 0.0 -3.27680 -3.27680 -3.27680 -3.27680 -3.27680 -3.27680
6.90 6.922960 0.0 74.50 14.945330 0.0960 0.1020 1.0 42.0 200.0 7.166670 500.0 197.0 7.166670 1811.0 890453.846150 155.416670 42.0 841142489.753810 0.0 0.0 0.0 0.0 0.0 0.0 0.0 -3.27680 -3.27680 -3.27680 -3.27680 -3.27680 -3.27680
6.89 6.910750 0.0 74.550 14.9360 0.0960 0.1010 1.0 42.0 200.0 7.333330 500.0 197.0 7.333330 1811.461540 890455.0 155.333330 42.0 841144666.931490 0.0 0.0 0.0 0.0 0.0 0.0 0.0 -3.27680 -3.27680 -3.27680 -3.27680 -3.27680 -3.27680
6.88 6.898540 0.0 74.60 14.926670 0.0960 0.10 1.0 42.0 200.0 7.50 500.0 197.0 7.50 1811.923080 890456.50 155.250 42.0 841147497.314860 0.0 0.0 0.0 0.0 0.0 0.0 0.0 -3.27680 -3.27680 -3.27680 -3.27680 -3.27680 -3.27680
6.87 6.890140 0.0 74.633330 14.917330 0.0960 0.100670 1.0 42.0 200.0 7.666670 500.0 197.0 7.666670 1812.384620 890458.0 155.166670 42.0 841150327.698230 0.0 0.0 0.0 0.0 0.0 0.0 0.0 -3.27680 -3.27680 -3.27680 -3.27680 -3.27680 -3.27680
6.86 6.881740 0.0 74.666670 14.9080 0.0960 0.101330 1.0 42.0 200.0 7.833330 500.0 197.0 7.833330 1812.846150 890459.50 155.083330 42.0 841153158.08160 0.0 0.0 0.0 0.0 0.0 0.0 0.0 -3.27680 -3.27680 -3.27680 -3.27680 -3.27680 -3.27680
6.85 6.873340 0.0 74.70 14.898670 0.0960 0.1020 1.0 42.0 200.0 8.0 500.0 197.0 8.0 1813.307690 890461.0 155.0 42.0 841155988.464960 0.0 0.0 0.0 0.0 0.0 0.0 0.0 -3.27680 -3.27680 -3.27680 -3.27680 -3.27680 -3.27680
6.84 6.861130 0.0 74.750 14.889330 0.0960 0.1020 1.0 42.0 200.0 8.923080 500.0 197.0 8.923080 1813.769230 890462.50 155.076920 42.0 841158818.848330 0.0 0.0 0.0 0.0 0.0 0.0 0.0 -3.27680 -3.27680 -3.27680 -3.27680 -3.27680 -3.27680
6.83 6.848930 0.0 74.80 14.880 0.0960 0.1020 1.0 42.0 200.0 9.846150 500.0 197.0 9.846150 1814.230770 890464.0 155.153850 42.0 841161649.23170 0.0 0.0 0.0 0.0 0.0 0.0 0.0 -3.27680 -3.27680 -3.27680 -3.27680 -3.27680 -3.27680
6.82 6.840530 0.0 74.833330 14.8860 0.0960 0.1020 1.0 42.0 200.0 10.769230 500.0 197.0 10.769230 1814.692310 890465.50 155.230770 42.0 841164479.615070 0.0 0.0 0.0 0.0 0.0 0.0 0.0 -3.27680 -3.27680 -3.27680 -3.27680 -3.27680 -3.27680
6.81 6.832120 0.0 74.866670 14.8920 0.0960 0.1020 1.0 42.0 200.0 11.692310 500.0 197.0 11.692310 1815.153850 890467.0 155.307690 42.0 841167309.998440 0.0 0.0 0.0 0.0 0.0 0.0 0.0 -3.27680 -3.27680 -3.27680 -3.27680 -3.27680 -3.27680
6.80 6.823720 0.0 74.90 14.8980 0.0960 0.1020 1.0 42.0 200.0 12.615380 500.0 197.0 12.615380 1815.615380 890468.50 155.384620 42.0 841170140.381810 0.0 0.0 0.0 0.0 0.0 0.0 0.0 -3.27680 -3.27680 -3.27680 -3.27680 -3.27680 -3.27680
6.79 6.810730 0.0 74.950 14.9040 0.0960 0.1020 1.0 42.083330 200.0 13.538460 500.0 197.0 13.538460 1816.076920 890470.0 155.461540 42.0 841172970.765170 0.0 0.0 0.0 0.0 0.0 0.0 0.0 -3.27680 -3.27680 -3.27680 -3.27680 -3.27680 -3.27680
6.78 6.797730 0.0 75.0 14.910 0.0960 0.1020 1.0 42.166670 200.0 14.461540 500.0 197.0 14.461540 1816.538460 890471.50 155.538460 42.0 841175801.148540 0.0 0.0 0.0 0.0 0.0 0.0 0.0 -3.27680 -3.27680 -3.27680 -3.27680 -3.27680 -3.27680
6.77 6.789590 0.0 75.033330 14.9160 0.0960 0.1020 1.0 42.250 200.0 15.384620 500.0 197.0 15.384620 1817.0 890473.0 155.615380 42.0 841178631.531910 0.0 0.0 0.0 0.0 0.0 0.0 0.0 -3.27680 -3.27680 -3.27680 -3.27680 -3.27680 -3.27680
6.76 6.781460 0.0 75.066670 14.9220 0.0960 0.1020 1.0 42.333330 200.0 16.307690 500.0 197.0 16.307690 1815.333330 890474.230770 155.692310 42.0 841180953.942030 0.0 0.0 0.0 0.0 0.0 0.0 0.0 -3.27680 -3.27680 -3.27680 -3.27680 -3.27680 -3.27680
6.75 6.773320 0.0 75.10 14.9280 0.0960 0.1020 1.0 42.416670 200.0 17.230770 500.0 197.0 17.230770 1813.666670 890475.461540 155.769230 42.0 841183276.352160 0.0 0.0 0.0 0.0 0.0 0.0 0.0 -3.27680 -3.27680 -3.27680 -3.27680 -3.27680 -3.27680
6.74 6.760720 0.0 75.150 14.9340 0.0960 0.1020 1.0 42.50 200.0 18.153850 500.0 197.0 18.153850 1812.0 890476.692310 155.846150 42.0 841185598.762280 0.0 0.0 0.0 0.0 0.0 0.0 0.0 -3.27680 -3.27680 -3.27680 -3.27680 -3.27680 -3.27680
6.73 6.748110 0.0 75.20 14.940 0.0960 0.1020 1.0 42.583330 200.0 19.076920 500.0 197.0 19.076920 1810.333330 890477.923080 155.923080 42.0 841187921.17240 0.0 0.0 0.0 0.0 0.0 0.0 0.0 -3.27680 -3.27680 -3.27680 -3.27680 -3.27680 -3.27680
6.72 6.739710 0.0 75.233330 14.9460 0.0960 0.1020 1.0 42.666670 200.0 20.0 500.0 197.0 20.0 1808.666670 890479.153850 156.0 42.0 841190243.582520 0.0 0.0 0.0 0.0 0.0 0.0 0.0 -3.27680 -3.27680 -3.27680 -3.27680 -3.27680 -3.27680
6.71 6.731310 0.0 75.266670 14.9520 0.0960 0.1020 1.0 42.750 200.0 19.833330 500.0 197.0 19.833330 1807.0 890480.384620 155.916670 42.0 841192565.992640 0.0 0.0 0.0 0.0 0.0 0.0 0.0 -3.27680 -3.27680 -3.27680 -3.27680 -3.27680 -3.27680
6.70 6.722910 0.0 75.30 14.9580 0.0960 0.1020 1.0 42.833330 200.0 19.666670 500.0 197.0 19.666670 1805.333330 890481.615380 155.833330 42.0 841194888.402770 0.0 0.0 0.0 0.0 0.0 0.0 0.0 -3.27680 -3.27680 -3.27680 -3.27680 -3.27680 -3.27680
6.69 6.710310 0.0 75.350 14.9640 0.0960 0.1020 1.0 42.916670 200.0 19.50 500.769230 197.0 19.50 1803.666670 890482.846150 155.750 42.0 841197210.812890 0.0 0.0 0.0 0.0 0.0 0.0 0.0 -3.27680 -3.27680 -3.27680 -3.27680 -3.27680 -3.27680
6.68 6.697710 0.0 75.40 14.970 0.0960 0.1020 1.0 43.0 200.0 19.333330 501.538460 197.0 19.333330 1802.0 890484.076920 155.666670 42.0 841199533.223010 0.0 0.0 0.0 0.0 0.0 0.0 0.0 -3.27680 -3.27680 -3.27680 -3.27680 -3.27680 -3.27680
6.67 6.689570 0.0 75.433330 14.970 0.0960 0.1020 1.0 43.0 200.0 19.166670 502.307690 197.0 19.166670 1800.333330 890485.307690 155.583330 42.0 841201855.633130 0.0 0.0 0.0 0.0 0.0 0.0 0.0 -3.27680 -3.27680 -3.27680 -3.27680 -3.27680 -3.27680
6.66 6.681430 0.0 75.466670 14.970 0.0960 0.1020 1.0 43.0 200.0 19.0 503.076920 197.0 19.0 1798.666670 890486.538460 155.50 42.0 841204178.043260 0.0 0.0 0.0 0.0 0.0 0.0 0.0 -3.27680 -3.27680 -3.27680 -3.27680 -3.27680 -3.27680
6.65 6.673290 0.0 75.50 14.970 0.0960 0.1020 1.0 43.0 200.0 18.833330 503.846150 197.0 18.833330 1797.0 890487.769230 155.416670 42.0 841206500.453380 0.0 0.0 0.0 0.0 0.0 0.0 0.0 -3.27680 -3.27680 -3.27680 -3.27680 -3.27680 -3.27680
6.64 6.660690 0.0 75.550 14.970 0.0960 0.1020 1.0 43.0 200.0 18.666670 504.615380 197.0 18.666670 1797.076920 890489.0 155.333330 42.0 841208822.86350 0.0 0.0 0.0 0.0 0.0 0.0 0.0 -3.27680 -3.27680 -3.27680 -3.27680 -3.27680 -3.27680
6.63 6.648090 0.0 75.60 14.970 0.0960 0.1020 1.0 43.0 200.0 18.50 505.384620 197.0 18.50 1797.153850 890490.583330 155.250 42.0 841211810.6060 0.0 0.0 0.0 0.0 0.0 0.0 0.0 -3.27680 -3.27680 -3.27680 -3.27680 -3.27680 -3.27680
6.62 6.639430 0.0 75.633330 14.970 0.0960 0.1020 1.0 43.0 200.0 18.333330 506.153850 197.0 18.333330 1797.230770 890492.166670 155.166670 42.0 841214798.348490 0.0 0.0 0.0 0.0 0.0 0.0 0.0 -3.27680 -3.27680 -3.27680 -3.27680 -3.27680 -3.27680
6.61 6.630760 0.0 75.666670 14.970 0.0960 0.1020 1.0 43.0 200.0 18.166670 506.923080 197.0 18.166670 1797.307690 890493.750 155.083330 42.0 841217786.090990 0.0 0.0 0.0 0.0 0.0 0.0 0.0 -3.27680 -3.27680 -3.27680 -3.27680 -3.27680 -3.27680
6.60 6.62210 0.0 75.70 14.970 0.0960 0.1020 1.0 43.0 200.0 18.0 507.692310 197.0 18.0 1797.384620 890495.333330 155.0 42.0 841220773.833490 0.0 0.0 0.0 0.0 0.0 0.0 0.0 -3.27680 -3.27680 -3.27680 -3.27680 -3.27680 -3.27680
6.59 6.609890 0.0 75.750 14.970 0.0960 0.1020 1.0 43.0 200.0 17.972850 508.461540 197.0 17.972850 1797.461540 890496.916670 155.076920 42.0 841223761.575990 0.0 0.0 0.0 0.0 0.0 0.0 0.0 -3.27680 -3.27680 -3.27680 -3.27680 -3.27680 -3.27680
6.58 6.597680 0.0 75.80 14.970 0.0960 0.1020 1.0 43.0 200.0 17.94570 509.230770 197.0 17.94570 1797.538460 890498.50 155.153850 42.0 841226749.318480 0.0 0.0 0.0 0.0 0.0 0.0 0.0 -3.27680 -3.27680 -3.27680 -3.27680 -3.27680 -3.27680
6.57 6.589280 0.0 75.833330 14.970 0.0960 0.1020 1.0 43.0 200.0 17.918550 510.0 197.0 17.918550 1797.615380 890500.083330 155.230770 42.0 841229737.060980 0.0 0.0 0.0 0.0 0.0 0.0 0.0 -3.27680 -3.27680 -3.27680 -3.27680 -3.27680 -3.27680
