~VERSION INFORMATION SECTION
VERS. 2.0 : CWLS LAS-VERSION 2.0
WRAP. NO : One line per depth step
~WELL INFORMATION SECTION
# MNEM.UNIT VALUE/NAME DESCRIPTION
#-------- -------------- ---------------------
STRT.Metres 26 : Start
STOP.Metres -2.05 : Stop
STEP.Metres -0.01 : Step
NULL.  -999.25 :NULL VALUE
DATE. 2026-40-09 : DATE
~CURVE INFORMATION SECTION
DEPTH.Metres : 0 Depth
Depth. : 1 Depth
Tension. : 2 Tension
Time. : 3 Time
Speed. : 4 Speed
Voltage. : 5 Voltage
Current. : 6 Current
WET. : 7 WET
Sig. : 8 Sig
Vth. : 9 Vth
GR.CPS : 10 GR
Timebase.ms : 11 Timebase
HeadVoltage.V : 12 Head Voltage
API.API : 13 API
Conductivity.uS : 14 Conductivity
PT100.Ohms : 15 PT100
Vmon.mV : 16 Vmon
Status. : 17 Status
Temperature.C : 18 Temperature
Incline.Deg : 19 Incline
Azimuth.Deg : 20 Azimuth
RelativeBearing.Deg : 21 Relative Bearing
MagneticToolFace.Deg : 22 Magnetic Tool Face
GravityMagnitude.G : 23 Gravity Magnitude
MagnetometerMagnitude.H : 24 Magnetometer Magnitude
Temperature.C : 25 Temperature
GX. : 26 GX
GY. : 27 GY
GZ. : 28 GZ
HX. : 29 HX
HY. : 30 HY
HZ. : 31 HZ
~PARAMETER INFORMATION SECTION
~OTHER
#-------------------------------------------------
#Produced By: GeoVista Logger - Version 7.1.107.0
Verticality Sonde - 9605
Temperature and Conductivity Sonde - Inline - 8974
Natural Gamma Sonde - 9931
WLIS - 10021
#-------------------------------------------------
~ASCII LOG DATA
# ...
14.59 14.608710 0.0 78.450 14.970 0.0960 0.1020 1.0 27.083330 200.0 22.307690 500.0 197.0 22.307690 2866.384620 889497.666670 154.0 42.0 839339241.439340 0.0 0.0 0.0 0.0 0.0 0.0 0.0 -3.27680 -3.27680 -3.27680 -3.27680 -3.27680 -3.27680
14.58 14.595710 0.0 78.50 14.970 0.0960 0.1020 1.0 27.166670 200.0 23.692310 500.0 197.0 23.692310 2864.692310 889498.333330 154.0 42.0 839340498.020310 0.0 0.0 0.0 0.0 0.0 0.0 0.0 -3.27680 -3.27680 -3.27680 -3.27680 -3.27680 -3.27680
14.57 14.587570 0.0 78.533330 14.970 0.0960 0.1020 1.0 27.250 200.0 25.076920 500.0 197.0 25.076920 2863.0 889499.0 154.0 42.0 839341754.601280 0.0 0.0 0.0 0.0 0.0 0.0 0.0 -3.27680 -3.27680 -3.27680 -3.27680 -3.27680 -3.27680
14.56 14.579430 0.0 78.566670 14.970 0.0960 0.1020 1.0 27.333330 200.0 26.461540 500.0 197.0 26.461540 2860.250 889499.692310 154.0 42.0 839343059.524740 0.0 0.0 0.0 0.0 0.0 0.0 0.0 -3.27680 -3.27680 -3.27680 -3.27680 -3.27680 -3.27680
14.55 14.57130 0.0 78.60 14.970 0.0960 0.1020 1.0 27.416670 200.0 27.846150 500.0 197.0 27.846150 2857.50 889500.384620 154.0 42.0 839344364.44820 0.0 0.0 0.0 0.0 0.0 0.0 0.0 -3.27680 -3.27680 -3.27680 -3.27680 -3.27680 -3.27680
14.54 14.558690 0.0 78.650 14.970 0.0960 0.1020 1.0 27.50 200.0 29.230770 500.0 197.0 29.230770 2854.750 889501.076920 154.0 42.0 839345669.371660 0.0 0.0 0.0 0.0 0.0 0.0 0.0 -3.27680 -3.27680 -3.27680 -3.27680 -3.27680 -3.27680
14.53 14.546090 0.0 78.70 14.970 0.0960 0.1020 1.0 27.583330 200.0 30.615380 500.0 197.0 30.615380 2852.0 889501.769230 154.0 42.0 839346974.295120 0.0 0.0 0.0 0.0 0.0 0.0 0.0 -3.27680 -3.27680 -3.27680 -3.27680 -3.27680 -3.27680
14.52 14.537950 0.0 78.733330 14.970 0.0960 0.1020 1.0 27.666670 200.0 32.0 500.0 197.0 32.0 2849.250 889502.461540 154.0 42.0 839348279.218580 0.0 0.0 0.0 0.0 0.0 0.0 0.0 -3.27680 -3.27680 -3.27680 -3.27680 -3.27680 -3.27680
14.51 14.529820 0.0 78.766670 14.970 0.0960 0.1020 1.0 27.750 200.0 31.166670 500.0 197.0 31.166670 2846.50 889503.153850 154.0 42.0 839349584.142040 0.0 0.0 0.0 0.0 0.0 0.0 0.0 -3.27680 -3.27680 -3.27680 -3.27680 -3.27680 -3.27680
14.50 14.521680 0.0 78.80 14.970 0.0960 0.1020 1.0 27.833330 200.0 30.333330 500.0 197.0 30.333330 2843.750 889503.846150 154.0 42.0 839350889.06550 0.0 0.0 0.0 0.0 0.0 0.0 0.0 -3.27680 -3.27680 -3.27680 -3.27680 -3.27680 -3.27680
14.49 14.509080 0.0 78.850 14.970 0.0960 0.1020 1.0 27.916670 200.0 29.50 500.0 197.0 29.50 2841.0 889504.538460 154.0 42.0 839352193.988960 0.0 0.0 0.0 0.0 0.0 0.0 0.0 -3.27680 -3.27680 -3.27680 -3.27680 -3.27680 -3.27680
14.48 14.496470 0.0 78.90 14.970 0.0960 0.1020 1.0 28.0 200.0 28.666670 500.0 197.0 28.666670 2838.250 889505.230770 154.0 42.0 839353498.912420 0.0 0.0 0.0 0.0 0.0 0.0 0.0 -3.27680 -3.27680 -3.27680 -3.27680 -3.27680 -3.27680
14.47 14.487810 0.0 78.933330 14.970 0.0960 0.1020 1.0 28.0 200.0 27.833330 500.0 197.0 27.833330 2835.50 889505.923080 154.0 42.0 839354803.835880 0.0 0.0 0.0 0.0 0.0 0.0 0.0 -3.27680 -3.27680 -3.27680 -3.27680 -3.27680 -3.27680
14.46 14.479150 0.0 78.966670 14.970 0.0960 0.1020 1.0 28.0 200.0 27.0 500.0 197.0 27.0 2832.750 889506.615380 154.0 42.0 839356108.759350 0.0 0.0 0.0 0.0 0.0 0.0 0.0 -3.27680 -3.27680 -3.27680 -3.27680 -3.27680 -3.27680
14.45 14.470480 0.0 79.0 14.970 0.0960 0.1020 1.0 28.0 200.0 26.166670 500.0 197.0 26.166670 2830.0 889507.307690 154.0 42.0 839357413.682810 0.0 0.0 0.0 0.0 0.0 0.0 0.0 -3.27680 -3.27680 -3.27680 -3.27680 -3.27680 -3.27680
14.44 14.457880 0.0 79.050 14.970 0.0960 0.1020 1.0 28.0 200.0 25.333330 500.0 197.0 25.333330 2826.307690 889508.0 154.0 42.0 839358718.606270 0.0 0.0 0.0 0.0 0.0 0.0 0.0 -3.27680 -3.27680 -3.27680 -3.27680 -3.27680 -3.27680
14.43 14.445280 0.0 79.10 14.970 0.0960 0.1020 1.0 28.0 200.0 24.50 500.0 197.0 24.50 2822.615380 889508.833330 154.0 42.0 839360289.364220 0.0 0.0 0.0 0.0 0.0 0.0 0.0 -3.27680 -3.27680 -3.27680 -3.27680 -3.27680 -3.27680
14.42 14.437140 0.0 79.133330 14.976670 0.0960 0.1020 1.0 28.0 200.0 23.666670 500.0 197.0 23.666670 2818.923080 889509.666670 154.0 42.0 839361860.122180 0.0 0.0 0.0 0.0 0.0 0.0 0.0 -3.27680 -3.27680 -3.27680 -3.27680 -3.27680 -3.27680
14.41 14.4290 0.0 79.166670 14.983330 0.0960 0.1020 1.0 28.0 200.0 22.833330 500.0 197.0 22.833330 2815.230770 889510.50 154.0 42.0 839363430.880140 0.0 0.0 0.0 0.0 0.0 0.0 0.0 -3.27680 -3.27680 -3.27680 -3.27680 -3.27680 -3.27680
14.40 14.420860 0.0 79.20 14.990 0.0960 0.1020 1.0 28.0 200.0 22.0 500.0 197.0 22.0 2811.538460 889511.333330 154.0 42.0 839365001.63810 0.0 0.0 0.0 0.0 0.0 0.0 0.0 -3.27680 -3.27680 -3.27680 -3.27680 -3.27680 -3.27680
14.39 14.408660 0.0 79.250 14.996670 0.0960 0.1020 1.0 28.0 200.0 22.615380 500.0 197.0 22.615380 2807.846150 889512.166670 154.076920 42.0 839366572.396060 0.0 0.0 0.0 0.0 0.0 0.0 0.0 -3.27680 -3.27680 -3.27680 -3.27680 -3.27680 -3.27680
14.38 14.396450 0.0 79.30 15.003330 0.0960 0.1020 1.0 28.0 200.0 23.230770 500.0 197.0 23.230770 2804.153850 889513.0 154.153850 42.0 839368143.154010 0.0 0.0 0.0 0.0 0.0 0.0 0.0 -3.27680 -3.27680 -3.27680 -3.27680 -3.27680 -3.27680
14.37 14.387790 0.0 79.333330 15.010 0.0960 0.1020 1.0 28.0 200.0 23.846150 500.0 197.0 23.846150 2800.461540 889513.833330 154.230770 42.0 839369713.911970 0.0 0.0 0.0 0.0 0.0 0.0 0.0 -3.27680 -3.27680 -3.27680 -3.27680 -3.27680 -3.27680
14.36 14.379120 0.0 79.366670 15.016670 0.0960 0.1020 1.0 28.0 200.0 24.461540 500.0 197.0 24.461540 2796.769230 889514.666670 154.307690 42.0 839371284.669930 0.0 0.0 0.0 0.0 0.0 0.0 0.0 -3.27680 -3.27680 -3.27680 -3.27680 -3.27680 -3.27680
14.35 14.370460 0.0 79.40 15.023330 0.0960 0.1020 1.0 28.0 200.0 25.076920 500.0 197.0 25.076920 2793.076920 889515.50 154.384620 42.0 839372855.427890 0.0 0.0 0.0 0.0 0.0 0.0 0.0 -3.27680 -3.27680 -3.27680 -3.27680 -3.27680 -3.27680
14.34 14.357860 0.0 79.450 15.030 0.0960 0.1020 1.0 28.083330 200.0 25.692310 500.0 197.0 25.692310 2789.384620 889516.333330 154.461540 42.0 839374426.185840 0.0 0.0 0.0 0.0 0.0 0.0 0.0 -3.27680 -3.27680 -3.27680 -3.27680 -3.27680 -3.27680
14.33 14.345260 0.0 79.50 15.036670 0.0960 0.1020 1.0 28.166670 200.0 26.307690 500.0 197.0 26.307690 2785.692310 889517.166670 154.538460 42.0 839375996.94380 0.0 0.0 0.0 0.0 0.0 0.0 0.0 -3.27680 -3.27680 -3.27680 -3.27680 -3.27680 -3.27680
14.32 14.337120 0.0 79.533330 15.043330 0.0960 0.1020 1.0 28.250 200.0 26.923080 500.0 197.0 26.923080 2782.0 889518.0 154.615380 42.0 839377567.701760 0.0 0.0 0.0 0.0 0.0 0.0 0.0 -3.27680 -3.27680 -3.27680 -3.27680 -3.27680 -3.27680
14.31 14.328980 0.0 79.566670 15.050 0.0960 0.1020 1.0 28.333330 200.0 27.538460 500.0 197.0 27.538460 2780.250 889518.923080 154.692310 42.0 839379307.639760 0.0 0.0 0.0 0.0 0.0 0.0 0.0 -3.27680 -3.27680 -3.27680 -3.27680 -3.27680 -3.27680
14.30 14.320840 0.0 79.60 15.056670 0.0960 0.1020 1.0 28.416670 200.0 28.153850 500.0 197.0 28.153850 2778.50 889519.846150 154.769230 42.0 839381047.577750 0.0 0.0 0.0 0.0 0.0 0.0 0.0 -3.27680 -3.27680 -3.27680 -3.27680 -3.27680 -3.27680
14.29 14.308240 0.0 79.650 15.063330 0.0960 0.1020 1.0 28.50 200.0 28.769230 500.0 197.0 28.769230 2776.750 889520.769230 154.846150 42.0 839382787.515750 0.0 0.0 0.0 0.0 0.0 0.0 0.0 -3.27680 -3.27680 -3.27680 -3.27680 -3.27680 -3.27680
14.28 14.295640 0.0 79.70 15.070 0.0960 0.1020 1.0 28.583330 200.0 29.384620 500.0 197.0 29.384620 2775.0 889521.692310 154.923080 42.0 839384527.453750 0.0 0.0 0.0 0.0 0.0 0.0 0.0 -3.27680 -3.27680 -3.27680 -3.27680 -3.27680 -3.27680
14.27 14.28750 0.0 79.733330 15.060670 0.0960 0.1020 1.0 28.666670 200.0 30.0 500.0 197.0 30.0 2773.250 889522.615380 155.0 42.0 839386267.391740 0.0 0.0 0.0 0.0 0.0 0.0 0.0 -3.27680 -3.27680 -3.27680 -3.27680 -3.27680 -3.27680
14.26 14.279360 0.0 79.766670 15.051330 0.0960 0.1020 1.0 28.750 200.0 29.50 500.0 197.0 29.50 2771.50 889523.538460 155.0 42.0 839388007.329740 0.0 0.0 0.0 0.0 0.0 0.0 0.0 -3.27680 -3.27680 -3.27680 -3.27680 -3.27680 -3.27680
14.25 14.271220 0.0 79.80 15.0420 0.0960 0.1020 1.0 28.833330 200.0 29.0 500.0 197.0 29.0 2769.750 889524.461540 155.0 42.0 839389747.267730 0.0 0.0 0.0 0.0 0.0 0.0 0.0 -3.27680 -3.27680 -3.27680 -3.27680 -3.27680 -3.27680
