~VERSION INFORMATION SECTION
VERS. 2.0 : CWLS LAS-VERSION 2.0
WRAP. NO : One line per depth step
~WELL INFORMATION SECTION
# MNEM.UNIT VALUE/NAME DESCRIPTION
#-------- -------------- ---------------------
STRT.Metres 26 : Start
STOP.Metres -2.05 : Stop
STEP.Metres -0.01 : Step
NULL.  -999.25 :NULL VALUE
DATE. 2026-48-09 : DATE
~CURVE INFORMATION SECTION
DEPTH.Metres : 0 Depth
Depth. : 1 Depth
Tension. : 2 Tension
Time. : 3 Time
Speed. : 4 Speed
Voltage. : 5 Voltage
Current. : 6 Current
WET. : 7 WET
Sig. : 8 Sig
Vth. : 9 Vth
GR.CPS : 10 GR
Timebase.ms : 11 Timebase
HeadVoltage.V : 12 Head Voltage
API.API : 13 API
Conductivity.uS : 14 Conductivity
PT100.Ohms : 15 PT100
Vmon.mV : 16 Vmon
Status. : 17 Status
Temperature.C : 18 Temperature
Incline.Deg : 19 Incline
Azimuth.Deg : 20 Azimuth
RelativeBearing.Deg : 21 Relative Bearing
MagneticToolFace.Deg : 22 Magnetic Tool Face
GravityMagnitude.G : 23 Gravity Magnitude
MagnetometerMagnitude.H : 24 Magnetometer Magnitude
Temperature.C : 25 Temperature
GX. : 26 GX
GY. : 27 GY
GZ. : 28 GZ
HX. : 29 HX
HY. : 30 HY
HZ. : 31 HZ
~PARAMETER INFORMATION SECTION
~OTHER
#-------------------------------------------------
#Produced By: GeoVista Logger - Version 7.1.107.0
Verticality Sonde - 9605
Temperature and Conductivity Sonde - Inline - 8974
Natural Gamma Sonde - 9931
WLIS - 10021
#-------------------------------------------------
~ASCII LOG DATA
# ...
10.99 11.012150 0.0 70.80 14.930 0.0960 0.1020 1.0 38.0 200.0 18.0 500.0 197.0 18.0 2262.461540 889789.333330 152.0 41.0 839889087.355480 0.0 0.0 0.0 0.0 0.0 0.0 0.0 -3.27680 -3.27680 -3.27680 -3.27680 -3.27680 -3.27680
10.98 10.999550 0.0 70.850 14.930 0.0960 0.1020 1.0 38.0 200.0 17.230770 500.0 197.0 17.230770 2259.153850 889790.916670 152.0 41.0 839892072.73220 0.0 0.0 0.0 0.0 0.0 0.0 0.0 -3.27680 -3.27680 -3.27680 -3.27680 -3.27680 -3.27680
10.97 10.986950 0.0 70.90 14.930 0.0960 0.1020 1.0 38.0 200.0 16.461540 500.0 197.0 16.461540 2255.846150 889792.50 152.0 41.0 839895058.108910 0.0 0.0 0.0 0.0 0.0 0.0 0.0 -3.27680 -3.27680 -3.27680 -3.27680 -3.27680 -3.27680
10.96 10.978550 0.0 70.933330 14.930 0.0960 0.1020 1.0 38.0 200.0 15.692310 500.0 197.0 15.692310 2252.538460 889794.083330 152.0 41.0 839898043.485630 0.0 0.0 0.0 0.0 0.0 0.0 0.0 -3.27680 -3.27680 -3.27680 -3.27680 -3.27680 -3.27680
10.95 10.970150 0.0 70.966670 14.930 0.0960 0.1020 1.0 38.0 200.0 14.923080 500.0 197.0 14.923080 2249.230770 889795.666670 152.0 41.0 839901028.862340 0.0 0.0 0.0 0.0 0.0 0.0 0.0 -3.27680 -3.27680 -3.27680 -3.27680 -3.27680 -3.27680
10.94 10.961750 0.0 71.0 14.930 0.0960 0.1020 1.0 38.0 200.0 14.153850 500.0 197.0 14.153850 2245.923080 889797.250 152.0 41.0 839904014.239060 0.0 0.0 0.0 0.0 0.0 0.0 0.0 -3.27680 -3.27680 -3.27680 -3.27680 -3.27680 -3.27680
10.93 10.949150 0.0 71.050 14.930 0.0960 0.1020 1.0 38.083330 200.0 13.384620 500.0 197.0 13.384620 2242.615380 889798.833330 152.0 41.0 839906999.615770 0.0 0.0 0.0 0.0 0.0 0.0 0.0 -3.27680 -3.27680 -3.27680 -3.27680 -3.27680 -3.27680
10.92 10.936540 0.0 71.10 14.930 0.0960 0.1020 1.0 38.166670 200.0 12.615380 500.0 197.0 12.615380 2239.307690 889800.416670 152.0 41.0 839909984.992480 0.0 0.0 0.0 0.0 0.0 0.0 0.0 -3.27680 -3.27680 -3.27680 -3.27680 -3.27680 -3.27680
10.91 10.928140 0.0 71.133330 14.930 0.0960 0.1020 1.0 38.250 200.0 11.846150 500.0 197.0 11.846150 2236.0 889802.0 152.0 41.0 839912970.36920 0.0 0.0 0.0 0.0 0.0 0.0 0.0 -3.27680 -3.27680 -3.27680 -3.27680 -3.27680 -3.27680
10.90 10.919740 0.0 71.166670 14.930 0.0960 0.1020 1.0 38.333330 200.0 11.076920 500.0 197.0 11.076920 2236.583330 889803.538460 152.0 41.0 839915871.203590 0.0 0.0 0.0 0.0 0.0 0.0 0.0 -3.27680 -3.27680 -3.27680 -3.27680 -3.27680 -3.27680
10.89 10.911340 0.0 71.20 14.930 0.0960 0.1020 1.0 38.416670 200.0 10.307690 500.0 197.0 10.307690 2237.166670 889805.076920 152.0 41.0 839918772.037980 0.0 0.0 0.0 0.0 0.0 0.0 0.0 -3.27680 -3.27680 -3.27680 -3.27680 -3.27680 -3.27680
10.88 10.898740 0.0 71.250 14.930 0.0960 0.1020 1.0 38.50 200.0 9.538460 500.0 197.0 9.538460 2237.750 889806.615380 152.0 41.0 839921672.872370 0.0 0.0 0.0 0.0 0.0 0.0 0.0 -3.27680 -3.27680 -3.27680 -3.27680 -3.27680 -3.27680
10.87 10.886140 0.0 71.30 14.930 0.0960 0.1020 1.0 38.583330 200.0 8.769230 500.0 197.0 8.769230 2238.333330 889808.153850 152.0 41.0 839924573.706750 0.0 0.0 0.0 0.0 0.0 0.0 0.0 -3.27680 -3.27680 -3.27680 -3.27680 -3.27680 -3.27680
10.86 10.877740 0.0 71.333330 14.930 0.0960 0.1020 1.0 38.666670 200.0 8.0 500.0 197.0 8.0 2238.916670 889809.692310 152.0 41.0 839927474.541140 0.0 0.0 0.0 0.0 0.0 0.0 0.0 -3.27680 -3.27680 -3.27680 -3.27680 -3.27680 -3.27680
10.85 10.869340 0.0 71.366670 14.930 0.0960 0.1020 1.0 38.750 200.0 8.0 500.0 197.0 8.0 2239.50 889811.230770 152.0 41.0 839930375.375530 0.0 0.0 0.0 0.0 0.0 0.0 0.0 -3.27680 -3.27680 -3.27680 -3.27680 -3.27680 -3.27680
10.84 10.860940 0.0 71.40 14.930 0.0960 0.1020 1.0 38.833330 200.0 8.0 500.0 197.0 8.0 2240.083330 889812.769230 152.0 41.0 839933276.209920 0.0 0.0 0.0 0.0 0.0 0.0 0.0 -3.27680 -3.27680 -3.27680 -3.27680 -3.27680 -3.27680
10.83 10.848330 0.0 71.450 14.942670 0.0960 0.1020 1.0 38.916670 200.0 8.0 500.0 197.0 8.0 2240.666670 889814.307690 152.0 41.0 839936177.044310 0.0 0.0 0.0 0.0 0.0 0.0 0.0 -3.27680 -3.27680 -3.27680 -3.27680 -3.27680 -3.27680
10.82 10.835730 0.0 71.50 14.955330 0.0960 0.1020 1.0 39.0 200.0 8.0 500.0 197.0 8.0 2241.250 889815.846150 152.0 41.0 839939077.87870 0.0 0.0 0.0 0.0 0.0 0.0 0.0 -3.27680 -3.27680 -3.27680 -3.27680 -3.27680 -3.27680
10.81 10.827330 0.0 71.533330 14.9680 0.0960 0.1020 1.0 39.0 200.0 8.0 500.0 197.0 8.0 2241.833330 889817.384620 152.0 41.0 839941978.713090 0.0 0.0 0.0 0.0 0.0 0.0 0.0 -3.27680 -3.27680 -3.27680 -3.27680 -3.27680 -3.27680
10.80 10.818930 0.0 71.566670 14.980670 0.0960 0.1020 1.0 39.0 200.0 8.0 500.0 197.0 8.0 2242.416670 889818.923080 152.0 41.0 839944879.547480 0.0 0.0 0.0 0.0 0.0 0.0 0.0 -3.27680 -3.27680 -3.27680 -3.27680 -3.27680 -3.27680
10.79 10.810530 0.0 71.60 14.993330 0.0960 0.1020 1.0 39.0 200.0 8.0 500.0 197.0 8.0 2243.0 889820.461540 152.0 41.0 839947780.381870 0.0 0.0 0.0 0.0 0.0 0.0 0.0 -3.27680 -3.27680 -3.27680 -3.27680 -3.27680 -3.27680
10.78 10.798320 0.0 71.650 15.0060 0.0960 0.1020 1.0 39.0 200.0 8.0 500.0 197.0 8.0 2239.615380 889822.0 152.0 41.0 839950681.216250 0.0 0.0 0.0 0.0 0.0 0.0 0.0 -3.27680 -3.27680 -3.27680 -3.27680 -3.27680 -3.27680
10.77 10.786110 0.0 71.70 15.018670 0.0960 0.1020 1.0 39.0 200.0 8.0 500.0 197.0 8.0 2236.230770 889823.416670 152.0 41.0 839953352.456720 0.0 0.0 0.0 0.0 0.0 0.0 0.0 -3.27680 -3.27680 -3.27680 -3.27680 -3.27680 -3.27680
10.76 10.777710 0.0 71.733330 15.031330 0.0960 0.1020 1.0 39.0 200.0 8.0 500.0 197.0 8.0 2232.846150 889824.833330 152.0 41.0 839956023.697190 0.0 0.0 0.0 0.0 0.0 0.0 0.0 -3.27680 -3.27680 -3.27680 -3.27680 -3.27680 -3.27680
10.75 10.769310 0.0 71.766670 15.0440 0.0960 0.1020 1.0 39.0 200.0 8.0 500.0 197.0 8.0 2229.461540 889826.250 152.0 41.0 839958694.937660 0.0 0.0 0.0 0.0 0.0 0.0 0.0 -3.27680 -3.27680 -3.27680 -3.27680 -3.27680 -3.27680
10.74 10.760910 0.0 71.80 15.056670 0.0960 0.1020 1.0 39.0 200.0 8.0 500.0 197.0 8.0 2226.076920 889827.666670 152.0 41.0 839961366.178120 0.0 0.0 0.0 0.0 0.0 0.0 0.0 -3.27680 -3.27680 -3.27680 -3.27680 -3.27680 -3.27680
10.73 10.74870 0.0 71.850 15.069330 0.0960 0.1020 1.0 39.0 200.0 8.153850 500.0 197.0 8.153850 2222.692310 889829.083330 152.0 41.0 839964037.418590 0.0 0.0 0.0 0.0 0.0 0.0 0.0 -3.27680 -3.27680 -3.27680 -3.27680 -3.27680 -3.27680
10.72 10.73650 0.0 71.90 15.0820 0.0960 0.1020 1.0 39.0 200.0 8.307690 500.0 197.0 8.307690 2219.307690 889830.50 152.0 41.0 839966708.659060 0.0 0.0 0.0 0.0 0.0 0.0 0.0 -3.27680 -3.27680 -3.27680 -3.27680 -3.27680 -3.27680
10.71 10.728090 0.0 71.933330 15.094670 0.0960 0.1020 1.0 39.0 200.0 8.461540 500.0 197.0 8.461540 2215.923080 889831.916670 152.0 41.0 839969379.899520 0.0 0.0 0.0 0.0 0.0 0.0 0.0 -3.27680 -3.27680 -3.27680 -3.27680 -3.27680 -3.27680
10.70 10.719690 0.0 71.966670 15.107330 0.0960 0.1020 1.0 39.0 200.0 8.615380 500.0 197.0 8.615380 2212.538460 889833.333330 152.0 41.0 839972051.139990 0.0 0.0 0.0 0.0 0.0 0.0 0.0 -3.27680 -3.27680 -3.27680 -3.27680 -3.27680 -3.27680
10.69 10.711290 0.0 72.0 15.120 0.0960 0.1020 1.0 39.0 200.0 8.769230 500.0 197.0 8.769230 2209.153850 889834.750 152.0 41.0 839974722.380460 0.0 0.0 0.0 0.0 0.0 0.0 0.0 -3.27680 -3.27680 -3.27680 -3.27680 -3.27680 -3.27680
10.68 10.698690 0.0 72.050 15.107330 0.0960 0.1020 1.0 39.0 200.0 8.923080 500.0 197.0 8.923080 2205.769230 889836.166670 152.0 41.0 839977393.620930 0.0 0.0 0.0 0.0 0.0 0.0 0.0 -3.27680 -3.27680 -3.27680 -3.27680 -3.27680 -3.27680
10.67 10.686090 0.0 72.10 15.094670 0.0960 0.1020 1.0 39.0 200.0 9.076920 500.0 197.0 9.076920 2202.384620 889837.583330 152.0 41.0 839980064.861390 0.0 0.0 0.0 0.0 0.0 0.0 0.0 -3.27680 -3.27680 -3.27680 -3.27680 -3.27680 -3.27680
10.66 10.677950 0.0 72.133330 15.0820 0.0960 0.1020 1.0 39.0 200.0 9.230770 500.0 197.0 9.230770 2199.0 889839.0 152.0 41.0 839982736.101860 0.0 0.0 0.0 0.0 0.0 0.0 0.0 -3.27680 -3.27680 -3.27680 -3.27680 -3.27680 -3.27680
10.65 10.669810 0.0 72.166670 15.069330 0.0960 0.1020 1.0 39.0 200.0 9.384620 500.0 197.0 9.384620 2199.333330 889840.153850 152.0 41.0 839984911.81190 0.0 0.0 0.0 0.0 0.0 0.0 0.0 -3.27680 -3.27680 -3.27680 -3.27680 -3.27680 -3.27680
10.64 10.661670 0.0 72.20 15.056670 0.0960 0.1020 1.0 39.0 200.0 9.538460 500.0 197.0 9.538460 2199.666670 889841.307690 152.0 41.0 839987087.521940 0.0 0.0 0.0 0.0 0.0 0.0 0.0 -3.27680 -3.27680 -3.27680 -3.27680 -3.27680 -3.27680
