~VERSION INFORMATION SECTION
VERS. 2.0 : CWLS LAS-VERSION 2.0
WRAP. NO : One line per depth step
~WELL INFORMATION SECTION
# MNEM.UNIT VALUE/NAME DESCRIPTION
#-------- -------------- ---------------------
STRT.Metres 23 : Start
STOP.Metres -2.05 : Stop
STEP.Metres -0.01 : Step
NULL.  -999.25 :NULL VALUE
DATE. 2026-45-09 : DATE
~CURVE INFORMATION SECTION
DEPTH.Metres : 0 Depth
Depth. : 1 Depth
Tension. : 2 Tension
Time. : 3 Time
Speed. : 4 Speed
Voltage. : 5 Voltage
Current. : 6 Current
WET. : 7 WET
Sig. : 8 Sig
Vth. : 9 Vth
GR.CPS : 10 GR
Timebase.ms : 11 Timebase
HeadVoltage.V : 12 Head Voltage
API.API : 13 API
Conductivity.uS : 14 Conductivity
PT100.Ohms : 15 PT100
Vmon.mV : 16 Vmon
Status. : 17 Status
Temperature.C : 18 Temperature
Incline.Deg : 19 Incline
Azimuth.Deg : 20 Azimuth
RelativeBearing.Deg : 21 Relative Bearing
MagneticToolFace.Deg : 22 Magnetic Tool Face
GravityMagnitude.G : 23 Gravity Magnitude
MagnetometerMagnitude.H : 24 Magnetometer Magnitude
Temperature.C : 25 Temperature
GX. : 26 GX
GY. : 27 GY
GZ. : 28 GZ
HX. : 29 HX
HY. : 30 HY
HZ. : 31 HZ
~PARAMETER INFORMATION SECTION
~OTHER
#-------------------------------------------------
#Produced By: GeoVista Logger - Version 7.1.107.0
Verticality Sonde - 9605
Temperature and Conductivity Sonde - Inline - 8974
Natural Gamma Sonde - 9931
WLIS - 10021
#-------------------------------------------------
~ASCII LOG DATA
# ...
21.00 21.018290 0.0 18.133330 14.996670 0.0960 0.1020 1.0 1.0 200.0 15.0 500.0 197.0 15.0 14720.307690 889190.833330 138.0 42.0 838760997.933290 0.0 0.0 0.0 0.0 0.0 0.0 0.0 -3.27680 -3.27680 -3.27680 -3.27680 -3.27680 -3.27680
20.99 21.010150 0.0 18.166670 15.0 0.0960 0.1020 1.0 1.0 200.0 15.50 500.0 197.0 15.50 14706.076920 889190.750 138.0 42.0 838760840.914370 0.0 0.0 0.0 0.0 0.0 0.0 0.0 -3.27680 -3.27680 -3.27680 -3.27680 -3.27680 -3.27680
20.98 21.002010 0.0 18.20 15.003330 0.0960 0.1020 1.0 1.0 200.0 16.0 500.0 197.0 16.0 14691.846150 889190.666670 138.0 42.0 838760683.895450 0.0 0.0 0.0 0.0 0.0 0.0 0.0 -3.27680 -3.27680 -3.27680 -3.27680 -3.27680 -3.27680
20.97 20.989410 0.0 18.250 15.006670 0.0960 0.1020 1.0 1.0 200.0 16.461540 500.0 197.0 16.461540 14677.615380 889190.583330 138.076920 42.0 838760526.876540 0.0 0.0 0.0 0.0 0.0 0.0 0.0 -3.27680 -3.27680 -3.27680 -3.27680 -3.27680 -3.27680
20.96 20.976810 0.0 18.30 15.010 0.0960 0.1020 1.0 1.0 200.0 16.923080 500.0 197.0 16.923080 14663.384620 889190.50 138.153850 42.0 838760369.857620 0.0 0.0 0.0 0.0 0.0 0.0 0.0 -3.27680 -3.27680 -3.27680 -3.27680 -3.27680 -3.27680
20.95 20.96840 0.0 18.333330 15.013330 0.0960 0.1020 1.0 1.0 200.0 17.384620 500.0 197.0 17.384620 14649.153850 889190.416670 138.230770 42.0 838760212.83870 0.0 0.0 0.0 0.0 0.0 0.0 0.0 -3.27680 -3.27680 -3.27680 -3.27680 -3.27680 -3.27680
20.94 20.960 0.0 18.366670 15.016670 0.0960 0.1020 1.0 1.0 200.0 17.846150 500.0 197.0 17.846150 14634.923080 889190.333330 138.307690 42.0 838760055.819780 0.0 0.0 0.0 0.0 0.0 0.0 0.0 -3.27680 -3.27680 -3.27680 -3.27680 -3.27680 -3.27680
20.93 20.95160 0.0 18.40 15.020 0.0960 0.1020 1.0 1.0 200.0 18.307690 500.0 197.0 18.307690 14620.692310 889190.250 138.384620 42.0 838759898.800870 0.0 0.0 0.0 0.0 0.0 0.0 0.0 -3.27680 -3.27680 -3.27680 -3.27680 -3.27680 -3.27680
20.92 20.939390 0.0 18.450 15.016670 0.0960 0.1020 1.0 1.0 200.0 18.769230 500.0 197.0 18.769230 14606.461540 889190.166670 138.461540 42.0 838759741.781950 0.0 0.0 0.0 0.0 0.0 0.0 0.0 -3.27680 -3.27680 -3.27680 -3.27680 -3.27680 -3.27680
20.91 20.927190 0.0 18.50 15.013330 0.0960 0.1020 1.0 1.0 200.0 19.230770 500.0 197.0 19.230770 14592.230770 889190.083330 138.538460 42.0 838759584.763030 0.0 0.0 0.0 0.0 0.0 0.0 0.0 -3.27680 -3.27680 -3.27680 -3.27680 -3.27680 -3.27680
20.90 20.918790 0.0 18.533330 15.010 0.0960 0.1020 1.0 1.0 200.0 19.692310 500.0 197.0 19.692310 14578.0 889190.0 138.615380 42.0 838759427.744120 0.0 0.0 0.0 0.0 0.0 0.0 0.0 -3.27680 -3.27680 -3.27680 -3.27680 -3.27680 -3.27680
20.89 20.910380 0.0 18.566670 15.006670 0.0960 0.1020 1.0 1.0 200.0 20.153850 500.0 197.0 20.153850 14560.666670 889189.769230 138.692310 42.0 838758992.923470 0.0 0.0 0.0 0.0 0.0 0.0 0.0 -3.27680 -3.27680 -3.27680 -3.27680 -3.27680 -3.27680
20.88 20.901980 0.0 18.60 15.003330 0.0960 0.1020 1.0 1.0 200.0 20.615380 500.0 197.0 20.615380 14543.333330 889189.538460 138.769230 42.0 838758558.102830 0.0 0.0 0.0 0.0 0.0 0.0 0.0 -3.27680 -3.27680 -3.27680 -3.27680 -3.27680 -3.27680
20.87 20.889380 0.0 18.650 15.0 0.0960 0.1030 1.0 1.0 200.0 21.076920 500.0 197.0 21.076920 14526.0 889189.307690 138.846150 42.0 838758123.282190 0.0 0.0 0.0 0.0 0.0 0.0 0.0 -3.27680 -3.27680 -3.27680 -3.27680 -3.27680 -3.27680
20.86 20.876780 0.0 18.70 14.996670 0.0960 0.1040 1.0 1.0 200.0 21.538460 500.0 197.0 21.538460 14508.666670 889189.076920 138.923080 42.0 838757688.461550 0.0 0.0 0.0 0.0 0.0 0.0 0.0 -3.27680 -3.27680 -3.27680 -3.27680 -3.27680 -3.27680
20.85 20.868640 0.0 18.733330 14.993330 0.0960 0.103330 1.0 1.0 200.0 22.0 500.0 197.0 22.0 14491.333330 889188.846150 139.0 42.0 838757253.640910 0.0 0.0 0.0 0.0 0.0 0.0 0.0 -3.27680 -3.27680 -3.27680 -3.27680 -3.27680 -3.27680
20.84 20.86050 0.0 18.766670 14.990 0.0960 0.102670 1.0 1.0 200.0 22.0 500.0 197.0 22.0 14474.0 889188.615380 138.916670 42.0 838756818.820270 0.0 0.0 0.0 0.0 0.0 0.0 0.0 -3.27680 -3.27680 -3.27680 -3.27680 -3.27680 -3.27680
20.83 20.852370 0.0 18.80 14.986670 0.0960 0.1020 1.0 1.0 200.0 22.0 500.0 197.0 22.0 14456.666670 889188.384620 138.833330 42.0 838756383.999630 0.0 0.0 0.0 0.0 0.0 0.0 0.0 -3.27680 -3.27680 -3.27680 -3.27680 -3.27680 -3.27680
20.82 20.839760 0.0 18.850 14.983330 0.0960 0.1020 1.0 1.0 200.0 22.0 500.769230 197.0 22.0 14439.333330 889188.153850 138.750 42.0 838755949.178990 0.0 0.0 0.0 0.0 0.0 0.0 0.0 -3.27680 -3.27680 -3.27680 -3.27680 -3.27680 -3.27680
20.81 20.827160 0.0 18.90 14.980 0.0960 0.1020 1.0 1.0 200.0 22.0 501.538460 197.0 22.0 14422.0 889187.923080 138.666670 42.0 838755514.358350 0.0 0.0 0.0 0.0 0.0 0.0 0.0 -3.27680 -3.27680 -3.27680 -3.27680 -3.27680 -3.27680
20.80 20.818760 0.0 18.933330 14.976670 0.0960 0.1020 1.0 1.0 200.0 22.0 502.307690 197.0 22.0 14404.666670 889187.692310 138.583330 42.0 838755079.53770 0.0 0.0 0.0 0.0 0.0 0.0 0.0 -3.27680 -3.27680 -3.27680 -3.27680 -3.27680 -3.27680
20.79 20.810360 0.0 18.966670 14.973330 0.0960 0.1020 1.0 1.0 200.0 22.0 503.076920 197.0 22.0 14387.333330 889187.461540 138.50 42.0 838754644.717060 0.0 0.0 0.0 0.0 0.0 0.0 0.0 -3.27680 -3.27680 -3.27680 -3.27680 -3.27680 -3.27680
20.78 20.801960 0.0 19.0 14.970 0.0960 0.1020 1.0 1.0 200.0 22.0 503.846150 197.0 22.0 14370.0 889187.230770 138.416670 42.0 838754209.896420 0.0 0.0 0.0 0.0 0.0 0.0 0.0 -3.27680 -3.27680 -3.27680 -3.27680 -3.27680 -3.27680
20.77 20.789360 0.0 19.050 14.970 0.0960 0.1020 1.0 1.0 200.0 22.0 504.615380 197.0 22.0 14350.461540 889187.0 138.333330 42.0 838753775.075780 0.0 0.0 0.0 0.0 0.0 0.0 0.0 -3.27680 -3.27680 -3.27680 -3.27680 -3.27680 -3.27680
20.76 20.776760 0.0 19.10 14.970 0.0960 0.1020 1.0 1.0 200.0 22.0 505.384620 197.0 22.0 14330.923080 889187.333330 138.250 42.0 838754403.150390 0.0 0.0 0.0 0.0 0.0 0.0 0.0 -3.27680 -3.27680 -3.27680 -3.27680 -3.27680 -3.27680
20.75 20.768620 0.0 19.133330 14.970 0.0960 0.1020 1.0 1.0 200.0 22.0 506.153850 197.0 22.0 14311.384620 889187.666670 138.166670 42.0 838755031.225010 0.0 0.0 0.0 0.0 0.0 0.0 0.0 -3.27680 -3.27680 -3.27680 -3.27680 -3.27680 -3.27680
20.74 20.760480 0.0 19.166670 14.970 0.0960 0.1020 1.0 1.0 200.0 22.0 506.923080 197.0 22.0 14291.846150 889188.0 138.083330 42.0 838755659.299620 0.0 0.0 0.0 0.0 0.0 0.0 0.0 -3.27680 -3.27680 -3.27680 -3.27680 -3.27680 -3.27680
20.73 20.752340 0.0 19.20 14.970 0.0960 0.1020 1.0 1.0 200.0 22.0 507.692310 197.0 22.0 14272.307690 889188.333330 138.0 42.0 838756287.374230 0.0 0.0 0.0 0.0 0.0 0.0 0.0 -3.27680 -3.27680 -3.27680 -3.27680 -3.27680 -3.27680
20.72 20.739740 0.0 19.250 14.970 0.0960 0.1020 1.0 1.0 200.0 22.268480 508.461540 197.0 22.268480 14252.769230 889188.666670 138.0 42.0 838756915.448840 0.0 0.0 0.0 0.0 0.0 0.0 0.0 -3.27680 -3.27680 -3.27680 -3.27680 -3.27680 -3.27680
20.71 20.727140 0.0 19.30 14.970 0.0960 0.1020 1.0 1.0 200.0 22.536950 509.230770 197.0 22.536950 14233.230770 889189.0 138.0 42.0 838757543.523450 0.0 0.0 0.0 0.0 0.0 0.0 0.0 -3.27680 -3.27680 -3.27680 -3.27680 -3.27680 -3.27680
20.70 20.718740 0.0 19.333330 14.970 0.0960 0.101330 1.0 1.0 200.0 22.805430 510.0 197.0 22.805430 14213.692310 889189.333330 138.0 42.0 838758171.598060 0.0 0.0 0.0 0.0 0.0 0.0 0.0 -3.27680 -3.27680 -3.27680 -3.27680 -3.27680 -3.27680
20.69 20.710340 0.0 19.366670 14.970 0.0960 0.100670 1.0 1.0 200.0 23.073910 509.166670 197.0 23.073910 14194.153850 889189.666670 138.0 42.0 838758799.672680 0.0 0.0 0.0 0.0 0.0 0.0 0.0 -3.27680 -3.27680 -3.27680 -3.27680 -3.27680 -3.27680
20.68 20.701930 0.0 19.40 14.970 0.0960 0.10 1.0 1.0 200.0 23.342380 508.333330 197.0 23.342380 14174.615380 889190.0 138.0 42.0 838759427.747290 0.0 0.0 0.0 0.0 0.0 0.0 0.0 -3.27680 -3.27680 -3.27680 -3.27680 -3.27680 -3.27680
20.67 20.689330 0.0 19.450 14.970 0.0960 0.1010 1.0 1.0 200.0 23.610860 507.50 197.0 23.610860 14155.076920 889190.333330 138.0 42.0 838760055.82190 0.0 0.0 0.0 0.0 0.0 0.0 0.0 -3.27680 -3.27680 -3.27680 -3.27680 -3.27680 -3.27680
20.66 20.676730 0.0 19.50 14.970 0.0960 0.1020 1.0 1.0 200.0 23.879340 506.666670 197.0 23.879340 14135.538460 889190.666670 138.0 42.0 838760683.896510 0.0 0.0 0.0 0.0 0.0 0.0 0.0 -3.27680 -3.27680 -3.27680 -3.27680 -3.27680 -3.27680
