~VERSION INFORMATION SECTION
VERS. 2.0 : CWLS LAS-VERSION 2.0
WRAP. NO : One line per depth step
~WELL INFORMATION SECTION
# MNEM.UNIT VALUE/NAME DESCRIPTION
#-------- -------------- ---------------------
STRT.Metres 2 : Start
STOP.Metres 22.45 : Stop
STEP.Metres 0.01 : Step
NULL.  -999.25 :NULL VALUE
DATE. 2026-02-09 : DATE
~CURVE INFORMATION SECTION
DEPTH.Metres : 0 Depth
Depth. : 1 Depth
Tension. : 2 Tension
Time. : 3 Time
Speed. : 4 Speed
Voltage. : 5 Voltage
Current. : 6 Current
WET. : 7 WET
Sig. : 8 Sig
Vth. : 9 Vth
GR.CPS : 10 GR
Timebase.ms : 11 Timebase
HeadVoltage.V : 12 Head Voltage
API.API : 13 API
Conductivity.uS : 14 Conductivity
PT100.Ohms : 15 PT100
Vmon.mV : 16 Vmon
Status. : 17 Status
Temperature.C : 18 Temperature
Incline.Deg : 19 Incline
Azimuth.Deg : 20 Azimuth
RelativeBearing.Deg : 21 Relative Bearing
MagneticToolFace.Deg : 22 Magnetic Tool Face
GravityMagnitude.G : 23 Gravity Magnitude
MagnetometerMagnitude.H : 24 Magnetometer Magnitude
Temperature.C : 25 Temperature
GX. : 26 GX
GY. : 27 GY
GZ. : 28 GZ
HX. : 29 HX
HY. : 30 HY
HZ. : 31 HZ
~PARAMETER INFORMATION SECTION
~OTHER
#-------------------------------------------------
#Produced By: GeoVista Logger - Version 7.1.107.0
Verticality Sonde - 6292
Temperature and Conductivity Sonde - Inline - 8974
Natural Gamma Sonde - 9931
WLIS - 10024
#-------------------------------------------------
~ASCII LOG DATA
# ...
13.44 13.442670 0.0 79.70 10.0340 0.0960 0.1040 1.0 33.0 100.0 21.0 500.0 196.0 21.0 85.412330 109.66550 153.0 43.0 24.818530 0.255560 303.566670 200.333330 144.30 1.791360 6.059330 21.550 -0.007630 -0.00270 1.79120 0.212390 -0.152660 -0.546050
13.45 13.450940 0.0 79.750 10.0530 0.0960 0.1040 1.0 33.0 100.0 22.0 500.0 196.0 22.0 85.258290 109.665390 153.0 43.0 24.818240 0.266670 303.10 200.80 144.30 1.791370 6.0590 21.550 -0.00750 -0.00260 1.79120 0.212550 -0.152350 -0.54590
13.46 13.459210 0.0 79.80 10.0720 0.0960 0.1040 1.0 33.0 100.0 21.0 500.0 196.0 21.0 85.104260 109.665220 153.0 43.0 24.817810 0.277780 302.633330 201.266670 144.30 1.791380 6.058670 21.550 -0.007380 -0.00250 1.79120 0.212710 -0.152040 -0.545750
13.47 13.467480 0.0 79.850 10.0910 0.0960 0.1040 1.0 33.0 100.0 20.0 500.0 196.0 20.0 84.950230 109.665050 153.0 43.0 24.817380 0.288890 302.166670 201.733330 144.30 1.791390 6.058330 21.550 -0.007250 -0.00240 1.79120 0.212880 -0.151730 -0.54560
13.48 13.475750 0.0 79.90 10.110 0.0960 0.1040 1.0 33.0 100.0 19.0 500.0 196.0 19.0 84.796190 109.664880 153.0 43.0 24.816940 0.30 301.70 202.20 144.30 1.79140 6.0580 21.550 -0.007130 -0.00230 1.79120 0.213040 -0.151410 -0.545450
13.49 13.492290 0.0 80.0 10.0910 0.0960 0.1040 1.0 33.0 100.0 18.0 500.0 196.0 18.0 84.642160 109.664720 153.0 43.0 24.816510 0.28750 302.30 201.650 144.350 1.791390 6.056630 21.550 -0.0070 -0.00220 1.79120 0.21320 -0.15110 -0.54530
13.50 13.500560 0.0 80.050 10.0720 0.0960 0.1040 1.0 33.0 100.0 17.0 500.0 196.0 17.0 84.488120 109.664550 153.0 43.0 24.816080 0.2750 302.90 201.10 144.40 1.791380 6.055250 21.550 -0.007080 -0.002410 1.791210 0.213430 -0.15090 -0.545490
13.51 13.508830 0.0 80.10 10.0530 0.0960 0.1040 1.0 33.0 100.0 16.0 500.0 196.0 16.0 84.69350 109.664380 153.0 43.0 24.815650 0.26250 303.50 200.550 144.450 1.791360 6.053880 21.550 -0.007150 -0.002630 1.791230 0.213650 -0.15070 -0.545680
13.52 13.51710 0.0 80.150 10.0340 0.0960 0.1040 1.0 33.0 100.0 15.0 500.0 196.0 15.0 84.898880 109.664210 153.0 43.0 24.815220 0.250 304.10 200.0 144.50 1.791350 6.05250 21.550 -0.007230 -0.002840 1.791240 0.213880 -0.15050 -0.545860
13.53 13.525370 0.0 80.20 10.0150 0.0960 0.1040 1.0 33.0 100.0 14.0 500.0 196.0 14.0 85.104260 109.664050 153.0 43.0 24.814790 0.23750 304.70 199.450 144.550 1.791340 6.051130 21.550 -0.00730 -0.003050 1.791250 0.21410 -0.15030 -0.546050
13.54 13.541910 0.0 80.30 9.9960 0.0960 0.1040 1.0 33.0 100.0 14.222220 500.0 196.0 14.222220 85.309640 109.663880 153.0 43.0 24.814360 0.2250 305.30 198.90 144.60 1.791330 6.049750 21.550 -0.007380 -0.003260 1.791260 0.214330 -0.15010 -0.546240
13.55 13.550180 0.0 80.350 9.9770 0.0960 0.1040 1.0 33.0 100.0 14.444440 500.0 196.0 14.444440 85.515020 109.663690 153.0 43.0 24.813870 0.21250 305.90 198.350 144.650 1.791310 6.048380 21.550 -0.007450 -0.003470 1.791280 0.214550 -0.14990 -0.546430
13.56 13.558450 0.0 80.40 9.9580 0.0960 0.1040 1.0 33.0 100.0 14.666670 500.0 196.0 14.666670 85.720390 109.66350 153.0 43.0 24.813390 0.20 306.50 197.80 144.70 1.79130 6.0470 21.550 -0.007530 -0.003690 1.791290 0.214780 -0.14970 -0.546610
13.57 13.566720 0.0 80.450 9.9390 0.0960 0.1040 1.0 33.0 100.0 14.888890 500.0 196.0 14.888890 85.925770 109.663310 153.0 43.0 24.81290 0.21250 305.33750 199.03750 144.78750 1.791330 6.0490 21.551250 -0.00760 -0.00390 1.79130 0.2150 -0.14950 -0.54680
13.58 13.574990 0.0 80.50 9.920 0.0960 0.1040 1.0 33.0 100.0 15.111110 500.0 196.0 15.111110 86.131150 109.663130 153.0 43.0 24.812420 0.2250 304.1750 200.2750 144.8750 1.791350 6.0510 21.55250 -0.007590 -0.00380 1.79130 0.214890 -0.149680 -0.546640
13.59 13.592310 0.0 80.60 9.9340 0.0960 0.1040 1.0 33.0 100.0 15.333330 500.0 196.0 15.333330 86.059430 109.662940 153.0 43.0 24.811930 0.23750 303.01250 201.51250 144.96250 1.791380 6.0530 21.553750 -0.007580 -0.00370 1.79130 0.214780 -0.149860 -0.546490
13.60 13.600580 0.0 80.650 9.9480 0.0960 0.1040 1.0 33.0 100.0 15.555560 500.0 196.0 15.555560 85.987710 109.662750 153.0 43.0 24.811440 0.250 301.850 202.750 145.050 1.79140 6.0550 21.5550 -0.007570 -0.00360 1.79130 0.214670 -0.150030 -0.546330
13.61 13.608850 0.0 80.70 9.9620 0.0960 0.1040 1.0 33.0 100.0 15.777780 500.0 196.0 15.777780 85.915990 109.662560 153.0 43.0 24.810960 0.26250 300.68750 203.98750 145.13750 1.791430 6.0570 21.556250 -0.007560 -0.00350 1.79130 0.214560 -0.150210 -0.546180
13.62 13.617520 0.0 80.750 9.9760 0.0960 0.1040 1.0 32.8750 100.0 16.0 500.0 196.0 16.0 85.844270 109.662370 153.0 43.0 24.810470 0.2750 299.5250 205.2250 145.2250 1.791450 6.0590 21.55750 -0.007540 -0.00340 1.79130 0.214440 -0.150390 -0.546020
13.63 13.626180 0.0 80.80 9.990 0.0960 0.1040 1.0 32.750 100.0 16.250 500.0 196.0 16.250 85.772550 109.662070 153.0 43.0 24.80970 0.28750 298.36250 206.46250 145.31250 1.791480 6.0610 21.558750 -0.007530 -0.00330 1.79130 0.214330 -0.150570 -0.545870
13.64 13.642720 0.0 80.90 10.0040 0.0960 0.1040 1.0 32.6250 100.0 16.50 500.0 196.0 16.50 85.700830 109.661770 153.0 43.0 24.808920 0.30 297.20 207.70 145.40 1.79150 6.0630 21.560 -0.007520 -0.00320 1.79130 0.214220 -0.150740 -0.545710
13.65 13.650990 0.0 80.950 10.0180 0.0960 0.1030 1.0 32.50 100.0 16.750 500.0 196.0 16.750 85.629120 109.661470 153.0 43.0 24.808150 0.30 297.833330 207.0 145.333330 1.791490 6.061670 21.560 -0.007510 -0.00310 1.79130 0.214110 -0.150920 -0.545560
13.66 13.659260 0.0 81.0 10.0320 0.0960 0.1020 1.0 32.3750 100.0 17.0 500.0 196.0 17.0 85.55740 109.661170 153.0 43.0 24.807370 0.30 298.466670 206.30 145.266670 1.791480 6.060330 21.560 -0.00750 -0.0030 1.79130 0.2140 -0.15110 -0.54540
13.67 13.667530 0.0 81.050 10.0460 0.0960 0.1030 1.0 32.250 100.0 17.250 500.0 196.0 17.250 85.485680 109.660870 153.0 43.0 24.806590 0.30 299.10 205.60 145.20 1.791470 6.0590 21.560 -0.007590 -0.003060 1.79130 0.213910 -0.151540 -0.545460
13.68 13.67580 0.0 81.10 10.060 0.0960 0.1040 1.0 32.1250 100.0 17.50 500.0 196.0 17.50 85.57370 109.660560 153.0 43.0 24.805820 0.30 299.733330 204.90 145.133330 1.791460 6.057670 21.560 -0.007670 -0.003130 1.79130 0.213830 -0.151980 -0.545530
13.69 13.692340 0.0 81.20 10.0550 0.0960 0.1020 1.0 32.0 100.0 17.750 500.0 196.0 17.750 85.661710 109.660260 153.0 43.0 24.805040 0.30 300.366670 204.20 145.066670 1.791440 6.056330 21.560 -0.007760 -0.003190 1.79130 0.213740 -0.152410 -0.545590
13.70 13.7010 0.0 81.250 10.050 0.0960 0.1030 1.0 32.111110 100.0 18.0 500.0 196.0 18.0 85.749730 109.659960 153.0 43.0 24.804260 0.30 301.0 203.50 145.0 1.791430 6.0550 21.560 -0.007850 -0.003250 1.79130 0.213650 -0.152850 -0.545650
13.71 13.709670 0.0 81.30 10.0450 0.0960 0.1040 1.0 32.222220 100.0 16.485290 500.0 196.0 16.485290 85.837750 109.659760 153.0 43.0 24.803750 0.30 301.633330 202.80 144.933330 1.791420 6.053670 21.560 -0.007940 -0.003310 1.79130 0.213560 -0.153290 -0.545710
13.72 13.717940 0.0 81.350 10.040 0.0960 0.1030 1.0 32.333330 100.0 14.970590 500.0 196.0 14.970590 85.925770 109.659560 153.0 43.0 24.803230 0.30 302.266670 202.10 144.866670 1.791410 6.052330 21.560 -0.008020 -0.003370 1.79130 0.213480 -0.153730 -0.545780
13.73 13.726210 0.0 81.40 10.0350 0.0960 0.1020 1.0 32.444440 100.0 13.455880 500.0 196.0 13.455880 86.013790 109.659360 153.0 43.0 24.802710 0.30 302.90 201.40 144.80 1.79140 6.0510 21.560 -0.008110 -0.003440 1.79130 0.213390 -0.154160 -0.545840
13.74 13.742750 0.0 81.50 10.030 0.0960 0.1020 1.0 32.555560 100.0 11.941180 500.0 196.0 11.941180 86.101810 109.659160 153.0 43.0 24.802190 0.30 302.58750 201.70 144.78750 1.79140 6.055130 21.56250 -0.00820 -0.00350 1.79130 0.21330 -0.15460 -0.54590
13.75 13.751010 0.0 81.550 10.0250 0.0960 0.1030 1.0 32.666670 100.0 10.426470 500.0 196.0 10.426470 86.189830 109.658960 153.0 43.0 24.801670 0.30 302.2750 202.0 144.7750 1.79140 6.059250 21.5650 -0.008060 -0.00340 1.791290 0.213570 -0.15390 -0.546090
13.76 13.759280 0.0 81.60 10.020 0.0960 0.1040 1.0 32.777780 100.0 8.911760 500.0 196.0 8.911760 86.189830 109.658760 153.0 43.0 24.801160 0.30 301.96250 202.30 144.76250 1.79140 6.063380 21.56750 -0.007910 -0.00330 1.791280 0.213830 -0.15320 -0.546280
