~VERSION INFORMATION SECTION
VERS. 2.0 : CWLS LAS-VERSION 2.0
WRAP. NO : One line per depth step
~WELL INFORMATION SECTION
# MNEM.UNIT VALUE/NAME DESCRIPTION
#-------- -------------- ---------------------
STRT.Metres 26 : Start
STOP.Metres -2.05 : Stop
STEP.Metres -0.01 : Step
NULL.  -999.25 :NULL VALUE
DATE. 2026-23-09 : DATE
~CURVE INFORMATION SECTION
DEPTH.Metres : 0 Depth
Depth. : 1 Depth
Tension. : 2 Tension
Time. : 3 Time
Speed. : 4 Speed
Voltage. : 5 Voltage
Current. : 6 Current
WET. : 7 WET
Sig. : 8 Sig
Vth. : 9 Vth
GR.CPS : 10 GR
Timebase.ms : 11 Timebase
HeadVoltage.V : 12 Head Voltage
API.API : 13 API
Conductivity.uS : 14 Conductivity
PT100.Ohms : 15 PT100
Vmon.mV : 16 Vmon
Status. : 17 Status
Temperature.C : 18 Temperature
Incline.Deg : 19 Incline
Azimuth.Deg : 20 Azimuth
RelativeBearing.Deg : 21 Relative Bearing
MagneticToolFace.Deg : 22 Magnetic Tool Face
GravityMagnitude.G : 23 Gravity Magnitude
MagnetometerMagnitude.H : 24 Magnetometer Magnitude
Temperature.C : 25 Temperature
GX. : 26 GX
GY. : 27 GY
GZ. : 28 GZ
HX. : 29 HX
HY. : 30 HY
HZ. : 31 HZ
~PARAMETER INFORMATION SECTION
~OTHER
#-------------------------------------------------
#Produced By: GeoVista Logger - Version 7.1.107.0
Verticality Sonde - 9605
Temperature and Conductivity Sonde - Inline - 8974
Natural Gamma Sonde - 9931
WLIS - 10021
#-------------------------------------------------
~ASCII LOG DATA
# ...
2.49 2.512430 0.0 105.450 14.9640 0.0960 0.1020 1.0 44.0 200.0 41.384620 500.0 197.0 41.384620 1733.416670 890766.0 158.0 43.0 841731596.176230 0.0 0.0 0.0 0.0 0.0 0.0 0.0 -3.27680 -3.27680 -3.27680 -3.27680 -3.27680 -3.27680
2.48 2.499830 0.0 105.50 14.970 0.0960 0.1020 1.0 44.0 200.0 41.538460 500.0 197.0 41.538460 1731.833330 890765.916670 158.0 43.0 841731438.879540 0.0 0.0 0.0 0.0 0.0 0.0 0.0 -3.27680 -3.27680 -3.27680 -3.27680 -3.27680 -3.27680
2.47 2.487620 0.0 105.550 14.973330 0.0960 0.1010 1.0 44.0 200.0 41.692310 500.0 197.0 41.692310 1730.250 890765.833330 158.0 43.0 841731281.582840 0.0 0.0 0.0 0.0 0.0 0.0 0.0 -3.27680 -3.27680 -3.27680 -3.27680 -3.27680 -3.27680
2.46 2.475410 0.0 105.60 14.976670 0.0960 0.10 1.0 44.0 200.0 41.846150 500.0 197.0 41.846150 1728.666670 890765.750 158.0 43.0 841731124.286150 0.0 0.0 0.0 0.0 0.0 0.0 0.0 -3.27680 -3.27680 -3.27680 -3.27680 -3.27680 -3.27680
2.45 2.467010 0.0 105.633330 14.980 0.0960 0.100670 1.0 44.0 200.0 42.0 500.0 197.0 42.0 1727.083330 890765.666670 158.0 43.0 841730966.989450 0.0 0.0 0.0 0.0 0.0 0.0 0.0 -3.27680 -3.27680 -3.27680 -3.27680 -3.27680 -3.27680
2.44 2.458610 0.0 105.666670 14.983330 0.0960 0.101330 1.0 44.0 200.0 41.50 500.0 197.0 41.50 1725.50 890765.583330 158.0 43.0 841730809.692760 0.0 0.0 0.0 0.0 0.0 0.0 0.0 -3.27680 -3.27680 -3.27680 -3.27680 -3.27680 -3.27680
2.43 2.450210 0.0 105.70 14.986670 0.0960 0.1020 1.0 44.0 200.0 41.0 500.0 197.0 41.0 1723.916670 890765.50 158.0 43.0 841730652.396060 0.0 0.0 0.0 0.0 0.0 0.0 0.0 -3.27680 -3.27680 -3.27680 -3.27680 -3.27680 -3.27680
2.42 2.437610 0.0 105.750 14.990 0.0960 0.1020 1.0 44.0 200.0 40.50 500.0 197.0 40.50 1722.333330 890765.416670 158.0 43.0 841730495.099370 0.0 0.0 0.0 0.0 0.0 0.0 0.0 -3.27680 -3.27680 -3.27680 -3.27680 -3.27680 -3.27680
2.41 2.425010 0.0 105.80 14.993330 0.0960 0.1020 1.0 44.0 200.0 40.0 500.0 197.0 40.0 1720.750 890765.333330 158.0 43.0 841730337.802670 0.0 0.0 0.0 0.0 0.0 0.0 0.0 -3.27680 -3.27680 -3.27680 -3.27680 -3.27680 -3.27680
2.40 2.416870 0.0 105.833330 14.996670 0.0960 0.1020 1.0 44.0 200.0 39.50 500.0 197.0 39.50 1719.166670 890765.250 158.0 43.0 841730180.505980 0.0 0.0 0.0 0.0 0.0 0.0 0.0 -3.27680 -3.27680 -3.27680 -3.27680 -3.27680 -3.27680
2.39 2.408730 0.0 105.866670 15.0 0.0960 0.1020 1.0 44.0 200.0 39.0 500.0 197.0 39.0 1717.583330 890765.166670 158.0 43.0 841730023.209280 0.0 0.0 0.0 0.0 0.0 0.0 0.0 -3.27680 -3.27680 -3.27680 -3.27680 -3.27680 -3.27680
2.38 2.400590 0.0 105.90 15.003330 0.0960 0.1020 1.0 44.0 200.0 38.50 500.0 197.0 38.50 1716.0 890765.083330 158.0 43.0 841729865.912590 0.0 0.0 0.0 0.0 0.0 0.0 0.0 -3.27680 -3.27680 -3.27680 -3.27680 -3.27680 -3.27680
2.37 2.387990 0.0 105.950 15.006670 0.0960 0.1020 1.0 44.0 200.0 38.0 500.0 197.0 38.0 1716.0 890765.0 158.0 43.0 841729708.615890 0.0 0.0 0.0 0.0 0.0 0.0 0.0 -3.27680 -3.27680 -3.27680 -3.27680 -3.27680 -3.27680
2.36 2.375390 0.0 106.0 15.010 0.0960 0.1020 1.0 44.0 200.0 37.50 500.0 197.0 37.50 1716.0 890764.916670 158.0 43.0 841729551.319370 0.0 0.0 0.0 0.0 0.0 0.0 0.0 -3.27680 -3.27680 -3.27680 -3.27680 -3.27680 -3.27680
2.35 2.367250 0.0 106.033330 15.013330 0.0960 0.1020 1.0 44.0 200.0 37.0 500.0 197.0 37.0 1716.0 890764.833330 158.0 43.0 841729394.022850 0.0 0.0 0.0 0.0 0.0 0.0 0.0 -3.27680 -3.27680 -3.27680 -3.27680 -3.27680 -3.27680
2.34 2.359110 0.0 106.066670 15.016670 0.0960 0.1020 1.0 44.0 200.0 36.50 500.0 197.0 36.50 1716.0 890764.750 158.0 43.0 841729236.726330 0.0 0.0 0.0 0.0 0.0 0.0 0.0 -3.27680 -3.27680 -3.27680 -3.27680 -3.27680 -3.27680
2.33 2.350970 0.0 106.10 15.020 0.0960 0.1020 1.0 44.0 200.0 36.0 500.0 197.0 36.0 1716.0 890764.666670 158.0 43.0 841729079.429820 0.0 0.0 0.0 0.0 0.0 0.0 0.0 -3.27680 -3.27680 -3.27680 -3.27680 -3.27680 -3.27680
2.32 2.338370 0.0 106.150 15.0140 0.0960 0.1020 1.0 44.0 200.0 37.230770 500.0 197.0 37.230770 1716.0 890764.583330 158.0 43.0 841728922.13330 0.0 0.0 0.0 0.0 0.0 0.0 0.0 -3.27680 -3.27680 -3.27680 -3.27680 -3.27680 -3.27680
2.31 2.325770 0.0 106.20 15.0080 0.0960 0.1020 1.0 44.0 200.0 38.461540 500.0 197.0 38.461540 1716.0 890764.50 158.0 43.0 841728764.836780 0.0 0.0 0.0 0.0 0.0 0.0 0.0 -3.27680 -3.27680 -3.27680 -3.27680 -3.27680 -3.27680
2.30 2.317370 0.0 106.233330 15.0020 0.0960 0.1020 1.0 44.0 200.0 39.692310 500.0 197.0 39.692310 1716.0 890764.416670 158.0 43.0 841728607.540260 0.0 0.0 0.0 0.0 0.0 0.0 0.0 -3.27680 -3.27680 -3.27680 -3.27680 -3.27680 -3.27680
2.29 2.308970 0.0 106.266670 14.9960 0.0960 0.1020 1.0 44.0 200.0 40.923080 500.0 197.0 40.923080 1716.0 890764.333330 158.0 43.0 841728450.243740 0.0 0.0 0.0 0.0 0.0 0.0 0.0 -3.27680 -3.27680 -3.27680 -3.27680 -3.27680 -3.27680
2.28 2.300560 0.0 106.30 14.990 0.0960 0.1020 1.0 44.0 200.0 42.153850 500.0 197.0 42.153850 1716.0 890764.250 158.0 43.0 841728292.947220 0.0 0.0 0.0 0.0 0.0 0.0 0.0 -3.27680 -3.27680 -3.27680 -3.27680 -3.27680 -3.27680
2.27 2.288360 0.0 106.350 14.9840 0.0960 0.1020 1.0 43.916670 200.0 43.384620 500.0 197.0 43.384620 1716.0 890764.166670 158.0 43.0 841728135.65070 0.0 0.0 0.0 0.0 0.0 0.0 0.0 -3.27680 -3.27680 -3.27680 -3.27680 -3.27680 -3.27680
2.26 2.276150 0.0 106.40 14.9780 0.0960 0.1020 1.0 43.833330 200.0 44.615380 500.0 197.0 44.615380 1716.0 890764.083330 158.0 43.0 841727978.354180 0.0 0.0 0.0 0.0 0.0 0.0 0.0 -3.27680 -3.27680 -3.27680 -3.27680 -3.27680 -3.27680
2.25 2.267750 0.0 106.433330 14.9720 0.0960 0.1020 1.0 43.750 200.0 45.846150 500.0 197.0 45.846150 1716.0 890764.0 158.0 43.0 841727821.057670 0.0 0.0 0.0 0.0 0.0 0.0 0.0 -3.27680 -3.27680 -3.27680 -3.27680 -3.27680 -3.27680
2.24 2.259350 0.0 106.466670 14.9660 0.0960 0.1020 1.0 43.666670 200.0 47.076920 500.0 197.0 47.076920 1715.692310 890763.769230 158.0 43.0 841727385.468280 0.0 0.0 0.0 0.0 0.0 0.0 0.0 -3.27680 -3.27680 -3.27680 -3.27680 -3.27680 -3.27680
2.23 2.250950 0.0 106.50 14.960 0.0960 0.1020 1.0 43.583330 200.0 48.307690 500.0 197.0 48.307690 1715.384620 890763.538460 158.0 43.0 841726949.87890 0.0 0.0 0.0 0.0 0.0 0.0 0.0 -3.27680 -3.27680 -3.27680 -3.27680 -3.27680 -3.27680
2.22 2.238740 0.0 106.550 14.9540 0.0960 0.1020 1.0 43.50 200.0 49.538460 500.0 197.0 49.538460 1715.076920 890763.307690 158.0 43.0 841726514.289520 0.0 0.0 0.0 0.0 0.0 0.0 0.0 -3.27680 -3.27680 -3.27680 -3.27680 -3.27680 -3.27680
2.21 2.226530 0.0 106.60 14.9480 0.0960 0.1020 1.0 43.416670 200.0 50.769230 500.0 197.0 50.769230 1714.769230 890763.076920 158.0 43.0 841726078.700140 0.0 0.0 0.0 0.0 0.0 0.0 0.0 -3.27680 -3.27680 -3.27680 -3.27680 -3.27680 -3.27680
2.20 2.218130 0.0 106.633330 14.9420 0.0960 0.1020 1.0 43.333330 200.0 52.0 500.0 197.0 52.0 1714.461540 890762.846150 158.0 43.0 841725643.110750 0.0 0.0 0.0 0.0 0.0 0.0 0.0 -3.27680 -3.27680 -3.27680 -3.27680 -3.27680 -3.27680
2.19 2.209730 0.0 106.666670 14.9360 0.0960 0.1020 1.0 43.250 200.0 52.666670 500.0 197.0 52.666670 1714.153850 890762.615380 158.083330 43.0 841725207.521370 0.0 0.0 0.0 0.0 0.0 0.0 0.0 -3.27680 -3.27680 -3.27680 -3.27680 -3.27680 -3.27680
2.18 2.201330 0.0 106.70 14.930 0.0960 0.1020 1.0 43.166670 200.0 53.333330 500.0 197.0 53.333330 1713.846150 890762.384620 158.166670 43.0 841724771.931990 0.0 0.0 0.0 0.0 0.0 0.0 0.0 -3.27680 -3.27680 -3.27680 -3.27680 -3.27680 -3.27680
2.17 2.188730 0.0 106.750 14.9360 0.0960 0.1020 1.0 43.083330 200.0 54.0 500.0 197.0 54.0 1713.538460 890762.153850 158.250 43.0 841724336.342610 0.0 0.0 0.0 0.0 0.0 0.0 0.0 -3.27680 -3.27680 -3.27680 -3.27680 -3.27680 -3.27680
2.16 2.176120 0.0 106.80 14.9420 0.0960 0.1020 1.0 43.0 200.0 54.666670 500.0 197.0 54.666670 1713.230770 890761.923080 158.333330 43.0 841723900.753220 0.0 0.0 0.0 0.0 0.0 0.0 0.0 -3.27680 -3.27680 -3.27680 -3.27680 -3.27680 -3.27680
2.15 2.167720 0.0 106.833330 14.9480 0.0960 0.1020 1.0 43.0 200.0 55.333330 500.0 197.0 55.333330 1712.923080 890761.692310 158.416670 43.0 841723465.163840 0.0 0.0 0.0 0.0 0.0 0.0 0.0 -3.27680 -3.27680 -3.27680 -3.27680 -3.27680 -3.27680
2.14 2.159320 0.0 106.866670 14.9540 0.0960 0.1020 1.0 43.0 200.0 56.0 500.0 197.0 56.0 1712.615380 890761.461540 158.50 43.0 841723029.574460 0.0 0.0 0.0 0.0 0.0 0.0 0.0 -3.27680 -3.27680 -3.27680 -3.27680 -3.27680 -3.27680
