~VERSION INFORMATION SECTION
VERS. 2.0 : CWLS LAS-VERSION 2.0
WRAP. NO : One line per depth step
~WELL INFORMATION SECTION
# MNEM.UNIT VALUE/NAME DESCRIPTION
#-------- -------------- ---------------------
STRT.Metres 25 : Start
STOP.Metres -2.12 : Stop
STEP.Metres -0.01 : Step
NULL.  -999.25 :NULL VALUE
DATE. 2026-13-09 : DATE
~CURVE INFORMATION SECTION
DEPTH.Metres : 0 Depth
Depth. : 1 Depth
Tension. : 2 Tension
Time. : 3 Time
Speed. : 4 Speed
Voltage. : 5 Voltage
Current. : 6 Current
WET. : 7 WET
Sig. : 8 Sig
Vth. : 9 Vth
GR.CPS : 10 GR
Timebase.ms : 11 Timebase
HeadVoltage.V : 12 Head Voltage
API.API : 13 API
Conductivity.uS : 14 Conductivity
PT100.Ohms : 15 PT100
Vmon.mV : 16 Vmon
Status. : 17 Status
Temperature.C : 18 Temperature
Incline.Deg : 19 Incline
Azimuth.Deg : 20 Azimuth
RelativeBearing.Deg : 21 Relative Bearing
MagneticToolFace.Deg : 22 Magnetic Tool Face
GravityMagnitude.G : 23 Gravity Magnitude
MagnetometerMagnitude.H : 24 Magnetometer Magnitude
Temperature.C : 25 Temperature
GX. : 26 GX
GY. : 27 GY
GZ. : 28 GZ
HX. : 29 HX
HY. : 30 HY
HZ. : 31 HZ
~PARAMETER INFORMATION SECTION
~OTHER
#-------------------------------------------------
#Produced By: GeoVista Logger - Version 7.1.107.0
Verticality Sonde - 9605
Temperature and Conductivity Sonde - Inline - 8974
Natural Gamma Sonde - 9931
WLIS - 10021
#-------------------------------------------------
~ASCII LOG DATA
# ...
3.68 3.696180 0.0 100.50 14.930 0.0960 0.1020 1.0 41.0 200.0 16.0 500.0 197.0 16.0 1683.538460 890809.0 155.0 42.0 841812763.272970 0.0 0.0 0.0 0.0 0.0 0.0 0.0 -3.27680 -3.27680 -3.27680 -3.27680 -3.27680 -3.27680
3.67 3.687780 0.0 100.533330 14.935630 0.0960 0.1020 1.0 41.076920 200.0 16.50 500.0 197.0 16.50 1685.153850 890809.0 155.0 42.0 841812763.272970 0.0 0.0 0.0 0.0 0.0 0.0 0.0 -3.27680 -3.27680 -3.27680 -3.27680 -3.27680 -3.27680
3.66 3.679380 0.0 100.566670 14.941250 0.0960 0.1020 1.0 41.153850 200.0 17.0 500.0 197.0 17.0 1686.769230 890809.0 155.0 42.0 841812763.272970 0.0 0.0 0.0 0.0 0.0 0.0 0.0 -3.27680 -3.27680 -3.27680 -3.27680 -3.27680 -3.27680
3.65 3.670980 0.0 100.60 14.946880 0.0960 0.1020 1.0 41.230770 200.0 17.50 500.0 197.0 17.50 1688.384620 890809.0 155.0 42.0 841812763.272970 0.0 0.0 0.0 0.0 0.0 0.0 0.0 -3.27680 -3.27680 -3.27680 -3.27680 -3.27680 -3.27680
3.64 3.658380 0.0 100.650 14.95250 0.0960 0.1020 1.0 41.307690 200.0 18.0 500.0 197.0 18.0 1690.0 890809.0 155.0 42.0 841812763.272970 0.0 0.0 0.0 0.0 0.0 0.0 0.0 -3.27680 -3.27680 -3.27680 -3.27680 -3.27680 -3.27680
3.63 3.645780 0.0 100.70 14.958130 0.0960 0.1020 1.0 41.384620 200.0 18.50 500.0 197.0 18.50 1691.083330 890808.923080 155.0 42.0 841812618.069020 0.0 0.0 0.0 0.0 0.0 0.0 0.0 -3.27680 -3.27680 -3.27680 -3.27680 -3.27680 -3.27680
3.62 3.637380 0.0 100.733330 14.963750 0.0960 0.1020 1.0 41.461540 200.0 19.0 500.0 197.0 19.0 1692.166670 890808.846150 155.0 42.0 841812472.865070 0.0 0.0 0.0 0.0 0.0 0.0 0.0 -3.27680 -3.27680 -3.27680 -3.27680 -3.27680 -3.27680
3.61 3.628980 0.0 100.766670 14.969380 0.0960 0.1020 1.0 41.538460 200.0 19.50 500.0 197.0 19.50 1693.250 890808.769230 155.0 42.0 841812327.661120 0.0 0.0 0.0 0.0 0.0 0.0 0.0 -3.27680 -3.27680 -3.27680 -3.27680 -3.27680 -3.27680
3.60 3.620570 0.0 100.80 14.9750 0.0960 0.1020 1.0 41.615380 200.0 20.0 500.0 197.0 20.0 1694.333330 890808.692310 155.0 42.0 841812182.457170 0.0 0.0 0.0 0.0 0.0 0.0 0.0 -3.27680 -3.27680 -3.27680 -3.27680 -3.27680 -3.27680
3.59 3.607970 0.0 100.850 14.980630 0.0960 0.1020 1.0 41.692310 200.0 20.0 500.0 197.0 20.0 1695.416670 890808.615380 155.0 42.0 841812037.253220 0.0 0.0 0.0 0.0 0.0 0.0 0.0 -3.27680 -3.27680 -3.27680 -3.27680 -3.27680 -3.27680
3.58 3.595370 0.0 100.90 14.986250 0.0960 0.1020 1.0 41.769230 200.0 20.0 500.0 197.0 20.0 1696.50 890808.538460 155.0 42.0 841811892.049280 0.0 0.0 0.0 0.0 0.0 0.0 0.0 -3.27680 -3.27680 -3.27680 -3.27680 -3.27680 -3.27680
3.57 3.586970 0.0 100.933330 14.991880 0.0960 0.1020 1.0 41.846150 200.0 20.0 500.0 197.0 20.0 1697.583330 890808.461540 155.0 42.0 841811746.845330 0.0 0.0 0.0 0.0 0.0 0.0 0.0 -3.27680 -3.27680 -3.27680 -3.27680 -3.27680 -3.27680
3.56 3.578570 0.0 100.966670 14.99750 0.0960 0.1020 1.0 41.923080 200.0 20.0 500.0 197.0 20.0 1698.666670 890808.384620 155.0 42.0 841811601.641380 0.0 0.0 0.0 0.0 0.0 0.0 0.0 -3.27680 -3.27680 -3.27680 -3.27680 -3.27680 -3.27680
3.55 3.570170 0.0 101.0 15.003130 0.0960 0.1020 1.0 42.0 200.0 20.0 500.0 197.0 20.0 1699.750 890808.307690 155.0 42.0 841811456.437430 0.0 0.0 0.0 0.0 0.0 0.0 0.0 -3.27680 -3.27680 -3.27680 -3.27680 -3.27680 -3.27680
3.54 3.561770 0.0 101.033330 15.008750 0.0960 0.1020 1.0 42.0 200.0 20.0 500.0 197.0 20.0 1700.833330 890808.230770 155.0 42.0 841811311.233480 0.0 0.0 0.0 0.0 0.0 0.0 0.0 -3.27680 -3.27680 -3.27680 -3.27680 -3.27680 -3.27680
3.53 3.553370 0.0 101.066670 15.014380 0.0960 0.1020 1.0 42.0 200.0 20.0 500.0 197.0 20.0 1701.916670 890808.153850 155.0 42.0 841811166.029530 0.0 0.0 0.0 0.0 0.0 0.0 0.0 -3.27680 -3.27680 -3.27680 -3.27680 -3.27680 -3.27680
3.52 3.544970 0.0 101.10 15.020 0.0960 0.1020 1.0 42.0 200.0 20.0 500.0 197.0 20.0 1703.0 890808.076920 155.0 42.0 841811020.825580 0.0 0.0 0.0 0.0 0.0 0.0 0.0 -3.27680 -3.27680 -3.27680 -3.27680 -3.27680 -3.27680
3.51 3.532360 0.0 101.150 15.020 0.0960 0.1020 1.0 42.0 200.0 20.0 500.0 197.0 20.0 1704.250 890808.0 155.0 42.0 841810875.621630 0.0 0.0 0.0 0.0 0.0 0.0 0.0 -3.27680 -3.27680 -3.27680 -3.27680 -3.27680 -3.27680
3.50 3.519760 0.0 101.20 15.020 0.0960 0.1020 1.0 42.0 200.0 20.0 500.0 197.0 20.0 1705.50 890807.750 155.0 42.0 841810403.709850 0.0 0.0 0.0 0.0 0.0 0.0 0.0 -3.27680 -3.27680 -3.27680 -3.27680 -3.27680 -3.27680
3.49 3.511360 0.0 101.233330 15.020 0.0960 0.1020 1.0 42.0 200.0 20.0 500.0 197.0 20.0 1706.750 890807.50 155.0 42.0 841809931.798070 0.0 0.0 0.0 0.0 0.0 0.0 0.0 -3.27680 -3.27680 -3.27680 -3.27680 -3.27680 -3.27680
3.48 3.502960 0.0 101.266670 15.020 0.0960 0.1020 1.0 42.0 200.0 20.0 500.0 197.0 20.0 1708.0 890807.250 155.0 42.0 841809459.886290 0.0 0.0 0.0 0.0 0.0 0.0 0.0 -3.27680 -3.27680 -3.27680 -3.27680 -3.27680 -3.27680
3.47 3.494560 0.0 101.30 15.020 0.0960 0.1020 1.0 42.0 200.0 20.0 500.0 197.0 20.0 1709.250 890807.0 155.0 42.0 841808987.974510 0.0 0.0 0.0 0.0 0.0 0.0 0.0 -3.27680 -3.27680 -3.27680 -3.27680 -3.27680 -3.27680
3.46 3.481960 0.0 101.350 15.020 0.0960 0.1020 1.0 42.0 200.0 20.0 500.0 197.0 20.0 1710.50 890806.750 155.0 42.0 841808516.062740 0.0 0.0 0.0 0.0 0.0 0.0 0.0 -3.27680 -3.27680 -3.27680 -3.27680 -3.27680 -3.27680
3.45 3.469360 0.0 101.40 15.020 0.0960 0.1020 1.0 42.0 200.0 20.0 500.0 197.0 20.0 1711.750 890806.50 155.0 42.0 841808044.150960 0.0 0.0 0.0 0.0 0.0 0.0 0.0 -3.27680 -3.27680 -3.27680 -3.27680 -3.27680 -3.27680
3.44 3.457150 0.0 101.450 15.020 0.0960 0.1020 1.0 42.0 200.0 20.0 500.769230 197.0 20.0 1713.0 890806.250 155.0 42.0 841807572.239180 0.0 0.0 0.0 0.0 0.0 0.0 0.0 -3.27680 -3.27680 -3.27680 -3.27680 -3.27680 -3.27680
3.43 3.444940 0.0 101.50 15.020 0.0960 0.1020 1.0 42.0 200.0 20.0 501.538460 197.0 20.0 1714.250 890806.0 155.0 42.0 841807100.32740 0.0 0.0 0.0 0.0 0.0 0.0 0.0 -3.27680 -3.27680 -3.27680 -3.27680 -3.27680 -3.27680
3.42 3.43680 0.0 101.533330 15.020 0.0960 0.1020 1.0 42.0 200.0 20.0 502.307690 197.0 20.0 1715.50 890805.750 155.0 42.0 841806628.415620 0.0 0.0 0.0 0.0 0.0 0.0 0.0 -3.27680 -3.27680 -3.27680 -3.27680 -3.27680 -3.27680
3.41 3.428660 0.0 101.566670 15.020 0.0960 0.1020 1.0 42.0 200.0 20.0 503.076920 197.0 20.0 1716.750 890805.50 155.0 42.0 841806156.503850 0.0 0.0 0.0 0.0 0.0 0.0 0.0 -3.27680 -3.27680 -3.27680 -3.27680 -3.27680 -3.27680
3.40 3.420530 0.0 101.60 15.020 0.0960 0.1020 1.0 42.0 200.0 20.0 503.846150 197.0 20.0 1718.0 890805.250 155.0 42.0 841805684.592070 0.0 0.0 0.0 0.0 0.0 0.0 0.0 -3.27680 -3.27680 -3.27680 -3.27680 -3.27680 -3.27680
3.39 3.407920 0.0 101.650 15.020 0.0960 0.1020 1.0 42.0 200.0 20.0 504.615380 197.0 20.0 1715.615380 890805.0 155.0 42.0 841805212.680290 0.0 0.0 0.0 0.0 0.0 0.0 0.0 -3.27680 -3.27680 -3.27680 -3.27680 -3.27680 -3.27680
3.38 3.395320 0.0 101.70 15.020 0.0960 0.1020 1.0 42.0 200.0 20.0 505.384620 197.0 20.0 1713.230770 890805.0 155.0 42.0 841805212.680290 0.0 0.0 0.0 0.0 0.0 0.0 0.0 -3.27680 -3.27680 -3.27680 -3.27680 -3.27680 -3.27680
3.37 3.386920 0.0 101.733330 15.016670 0.0960 0.1020 1.0 42.0 200.0 20.0 506.153850 197.0 20.0 1710.846150 890805.0 155.0 42.0 841805212.680290 0.0 0.0 0.0 0.0 0.0 0.0 0.0 -3.27680 -3.27680 -3.27680 -3.27680 -3.27680 -3.27680
3.36 3.378520 0.0 101.766670 15.013330 0.0960 0.1020 1.0 42.0 200.0 20.0 506.923080 197.0 20.0 1708.461540 890805.0 155.0 42.0 841805212.680290 0.0 0.0 0.0 0.0 0.0 0.0 0.0 -3.27680 -3.27680 -3.27680 -3.27680 -3.27680 -3.27680
3.35 3.370120 0.0 101.80 15.010 0.0960 0.1020 1.0 42.0 200.0 20.0 507.692310 197.0 20.0 1706.076920 890805.0 155.0 42.0 841805212.680290 0.0 0.0 0.0 0.0 0.0 0.0 0.0 -3.27680 -3.27680 -3.27680 -3.27680 -3.27680 -3.27680
3.34 3.357520 0.0 101.850 15.006670 0.0960 0.1020 1.0 42.0 200.0 20.573150 508.461540 197.0 20.573150 1703.692310 890805.0 155.0 42.0 841805212.680290 0.0 0.0 0.0 0.0 0.0 0.0 0.0 -3.27680 -3.27680 -3.27680 -3.27680 -3.27680 -3.27680
3.33 3.344920 0.0 101.90 15.003330 0.0960 0.1020 1.0 42.0 200.0 21.14630 509.230770 197.0 21.14630 1701.307690 890805.0 155.0 42.0 841805212.680290 0.0 0.0 0.0 0.0 0.0 0.0 0.0 -3.27680 -3.27680 -3.27680 -3.27680 -3.27680 -3.27680
3.32 3.336780 0.0 101.933330 15.0 0.0960 0.1020 1.0 42.0 200.0 21.719460 510.0 197.0 21.719460 1698.923080 890805.0 155.0 42.0 841805212.680290 0.0 0.0 0.0 0.0 0.0 0.0 0.0 -3.27680 -3.27680 -3.27680 -3.27680 -3.27680 -3.27680
