~VERSION INFORMATION SECTION
VERS. 2.0 : CWLS LAS-VERSION 2.0
WRAP. NO : One line per depth step
~WELL INFORMATION SECTION
# MNEM.UNIT VALUE/NAME DESCRIPTION
#-------- -------------- ---------------------
STRT.Metres 19 : Start
STOP.Metres -2.05 : Stop
STEP.Metres -0.01 : Step
NULL.  -999.25 :NULL VALUE
DATE. 2026-03-09 : DATE
~CURVE INFORMATION SECTION
DEPTH.Metres : 0 Depth
Depth. : 1 Depth
Tension. : 2 Tension
Time. : 3 Time
Speed. : 4 Speed
Voltage. : 5 Voltage
Current. : 6 Current
WET. : 7 WET
Sig. : 8 Sig
Vth. : 9 Vth
GR.CPS : 10 GR
Timebase.ms : 11 Timebase
HeadVoltage.V : 12 Head Voltage
API.API : 13 API
Conductivity.uS : 14 Conductivity
PT100.Ohms : 15 PT100
Vmon.mV : 16 Vmon
Status. : 17 Status
Temperature.C : 18 Temperature
Incline.Deg : 19 Incline
Azimuth.Deg : 20 Azimuth
RelativeBearing.Deg : 21 Relative Bearing
MagneticToolFace.Deg : 22 Magnetic Tool Face
GravityMagnitude.G : 23 Gravity Magnitude
MagnetometerMagnitude.H : 24 Magnetometer Magnitude
Temperature.C : 25 Temperature
GX. : 26 GX
GY. : 27 GY
GZ. : 28 GZ
HX. : 29 HX
HY. : 30 HY
HZ. : 31 HZ
~PARAMETER INFORMATION SECTION
~OTHER
#-------------------------------------------------
#Produced By: GeoVista Logger - Version 7.1.107.0
Verticality Sonde - 9605
Temperature and Conductivity Sonde - Inline - 8974
Natural Gamma Sonde - 9931
WLIS - 10021
#-------------------------------------------------
~ASCII LOG DATA
# ...
18.65 18.65340 0.0 29.50 4.9920 0.0960 0.1020 1.0 5.0 200.0 35.294120 500.0 197.0 35.294120 -999.25 -999.25 144.50 -999.25 -999.25 -999.25 -999.25 -999.25 -999.25 -999.25 -999.25 -999.25 -999.25 -999.25 -999.25 -999.25 -999.25 -999.25
18.64 18.644740 0.0 29.60 5.0 0.0960 0.1020 1.0 5.0 200.0 31.970590 500.0 197.0 31.970590 -999.25 -999.25 144.750 -999.25 -999.25 -999.25 -999.25 -999.25 -999.25 -999.25 -999.25 -999.25 -999.25 -999.25 -999.25 -999.25 -999.25 -999.25
18.63 18.636070 0.0 29.70 5.0 0.0960 0.1020 1.0 5.0 200.0 28.647060 500.0 197.0 28.647060 -999.25 -999.25 145.0 -999.25 -999.25 -999.25 -999.25 -999.25 -999.25 -999.25 -999.25 -999.25 -999.25 -999.25 -999.25 -999.25 -999.25 -999.25
18.62 18.627410 0.0 29.80 5.0 0.0960 0.1040 1.0 5.0 200.0 25.323530 500.0 197.0 25.323530 -999.25 -999.25 145.0 -999.25 -999.25 -999.25 -999.25 -999.25 -999.25 -999.25 -999.25 -999.25 -999.25 -999.25 -999.25 -999.25 -999.25 -999.25
18.61 18.61520 0.0 29.950 5.0 0.0960 0.1030 1.0 5.0 200.0 22.0 500.0 197.0 22.0 1959.259260 -999.25 145.0 20.50 -999.25 -999.25 -999.25 -999.25 -999.25 -999.25 -999.25 -999.25 -999.25 -999.25 -999.25 -999.25 -999.25 -999.25
18.60 18.602990 0.0 30.10 5.0 0.0960 0.1020 1.0 5.0 200.0 20.0 500.0 197.0 20.0 3918.518520 -999.25 145.0 41.0 -999.25 -999.25 -999.25 -999.25 -999.25 -999.25 -999.25 -999.25 -999.25 -999.25 -999.25 -999.25 -999.25 -999.25
18.59 18.594330 0.0 30.20 5.0 0.0960 0.1020 1.0 5.0 200.0 18.0 500.0 197.0 18.0 3915.138890 -999.25 145.0 41.0 -999.25 -999.25 -999.25 -999.25 -999.25 -999.25 -999.25 -999.25 -999.25 -999.25 -999.25 -999.25 -999.25 -999.25
18.58 18.586450 0.0 30.30 5.0 0.0960 0.1020 1.0 5.0 200.0 16.0 500.0 197.0 16.0 3911.759260 -999.25 145.250 41.0 -999.25 -999.25 -999.25 -999.25 -999.25 -999.25 -999.25 -999.25 -999.25 -999.25 -999.25 -999.25 -999.25 -999.25
18.57 18.577790 0.0 30.40 5.0 0.0960 0.1020 1.0 4.750 200.0 14.0 500.0 197.0 14.0 3908.379630 -999.25 145.50 41.0 -999.25 -999.25 -999.25 -999.25 -999.25 -999.25 -999.25 -999.25 -999.25 -999.25 -999.25 -999.25 -999.25 -999.25
18.56 18.565980 0.0 30.550 5.0 0.0960 0.1020 1.0 4.50 200.0 15.0 500.0 197.0 15.0 3905.0 -999.25 145.750 41.0 -999.25 -999.25 -999.25 -999.25 -999.25 -999.25 -999.25 -999.25 -999.25 -999.25 -999.25 -999.25 -999.25 -999.25
18.55 18.553380 0.0 30.70 5.0 0.0960 0.1020 1.0 4.250 200.0 16.0 500.0 197.0 16.0 3881.0 -999.25 146.0 41.0 -999.25 -999.25 -999.25 -999.25 -999.25 -999.25 -999.25 -999.25 -999.25 -999.25 -999.25 -999.25 -999.25 -999.25
18.54 18.544710 0.0 30.80 5.0 0.0960 0.1020 1.0 4.0 200.0 17.0 500.0 197.0 17.0 3857.0 -999.25 146.250 41.0 -999.25 -999.25 -999.25 -999.25 -999.25 -999.25 -999.25 -999.25 -999.25 -999.25 -999.25 -999.25 -999.25 -999.25
18.53 18.536840 0.0 30.90 5.0 0.0960 0.1020 1.0 4.250 200.0 18.0 500.0 197.0 18.0 3833.0 -999.25 146.50 41.0 -999.25 -999.25 -999.25 -999.25 -999.25 -999.25 -999.25 -999.25 -999.25 -999.25 -999.25 -999.25 -999.25 -999.25
18.52 18.528170 0.0 31.0 5.0 0.0960 0.1020 1.0 4.50 200.0 16.0 500.0 197.0 16.0 3809.0 -999.25 146.750 41.0 -999.25 -999.25 -999.25 -999.25 -999.25 -999.25 -999.25 -999.25 -999.25 -999.25 -999.25 -999.25 -999.25 -999.25
18.51 18.515570 0.0 31.150 5.0 0.0960 0.1020 1.0 4.750 200.0 14.0 500.0 197.0 14.0 3783.80 -999.25 147.0 41.0 -999.25 -999.25 -999.25 -999.25 -999.25 -999.25 -999.25 -999.25 -999.25 -999.25 -999.25 -999.25 -999.25 -999.25
18.50 18.503760 0.0 31.30 5.0 0.0960 0.1020 1.0 5.0 200.0 12.0 500.0 197.0 12.0 3758.60 -999.25 146.750 41.0 -999.25 -999.25 -999.25 -999.25 -999.25 -999.25 -999.25 -999.25 -999.25 -999.25 -999.25 -999.25 -999.25 -999.25
18.49 18.495090 0.0 31.40 5.0 0.0960 0.1020 1.0 5.0 200.0 10.0 500.0 197.0 10.0 3733.40 -999.25 146.50 41.0 -999.25 -999.25 -999.25 -999.25 -999.25 -999.25 -999.25 -999.25 -999.25 -999.25 -999.25 -999.25 -999.25 -999.25
18.48 18.486430 0.0 31.50 4.9920 0.0960 0.1020 1.0 5.0 200.0 10.80 500.0 197.0 10.80 3708.20 444813.222220 146.250 41.0 419790994.670360 -999.25 -999.25 -999.25 -999.25 -999.25 -999.25 -999.25 -999.25 -999.25 -999.25 -999.25 -999.25 -999.25
18.47 18.477770 0.0 31.60 4.9840 0.0960 0.1020 1.0 5.0 200.0 11.60 500.0 197.0 11.60 3683.0 889626.444440 146.0 41.0 839581989.340710 -999.25 -999.25 -999.25 -999.25 -999.25 -999.25 -999.25 -999.25 -999.25 -999.25 -999.25 -999.25 -999.25
18.46 18.465560 0.0 31.750 4.9760 0.0960 0.1020 1.0 5.0 200.0 12.40 500.0 197.0 12.40 3678.50 889629.083330 146.0 41.0 839586964.051170 -999.25 -999.25 -999.25 -999.25 -999.25 -999.25 -999.25 -999.25 -999.25 -999.25 -999.25 -999.25 -999.25
18.45 18.453350 0.0 31.90 4.9680 0.0960 0.1020 1.0 5.0 200.0 13.20 500.0 197.0 13.20 3674.0 889631.722220 146.0 41.0 839591938.761630 -999.25 -999.25 -999.25 -999.25 -999.25 -999.25 -999.25 -999.25 -999.25 -999.25 -999.25 -999.25 -999.25
18.44 18.445470 0.0 32.0 4.960 0.0960 0.1020 1.0 5.0 200.0 14.0 500.0 197.0 14.0 3669.50 889634.361110 146.0 41.0 839596913.472090 -999.25 -999.25 -999.25 -999.25 -999.25 -999.25 -999.25 -999.25 -999.25 -999.25 -999.25 -999.25 -999.25
18.43 18.436810 0.0 32.10 4.950 0.0960 0.1020 1.0 5.0 200.0 15.50 500.0 197.0 15.50 3665.0 889637.0 146.0 41.0 839601888.182540 -999.25 -999.25 -999.25 -999.25 -999.25 -999.25 -999.25 -999.25 -999.25 -999.25 -999.25 -999.25 -999.25
18.42 18.42460 0.0 32.250 4.940 0.0960 0.1020 1.0 5.0 200.0 17.0 500.0 197.0 17.0 3646.0 889637.0 146.0 41.0 839601888.182540 -999.25 -999.25 -999.25 -999.25 -999.25 -999.25 -999.25 -999.25 -999.25 -999.25 -999.25 -999.25 -999.25
18.41 18.41240 0.0 32.40 4.930 0.0960 0.1020 1.0 5.250 200.0 18.50 500.0 197.0 18.50 3627.0 889637.0 146.0 41.0 839601888.182540 -999.25 -999.25 -999.25 -999.25 -999.25 -999.25 -999.25 -999.25 -999.25 -999.25 -999.25 -999.25 -999.25
18.40 18.403730 0.0 32.50 4.920 0.0960 0.1020 1.0 5.50 200.0 20.0 500.0 197.0 20.0 3608.0 889637.0 146.0 41.0 839601888.182540 -999.25 -999.25 -999.25 -999.25 -999.25 -999.25 -999.25 -999.25 -999.25 -999.25 -999.25 -999.25 -999.25
18.39 18.395860 0.0 32.60 4.910 0.0960 0.1020 1.0 5.750 200.0 21.50 500.0 197.0 21.50 3589.0 889637.0 146.0 41.0 839601888.182540 -999.25 -999.25 -999.25 -999.25 -999.25 -999.25 -999.25 -999.25 -999.25 -999.25 -999.25 -999.25 -999.25
18.38 18.387190 0.0 32.70 4.910 0.0960 0.1020 1.0 6.0 200.0 23.0 500.0 197.0 23.0 3575.250 889637.40 146.0 41.0 839602642.252180 -999.25 -999.25 -999.25 -999.25 -999.25 -999.25 -999.25 -999.25 -999.25 -999.25 -999.25 -999.25 -999.25
18.37 18.374990 0.0 32.850 4.910 0.0960 0.1020 1.0 6.0 200.0 24.50 500.0 197.0 24.50 3561.50 889637.80 146.0 41.0 839603396.321820 -999.25 -999.25 -999.25 -999.25 -999.25 -999.25 -999.25 -999.25 -999.25 -999.25 -999.25 -999.25 -999.25
18.36 18.362780 0.0 33.0 4.910 0.0960 0.1020 1.0 6.0 200.0 26.0 500.0 197.0 26.0 3547.750 889638.20 146.0 41.0 839604150.391460 -999.25 -999.25 -999.25 -999.25 -999.25 -999.25 -999.25 -999.25 -999.25 -999.25 -999.25 -999.25 -999.25
18.35 18.354110 0.0 33.10 4.910 0.0960 0.1020 1.0 6.0 200.0 27.0 500.0 197.0 27.0 3534.0 889638.60 146.0 41.0 839604904.46110 -999.25 -999.25 -999.25 -999.25 -999.25 -999.25 -999.25 -999.25 -999.25 -999.25 -999.25 -999.25 -999.25
18.34 18.345450 0.0 33.20 4.910 0.0960 0.1020 1.0 6.0 200.0 28.0 500.0 197.0 28.0 3512.0 889639.0 146.0 41.0 839605658.530740 -999.25 -999.25 -999.25 -999.25 -999.25 -999.25 -999.25 -999.25 -999.25 -999.25 -999.25 -999.25 -999.25
18.33 18.337570 0.0 33.30 4.920 0.0960 0.1020 1.0 6.0 200.0 29.0 502.50 197.0 29.0 3490.0 889639.750 146.0 41.0 839607072.415280 -999.25 -999.25 -999.25 -999.25 -999.25 -999.25 -999.25 -999.25 -999.25 -999.25 -999.25 -999.25 -999.25
18.32 18.324970 0.0 33.450 4.930 0.0960 0.1020 1.0 6.0 200.0 30.0 505.0 197.0 30.0 3468.0 889640.50 146.0 41.0 839608486.299830 -999.25 -999.25 -999.25 -999.25 -999.25 -999.25 -999.25 -999.25 -999.25 -999.25 -999.25 -999.25 -999.25
18.31 18.312370 0.0 33.60 4.940 0.0960 0.1020 1.0 6.0 200.0 32.0 507.50 197.0 32.0 3446.0 889641.250 146.0 41.0 839609900.184370 -999.25 -999.25 -999.25 -999.25 -999.25 -999.25 -999.25 -999.25 -999.25 -999.25 -999.25 -999.25 -999.25
