~VERSION INFORMATION SECTION
VERS. 2.0 : CWLS LAS-VERSION 2.0
WRAP. NO : One line per depth step
~WELL INFORMATION SECTION
# MNEM.UNIT VALUE/NAME DESCRIPTION
#-------- -------------- ---------------------
STRT.Metres 2 : Start
STOP.Metres 22.45 : Stop
STEP.Metres 0.01 : Step
NULL.  -999.25 :NULL VALUE
DATE. 2026-02-09 : DATE
~CURVE INFORMATION SECTION
DEPTH.Metres : 0 Depth
Depth. : 1 Depth
Tension. : 2 Tension
Time. : 3 Time
Speed. : 4 Speed
Voltage. : 5 Voltage
Current. : 6 Current
WET. : 7 WET
Sig. : 8 Sig
Vth. : 9 Vth
GR.CPS : 10 GR
Timebase.ms : 11 Timebase
HeadVoltage.V : 12 Head Voltage
API.API : 13 API
Conductivity.uS : 14 Conductivity
PT100.Ohms : 15 PT100
Vmon.mV : 16 Vmon
Status. : 17 Status
Temperature.C : 18 Temperature
Incline.Deg : 19 Incline
Azimuth.Deg : 20 Azimuth
RelativeBearing.Deg : 21 Relative Bearing
MagneticToolFace.Deg : 22 Magnetic Tool Face
GravityMagnitude.G : 23 Gravity Magnitude
MagnetometerMagnitude.H : 24 Magnetometer Magnitude
Temperature.C : 25 Temperature
GX. : 26 GX
GY. : 27 GY
GZ. : 28 GZ
HX. : 29 HX
HY. : 30 HY
HZ. : 31 HZ
~PARAMETER INFORMATION SECTION
~OTHER
#-------------------------------------------------
#Produced By: GeoVista Logger - Version 7.1.107.0
Verticality Sonde - 6292
Temperature and Conductivity Sonde - Inline - 8974
Natural Gamma Sonde - 9931
WLIS - 10024
#-------------------------------------------------
~ASCII LOG DATA
# ...
3.32 3.316170 0.0 19.050 10.020 0.0960 0.1030 0.0 974.0 100.0 30.0 500.0 196.0 30.0 -11.394080 108.798990 1.3750 255.0 22.58690 0.30 52.41250 68.0750 119.9250 1.789960 5.989750 21.320 0.002760 0.009050 1.789810 0.1230 -0.214940 -0.545510
3.33 3.324440 0.0 19.10 10.030 0.0960 0.1040 0.0 974.0 100.0 31.333330 500.0 196.0 31.333330 -11.394080 108.799170 1.250 255.0 22.587380 0.30 51.450 69.0 119.90 1.789950 5.990 21.320 0.002730 0.00890 1.789830 0.1230 -0.214980 -0.545530
3.34 3.340980 0.0 19.20 10.040 0.0960 0.1020 0.0 974.0 100.0 32.666670 500.0 196.0 32.666670 -11.394080 108.799360 1.1250 255.0 22.587870 0.30 50.48750 69.9250 119.8750 1.789940 5.990250 21.320 0.002690 0.008750 1.789840 0.1230 -0.215010 -0.545540
3.35 3.349640 0.0 19.250 10.050 0.0960 0.1030 0.0 974.0 100.0 34.0 500.0 196.0 34.0 -11.394080 108.799550 1.0 255.0 22.588350 0.30 49.5250 70.850 119.850 1.789930 5.99050 21.320 0.002650 0.00860 1.789850 0.1230 -0.215050 -0.545550
3.36 3.358310 0.0 19.30 10.060 0.0960 0.1040 0.0 974.0 100.0 33.671570 500.0 196.0 33.671570 -11.394080 108.799680 1.1250 255.0 22.58870 0.30 48.56250 71.7750 119.8250 1.789910 5.990750 21.320 0.002610 0.008450 1.789860 0.1230 -0.215090 -0.545560
3.37 3.366570 0.0 19.350 10.060 0.0960 0.1040 0.0 974.0 100.0 33.343140 500.0 196.0 33.343140 -11.394080 108.799820 1.250 255.0 22.589040 0.30 47.60 72.70 119.80 1.78990 5.9910 21.320 0.002570 0.00830 1.789880 0.1230 -0.215130 -0.545580
3.38 3.374840 0.0 19.40 10.060 0.0960 0.1040 0.0 974.0 100.0 33.014710 500.0 196.0 33.014710 -11.394080 108.799950 1.3750 255.0 22.589390 0.30 47.377780 72.911110 119.788890 1.789920 5.991330 21.320 0.002540 0.008150 1.789890 0.1230 -0.215160 -0.545590
3.39 3.391380 0.0 19.50 10.060 0.0960 0.1040 0.0 974.0 100.0 32.686270 500.0 196.0 32.686270 -11.394080 108.800090 1.50 255.0 22.589730 0.30 47.155560 73.122220 119.777780 1.789940 5.991670 21.320 0.00250 0.0080 1.78990 0.1230 -0.21520 -0.54560
3.40 3.400050 0.0 19.550 10.060 0.0960 0.1040 0.0 974.0 100.0 32.357840 500.0 196.0 32.357840 -11.394080 108.800220 1.6250 255.0 22.590080 0.30 46.933330 73.333330 119.766670 1.789970 5.9920 21.320 0.002710 0.008220 1.789880 0.122990 -0.215290 -0.54560
3.41 3.408710 0.0 19.60 10.060 0.0960 0.1040 0.0 974.0 100.0 32.029410 500.0 196.0 32.029410 -11.394080 108.800350 1.750 255.0 22.590420 0.30 46.711110 73.544440 119.755560 1.789990 5.992330 21.320 0.002920 0.008450 1.789850 0.122980 -0.215380 -0.54560
3.42 3.416980 0.0 19.650 10.060 0.0960 0.1040 0.0 974.0 100.0 31.700980 500.0 196.0 31.700980 -11.394080 108.800490 1.8750 255.0 22.590770 0.30 46.488890 73.755560 119.744440 1.790010 5.992670 21.320 0.003140 0.008670 1.789830 0.122960 -0.215460 -0.54560
3.43 3.425250 0.0 19.70 10.060 0.0960 0.1040 0.0 974.0 100.0 31.372550 500.0 196.0 31.372550 -11.394080 108.800620 2.0 255.0 22.591110 0.30 46.266670 73.966670 119.733330 1.790030 5.9930 21.320 0.003350 0.00890 1.78980 0.122950 -0.215550 -0.54560
3.44 3.441790 0.0 19.80 10.060 0.0960 0.1020 0.0 974.1250 100.0 30.997820 500.0 196.0 30.997820 -11.394080 108.800760 2.0 255.0 22.591460 0.30 46.044440 74.177780 119.722220 1.790060 5.993330 21.320 0.003560 0.009120 1.789780 0.122940 -0.215640 -0.54560
3.45 3.450060 0.0 19.850 10.060 0.0960 0.1030 0.0 974.250 100.0 30.623090 500.0 196.0 30.623090 -11.394080 108.800980 2.0 255.0 22.592040 0.30 45.822220 74.388890 119.711110 1.790080 5.993670 21.320 0.003770 0.009350 1.789750 0.122930 -0.215730 -0.54560
3.46 3.458330 0.0 19.90 10.060 0.0960 0.1040 0.0 974.3750 100.0 30.248370 501.250 196.0 30.248370 -11.394080 108.801210 2.0 255.0 22.592620 0.30 45.60 74.60 119.70 1.79010 5.9940 21.320 0.003990 0.009570 1.789730 0.122910 -0.215810 -0.54560
3.47 3.46660 0.0 19.950 10.0550 0.0960 0.1040 0.0 974.50 100.0 29.873640 502.50 196.0 29.873640 -11.394080 108.801430 2.0 255.0 22.59320 0.30 46.61250 73.60 119.70 1.790080 5.994130 21.320 0.00420 0.00980 1.78970 0.12290 -0.21590 -0.54560
3.48 3.474870 0.0 20.0 10.050 0.0960 0.1040 0.0 974.6250 100.0 29.498910 503.750 196.0 29.498910 -11.394080 108.801660 2.0 255.0 22.593780 0.30 47.6250 72.60 119.70 1.790050 5.994250 21.320 0.004160 0.009790 1.789710 0.122840 -0.215970 -0.54560
3.49 3.49220 0.0 20.10 10.0450 0.0960 0.1020 0.0 974.750 100.0 29.124180 505.0 196.0 29.124180 -11.394080 108.801890 2.0 255.0 22.594370 0.30 48.63750 71.60 119.70 1.790030 5.994380 21.320 0.004110 0.009780 1.789720 0.122790 -0.216030 -0.54560
3.50 3.500070 0.0 20.150 10.040 0.0960 0.1020 0.0 974.8750 100.0 28.749460 506.250 196.0 28.749460 -11.394080 108.802110 2.0 255.0 22.594950 0.30 49.650 70.60 119.70 1.790 5.99450 21.320 0.004070 0.009770 1.789730 0.122730 -0.21610 -0.54560
3.51 3.507950 0.0 20.20 10.0350 0.0960 0.1020 0.0 975.0 100.0 28.374730 507.50 196.0 28.374730 -11.394080 108.802340 2.0 255.0 22.595530 0.30 50.66250 69.60 119.70 1.789980 5.994630 21.320 0.004020 0.009760 1.789740 0.122680 -0.216170 -0.54560
3.52 3.516610 0.0 20.250 10.030 0.0960 0.1020 0.0 975.0 100.0 28.0 508.750 196.0 28.0 -11.394080 108.802560 2.0 255.0 22.596110 0.30 51.6750 68.60 119.70 1.789950 5.994750 21.320 0.003980 0.009740 1.789760 0.122620 -0.216230 -0.54560
3.53 3.525280 0.0 20.30 10.0250 0.0960 0.1020 0.0 975.0 100.0 28.750 510.0 196.0 28.750 -11.394080 108.802830 1.8750 255.0 22.596790 0.30 52.68750 67.60 119.70 1.789930 5.994880 21.320 0.003930 0.009730 1.789770 0.122570 -0.21630 -0.54560
3.54 3.541810 0.0 20.40 10.020 0.0960 0.1040 0.0 975.0 100.0 29.50 508.888890 196.0 29.50 -11.394080 108.803090 1.750 255.0 22.597470 0.30 53.70 66.60 119.70 1.78990 5.9950 21.320 0.003890 0.009720 1.789780 0.122510 -0.216370 -0.54560
3.55 3.550080 0.0 20.450 10.0150 0.0960 0.1030 0.0 975.0 100.0 30.250 507.777780 196.0 30.250 -11.394080 108.803360 1.6250 255.0 22.598150 0.30 52.950 67.31250 119.6750 1.789910 5.995250 21.320 0.003840 0.009710 1.789790 0.122460 -0.216430 -0.54560
3.56 3.558350 0.0 20.50 10.010 0.0960 0.1020 0.0 975.0 100.0 31.0 506.666670 196.0 31.0 -11.394080 108.803620 1.50 255.0 22.598830 0.30 52.20 68.0250 119.650 1.789930 5.99550 21.320 0.00380 0.00970 1.78980 0.12240 -0.21650 -0.54560
3.57 3.566620 0.0 20.550 10.0050 0.0960 0.1030 0.0 975.0 100.0 31.750 505.555560 196.0 31.750 -11.394080 108.803880 1.3750 255.0 22.599510 0.30 51.450 68.73750 119.6250 1.789940 5.995750 21.320 0.003650 0.009550 1.789810 0.12250 -0.216530 -0.545610
3.58 3.574890 0.0 20.60 10.0 0.0960 0.1040 0.0 975.0 100.0 32.50 504.444440 196.0 32.50 -11.394080 108.804150 1.250 255.0 22.600190 0.30 50.70 69.450 119.60 1.789950 5.9960 21.320 0.00350 0.00940 1.789830 0.12260 -0.216550 -0.545630
3.59 3.591430 0.0 20.70 9.9950 0.0960 0.1040 0.0 975.0 100.0 33.250 503.333330 196.0 33.250 -11.394080 108.804410 1.1250 255.0 22.600860 0.30 49.950 70.16250 119.5750 1.789960 5.996250 21.320 0.003350 0.009250 1.789840 0.12270 -0.216580 -0.545640
3.60 3.59970 0.0 20.750 9.990 0.0960 0.1040 0.0 974.888890 100.0 34.0 502.222220 196.0 34.0 -11.394080 108.804670 1.0 255.0 22.601540 0.30 49.20 70.8750 119.550 1.789980 5.99650 21.320 0.00320 0.00910 1.789850 0.12280 -0.21660 -0.545650
3.61 3.607970 0.0 20.80 9.9850 0.0960 0.1040 0.0 974.777780 100.0 33.0 501.111110 196.0 33.0 -11.394080 108.804840 1.1250 255.0 22.601970 0.30 48.450 71.58750 119.5250 1.789990 5.996750 21.320 0.003050 0.008950 1.789860 0.12290 -0.216630 -0.545660
3.62 3.616640 0.0 20.850 9.980 0.0960 0.1030 0.0 974.666670 100.0 32.0 500.0 196.0 32.0 -11.394080 108.805010 1.250 255.0 22.602410 0.30 47.70 72.30 119.50 1.790 5.9970 21.320 0.00290 0.00880 1.789880 0.1230 -0.216650 -0.545680
3.63 3.62530 0.0 20.90 9.9750 0.0960 0.1020 0.0 974.555560 100.0 31.0 500.0 196.0 31.0 -11.394080 108.805180 1.3750 255.0 22.602840 0.30 47.688890 72.322220 119.511110 1.790 5.997220 21.320 0.002750 0.008650 1.789890 0.12310 -0.216680 -0.545690
3.64 3.641840 0.0 21.0 9.970 0.0960 0.1040 0.0 974.444440 100.0 30.0 500.0 196.0 30.0 -11.394080 108.805340 1.50 255.0 22.603270 0.30 47.677780 72.344440 119.522220 1.790 5.997440 21.320 0.00260 0.00850 1.78990 0.12320 -0.21670 -0.54570
