~VERSION INFORMATION SECTION
VERS. 2.0 : CWLS LAS-VERSION 2.0
WRAP. NO : One line per depth step
~WELL INFORMATION SECTION
# MNEM.UNIT VALUE/NAME DESCRIPTION
#-------- -------------- ---------------------
STRT.Metres 26 : Start
STOP.Metres -2.04 : Stop
STEP.Metres -0.01 : Step
NULL.  -999.25 :NULL VALUE
DATE. 2026-36-09 : DATE
~CURVE INFORMATION SECTION
DEPTH.Metres : 0 Depth
Depth. : 1 Depth
Tension. : 2 Tension
Time. : 3 Time
Speed. : 4 Speed
Voltage. : 5 Voltage
Current. : 6 Current
WET. : 7 WET
Sig. : 8 Sig
Vth. : 9 Vth
GR.CPS : 10 GR
Timebase.ms : 11 Timebase
HeadVoltage.V : 12 Head Voltage
API.API : 13 API
Conductivity.uS : 14 Conductivity
PT100.Ohms : 15 PT100
Vmon.mV : 16 Vmon
Status. : 17 Status
Temperature.C : 18 Temperature
Incline.Deg : 19 Incline
Azimuth.Deg : 20 Azimuth
RelativeBearing.Deg : 21 Relative Bearing
MagneticToolFace.Deg : 22 Magnetic Tool Face
GravityMagnitude.G : 23 Gravity Magnitude
MagnetometerMagnitude.H : 24 Magnetometer Magnitude
Temperature.C : 25 Temperature
GX. : 26 GX
GY. : 27 GY
GZ. : 28 GZ
HX. : 29 HX
HY. : 30 HY
HZ. : 31 HZ
~PARAMETER INFORMATION SECTION
~OTHER
#-------------------------------------------------
#Produced By: GeoVista Logger - Version 7.1.107.0
Verticality Sonde - 9605
Temperature and Conductivity Sonde - Inline - 8974
Natural Gamma Sonde - 9931
WLIS - 10021
#-------------------------------------------------
~ASCII LOG DATA
# ...
2.58 2.601950 0.0 126.366670 14.9040 0.0960 0.101330 1.0 42.0 200.0 77.291670 375.0 197.0 77.291670 1726.50 890726.076920 159.0 43.0 841656240.604990 0.0 0.0 0.0 0.0 0.0 0.0 0.0 -3.27680 -3.27680 -3.27680 -3.27680 -3.27680 -3.27680
2.57 2.593550 0.0 126.40 14.910 0.0960 0.1020 1.0 42.0 200.0 74.583330 400.0 197.0 74.583330 1726.083330 890725.923080 159.0 43.0 841655950.223950 0.0 0.0 0.0 0.0 0.0 0.0 0.0 -3.27680 -3.27680 -3.27680 -3.27680 -3.27680 -3.27680
2.56 2.580950 0.0 126.450 14.9160 0.0960 0.1020 1.0 42.0 200.0 71.8750 407.692310 197.0 71.8750 1725.666670 890725.769230 159.0 43.0 841655659.842920 0.0 0.0 0.0 0.0 0.0 0.0 0.0 -3.27680 -3.27680 -3.27680 -3.27680 -3.27680 -3.27680
2.55 2.568350 0.0 126.50 14.9220 0.0960 0.1020 1.0 42.0 200.0 69.166670 415.384620 197.0 69.166670 1725.250 890725.615380 159.0 43.0 841655369.461880 0.0 0.0 0.0 0.0 0.0 0.0 0.0 -3.27680 -3.27680 -3.27680 -3.27680 -3.27680 -3.27680
2.54 2.559950 0.0 126.533330 14.9280 0.0960 0.1020 1.0 42.076920 200.0 66.458330 423.076920 197.0 66.458330 1724.833330 890725.461540 159.0 43.0 841655079.080840 0.0 0.0 0.0 0.0 0.0 0.0 0.0 -3.27680 -3.27680 -3.27680 -3.27680 -3.27680 -3.27680
2.53 2.551550 0.0 126.566670 14.9340 0.0960 0.1020 1.0 42.153850 200.0 63.750 430.769230 197.0 63.750 1724.416670 890725.307690 159.0 43.0 841654788.69980 0.0 0.0 0.0 0.0 0.0 0.0 0.0 -3.27680 -3.27680 -3.27680 -3.27680 -3.27680 -3.27680
2.52 2.543140 0.0 126.60 14.940 0.0960 0.1020 1.0 42.230770 200.0 61.041670 438.461540 197.0 61.041670 1724.0 890725.153850 159.0 43.0 841654498.318770 0.0 0.0 0.0 0.0 0.0 0.0 0.0 -3.27680 -3.27680 -3.27680 -3.27680 -3.27680 -3.27680
2.51 2.530940 0.0 126.650 14.9460 0.0960 0.1020 1.0 42.307690 200.0 58.333330 446.153850 197.0 58.333330 1723.846150 890725.0 159.0 43.0 841654207.937730 0.0 0.0 0.0 0.0 0.0 0.0 0.0 -3.27680 -3.27680 -3.27680 -3.27680 -3.27680 -3.27680
2.50 2.518730 0.0 126.70 14.9520 0.0960 0.1020 1.0 42.384620 200.0 55.6250 453.846150 197.0 55.6250 1723.692310 890724.916670 159.0 43.0 841654050.648270 0.0 0.0 0.0 0.0 0.0 0.0 0.0 -3.27680 -3.27680 -3.27680 -3.27680 -3.27680 -3.27680
2.49 2.510330 0.0 126.733330 14.9580 0.0960 0.1020 1.0 42.461540 200.0 52.916670 461.538460 197.0 52.916670 1723.538460 890724.833330 159.0 43.0 841653893.35880 0.0 0.0 0.0 0.0 0.0 0.0 0.0 -3.27680 -3.27680 -3.27680 -3.27680 -3.27680 -3.27680
2.48 2.501930 0.0 126.766670 14.9640 0.0960 0.1020 1.0 42.538460 200.0 50.208330 469.230770 197.0 50.208330 1723.384620 890724.750 159.0 43.0 841653736.069340 0.0 0.0 0.0 0.0 0.0 0.0 0.0 -3.27680 -3.27680 -3.27680 -3.27680 -3.27680 -3.27680
2.47 2.493530 0.0 126.80 14.970 0.0960 0.1020 1.0 42.615380 200.0 47.50 476.923080 197.0 47.50 1723.230770 890724.666670 159.0 43.0 841653578.779870 0.0 0.0 0.0 0.0 0.0 0.0 0.0 -3.27680 -3.27680 -3.27680 -3.27680 -3.27680 -3.27680
2.46 2.480920 0.0 126.850 14.973330 0.0960 0.1020 1.0 42.692310 200.0 48.153850 484.615380 197.0 48.153850 1723.076920 890724.583330 159.0 43.0 841653421.490410 0.0 0.0 0.0 0.0 0.0 0.0 0.0 -3.27680 -3.27680 -3.27680 -3.27680 -3.27680 -3.27680
2.45 2.468320 0.0 126.90 14.976670 0.0960 0.1020 1.0 42.769230 200.0 48.807690 492.307690 197.0 48.807690 1722.923080 890724.50 159.0 43.0 841653264.200950 0.0 0.0 0.0 0.0 0.0 0.0 0.0 -3.27680 -3.27680 -3.27680 -3.27680 -3.27680 -3.27680
2.44 2.459920 0.0 126.933330 14.980 0.0960 0.1020 1.0 42.846150 200.0 49.461540 500.0 197.0 49.461540 1722.769230 890724.416670 159.0 43.0 841653106.911480 0.0 0.0 0.0 0.0 0.0 0.0 0.0 -3.27680 -3.27680 -3.27680 -3.27680 -3.27680 -3.27680
2.43 2.451520 0.0 126.966670 14.983330 0.0960 0.1020 1.0 42.923080 200.0 50.115380 500.0 197.0 50.115380 1722.615380 890724.333330 159.0 43.0 841652949.622020 0.0 0.0 0.0 0.0 0.0 0.0 0.0 -3.27680 -3.27680 -3.27680 -3.27680 -3.27680 -3.27680
2.42 2.443120 0.0 127.0 14.986670 0.0960 0.1020 1.0 43.0 200.0 50.769230 500.0 197.0 50.769230 1722.461540 890724.250 159.0 43.0 841652792.332550 0.0 0.0 0.0 0.0 0.0 0.0 0.0 -3.27680 -3.27680 -3.27680 -3.27680 -3.27680 -3.27680
2.41 2.430520 0.0 127.050 14.990 0.0960 0.1020 1.0 42.916670 200.0 51.423080 500.0 197.0 51.423080 1722.307690 890724.166670 159.0 43.0 841652635.043090 0.0 0.0 0.0 0.0 0.0 0.0 0.0 -3.27680 -3.27680 -3.27680 -3.27680 -3.27680 -3.27680
2.40 2.417920 0.0 127.10 14.993330 0.0960 0.1020 1.0 42.833330 200.0 52.076920 500.0 197.0 52.076920 1722.153850 890724.083330 159.0 43.0 841652477.753630 0.0 0.0 0.0 0.0 0.0 0.0 0.0 -3.27680 -3.27680 -3.27680 -3.27680 -3.27680 -3.27680
2.39 2.409780 0.0 127.133330 14.996670 0.0960 0.1020 1.0 42.750 200.0 52.730770 500.0 197.0 52.730770 1722.0 890724.0 159.0 43.0 841652320.464160 0.0 0.0 0.0 0.0 0.0 0.0 0.0 -3.27680 -3.27680 -3.27680 -3.27680 -3.27680 -3.27680
2.38 2.401640 0.0 127.166670 15.0 0.0960 0.1020 1.0 42.666670 200.0 53.384620 500.0 197.0 53.384620 1722.583330 890723.692310 159.0 43.0 841651739.704690 0.0 0.0 0.0 0.0 0.0 0.0 0.0 -3.27680 -3.27680 -3.27680 -3.27680 -3.27680 -3.27680
2.37 2.39350 0.0 127.20 15.003330 0.0960 0.1020 1.0 42.583330 200.0 54.038460 500.0 197.0 54.038460 1723.166670 890723.384620 159.0 43.0 841651158.945220 0.0 0.0 0.0 0.0 0.0 0.0 0.0 -3.27680 -3.27680 -3.27680 -3.27680 -3.27680 -3.27680
2.36 2.381290 0.0 127.250 15.006670 0.0960 0.1020 1.0 42.50 200.0 54.692310 500.0 197.0 54.692310 1723.750 890723.076920 159.0 43.0 841650578.185750 0.0 0.0 0.0 0.0 0.0 0.0 0.0 -3.27680 -3.27680 -3.27680 -3.27680 -3.27680 -3.27680
2.35 2.369090 0.0 127.30 15.010 0.0960 0.1020 1.0 42.416670 200.0 55.346150 500.0 197.0 55.346150 1724.333330 890722.769230 159.0 43.0 841649997.426280 0.0 0.0 0.0 0.0 0.0 0.0 0.0 -3.27680 -3.27680 -3.27680 -3.27680 -3.27680 -3.27680
2.34 2.360680 0.0 127.333330 15.013330 0.0960 0.1020 1.0 42.333330 200.0 56.0 500.0 197.0 56.0 1724.916670 890722.461540 159.0 43.0 841649416.666810 0.0 0.0 0.0 0.0 0.0 0.0 0.0 -3.27680 -3.27680 -3.27680 -3.27680 -3.27680 -3.27680
2.33 2.352280 0.0 127.366670 15.016670 0.0960 0.1020 1.0 42.250 200.0 55.0 500.0 197.0 55.0 1725.50 890722.153850 159.0 43.0 841648835.907340 0.0 0.0 0.0 0.0 0.0 0.0 0.0 -3.27680 -3.27680 -3.27680 -3.27680 -3.27680 -3.27680
2.32 2.343880 0.0 127.40 15.020 0.0960 0.1020 1.0 42.166670 200.0 54.0 500.0 197.0 54.0 1726.083330 890721.846150 159.0 43.0 841648255.147870 0.0 0.0 0.0 0.0 0.0 0.0 0.0 -3.27680 -3.27680 -3.27680 -3.27680 -3.27680 -3.27680
2.31 2.331280 0.0 127.450 15.0140 0.0960 0.1020 1.0 42.083330 200.0 53.0 500.0 197.0 53.0 1726.666670 890721.538460 159.0 43.0 841647674.38840 0.0 0.0 0.0 0.0 0.0 0.0 0.0 -3.27680 -3.27680 -3.27680 -3.27680 -3.27680 -3.27680
2.30 2.318680 0.0 127.50 15.0080 0.0960 0.1020 1.0 42.0 200.0 52.0 500.0 197.0 52.0 1727.250 890721.230770 159.0 43.0 841647093.628930 0.0 0.0 0.0 0.0 0.0 0.0 0.0 -3.27680 -3.27680 -3.27680 -3.27680 -3.27680 -3.27680
2.29 2.310540 0.0 127.533330 15.0020 0.0960 0.1020 1.0 42.0 200.0 51.0 500.0 197.0 51.0 1727.833330 890720.923080 159.0 43.0 841646512.869460 0.0 0.0 0.0 0.0 0.0 0.0 0.0 -3.27680 -3.27680 -3.27680 -3.27680 -3.27680 -3.27680
2.28 2.30240 0.0 127.566670 14.9960 0.0960 0.1020 1.0 42.0 200.0 50.0 500.0 197.0 50.0 1728.416670 890720.615380 159.0 43.0 841645932.109990 0.0 0.0 0.0 0.0 0.0 0.0 0.0 -3.27680 -3.27680 -3.27680 -3.27680 -3.27680 -3.27680
2.27 2.294260 0.0 127.60 14.990 0.0960 0.1020 1.0 42.0 200.0 49.0 500.0 197.0 49.0 1729.0 890720.307690 159.0 43.0 841645351.350520 0.0 0.0 0.0 0.0 0.0 0.0 0.0 -3.27680 -3.27680 -3.27680 -3.27680 -3.27680 -3.27680
2.26 2.281660 0.0 127.650 14.9840 0.0960 0.1020 1.0 42.0 200.0 48.0 500.0 197.0 48.0 1730.153850 890720.0 159.0 43.0 841644770.591050 0.0 0.0 0.0 0.0 0.0 0.0 0.0 -3.27680 -3.27680 -3.27680 -3.27680 -3.27680 -3.27680
2.25 2.269060 0.0 127.70 14.9780 0.0960 0.1020 1.0 42.0 200.0 47.0 500.0 197.0 47.0 1731.307690 890719.50 159.0 43.0 841643826.862210 0.0 0.0 0.0 0.0 0.0 0.0 0.0 -3.27680 -3.27680 -3.27680 -3.27680 -3.27680 -3.27680
2.24 2.260660 0.0 127.733330 14.9720 0.0960 0.1020 1.0 42.0 200.0 46.0 500.0 197.0 46.0 1732.461540 890719.0 159.0 43.0 841642883.133360 0.0 0.0 0.0 0.0 0.0 0.0 0.0 -3.27680 -3.27680 -3.27680 -3.27680 -3.27680 -3.27680
