~VERSION INFORMATION SECTION
VERS. 2.0 : CWLS LAS-VERSION 2.0
WRAP. NO : One line per depth step
~WELL INFORMATION SECTION
# MNEM.UNIT VALUE/NAME DESCRIPTION
#-------- -------------- ---------------------
STRT.Metres 26 : Start
STOP.Metres -2.05 : Stop
STEP.Metres -0.01 : Step
NULL.  -999.25 :NULL VALUE
DATE. 2026-23-09 : DATE
~CURVE INFORMATION SECTION
DEPTH.Metres : 0 Depth
Depth. : 1 Depth
Tension. : 2 Tension
Time. : 3 Time
Speed. : 4 Speed
Voltage. : 5 Voltage
Current. : 6 Current
WET. : 7 WET
Sig. : 8 Sig
Vth. : 9 Vth
GR.CPS : 10 GR
Timebase.ms : 11 Timebase
HeadVoltage.V : 12 Head Voltage
API.API : 13 API
Conductivity.uS : 14 Conductivity
PT100.Ohms : 15 PT100
Vmon.mV : 16 Vmon
Status. : 17 Status
Temperature.C : 18 Temperature
Incline.Deg : 19 Incline
Azimuth.Deg : 20 Azimuth
RelativeBearing.Deg : 21 Relative Bearing
MagneticToolFace.Deg : 22 Magnetic Tool Face
GravityMagnitude.G : 23 Gravity Magnitude
MagnetometerMagnitude.H : 24 Magnetometer Magnitude
Temperature.C : 25 Temperature
GX. : 26 GX
GY. : 27 GY
GZ. : 28 GZ
HX. : 29 HX
HY. : 30 HY
HZ. : 31 HZ
~PARAMETER INFORMATION SECTION
~OTHER
#-------------------------------------------------
#Produced By: GeoVista Logger - Version 7.1.107.0
Verticality Sonde - 9605
Temperature and Conductivity Sonde - Inline - 8974
Natural Gamma Sonde - 9931
WLIS - 10021
#-------------------------------------------------
~ASCII LOG DATA
# ...
22.95 22.969950 0.0 23.633330 12.519330 0.0960 0.101330 1.0 0.333330 200.0 13.0 500.0 197.0 13.0 18702.250 888915.769230 152.0 47.0 838242794.600010 0.0 0.0 0.0 0.0 0.0 0.0 0.0 -3.27680 -3.27680 -3.27680 -3.27680 -3.27680 -3.27680
22.94 22.961810 0.0 23.666670 12.7680 0.0960 0.100670 1.0 0.250 200.0 12.166670 500.0 197.0 12.166670 18700.0 888916.384620 152.0 47.0 838243953.762910 0.0 0.0 0.0 0.0 0.0 0.0 0.0 -3.27680 -3.27680 -3.27680 -3.27680 -3.27680 -3.27680
22.93 22.953670 0.0 23.70 13.016670 0.0960 0.10 1.0 0.166670 200.0 11.333330 500.0 197.0 11.333330 18697.384620 888917.0 152.0 47.0 838245112.925810 0.0 0.0 0.0 0.0 0.0 0.0 0.0 -3.27680 -3.27680 -3.27680 -3.27680 -3.27680 -3.27680
22.92 22.941070 0.0 23.750 13.265330 0.0960 0.1010 1.0 0.083330 200.0 10.50 500.0 196.93750 10.50 18694.769230 888917.583330 152.0 47.0 838246211.72490 0.0 0.0 0.0 0.0 0.0 0.0 0.0 -3.27680 -3.27680 -3.27680 -3.27680 -3.27680 -3.27680
22.91 22.928470 0.0 23.80 13.5140 0.0960 0.1020 1.0 0.0 200.0 9.666670 500.0 196.947920 9.666670 18692.153850 888918.166670 152.0 47.0 838247310.523990 0.0 0.0 0.0 0.0 0.0 0.0 0.0 -3.27680 -3.27680 -3.27680 -3.27680 -3.27680 -3.27680
22.90 22.920330 0.0 23.833330 13.762670 0.0960 0.1020 1.0 0.0 200.0 8.833330 500.0 196.958330 8.833330 18689.538460 888918.750 152.0 47.0 838248409.323080 0.0 0.0 0.0 0.0 0.0 0.0 0.0 -3.27680 -3.27680 -3.27680 -3.27680 -3.27680 -3.27680
22.89 22.912190 0.0 23.866670 14.011330 0.0960 0.1020 1.0 0.0 200.0 8.0 500.0 196.968750 8.0 18686.923080 888919.333330 152.0 47.0 838249508.122160 0.0 0.0 0.0 0.0 0.0 0.0 0.0 -3.27680 -3.27680 -3.27680 -3.27680 -3.27680 -3.27680
22.88 22.904050 0.0 23.90 14.260 0.0960 0.1020 1.0 0.0 200.0 9.076920 500.0 196.979170 9.076920 18684.307690 888919.916670 152.0 47.0 838250606.921250 0.0 0.0 0.0 0.0 0.0 0.0 0.0 -3.27680 -3.27680 -3.27680 -3.27680 -3.27680 -3.27680
22.87 22.891450 0.0 23.950 14.2980 0.0960 0.1020 1.0 0.0 200.0 10.153850 500.0 196.989580 10.153850 18681.692310 888920.50 152.0 47.0 838251705.720340 0.0 0.0 0.0 0.0 0.0 0.0 0.0 -3.27680 -3.27680 -3.27680 -3.27680 -3.27680 -3.27680
22.86 22.878850 0.0 24.0 14.3360 0.0960 0.1020 1.0 0.0 200.0 11.230770 500.0 197.0 11.230770 18679.076920 888921.083330 152.0 47.0 838252804.519430 0.0 0.0 0.0 0.0 0.0 0.0 0.0 -3.27680 -3.27680 -3.27680 -3.27680 -3.27680 -3.27680
22.85 22.870710 0.0 24.033330 14.3740 0.0960 0.1020 1.0 0.0 200.0 12.307690 501.250 197.0 12.307690 18676.461540 888921.666670 152.0 47.0 838253903.318520 0.0 0.0 0.0 0.0 0.0 0.0 0.0 -3.27680 -3.27680 -3.27680 -3.27680 -3.27680 -3.27680
22.84 22.862570 0.0 24.066670 14.4120 0.0960 0.1020 1.0 0.0 200.0 13.384620 501.041670 197.0 13.384620 18673.846150 888922.250 152.0 47.0 838255002.117610 0.0 0.0 0.0 0.0 0.0 0.0 0.0 -3.27680 -3.27680 -3.27680 -3.27680 -3.27680 -3.27680
22.83 22.854430 0.0 24.10 14.450 0.0960 0.1020 1.0 0.0 200.0 14.461540 500.833330 197.0 14.461540 18671.230770 888922.833330 152.0 47.0 838256100.91670 0.0 0.0 0.0 0.0 0.0 0.0 0.0 -3.27680 -3.27680 -3.27680 -3.27680 -3.27680 -3.27680
22.82 22.841830 0.0 24.150 14.4880 0.0960 0.1020 1.0 0.0 200.0 15.538460 500.6250 197.0 15.538460 18668.615380 888923.416670 152.0 47.0 838257199.715790 0.0 0.0 0.0 0.0 0.0 0.0 0.0 -3.27680 -3.27680 -3.27680 -3.27680 -3.27680 -3.27680
22.81 22.829230 0.0 24.20 14.5260 0.0960 0.1020 1.0 0.0 200.0 16.615380 500.416670 197.0 16.615380 18666.0 888924.0 152.0 47.0 838258298.514880 0.0 0.0 0.0 0.0 0.0 0.0 0.0 -3.27680 -3.27680 -3.27680 -3.27680 -3.27680 -3.27680
22.80 22.820830 0.0 24.233330 14.5640 0.0960 0.1020 1.0 0.0 200.0 17.692310 500.208330 197.0 17.692310 18664.250 888924.307690 152.0 47.0 838258878.10480 0.0 0.0 0.0 0.0 0.0 0.0 0.0 -3.27680 -3.27680 -3.27680 -3.27680 -3.27680 -3.27680
22.79 22.812430 0.0 24.266670 14.6020 0.0960 0.1020 1.0 0.0 200.0 18.769230 500.0 197.0 18.769230 18662.50 888924.615380 152.0 47.0 838259457.694710 0.0 0.0 0.0 0.0 0.0 0.0 0.0 -3.27680 -3.27680 -3.27680 -3.27680 -3.27680 -3.27680
22.78 22.804030 0.0 24.30 14.640 0.0960 0.1020 1.0 0.0 200.0 19.846150 500.0 197.0 19.846150 18660.750 888924.923080 152.0 47.0 838260037.284630 0.0 0.0 0.0 0.0 0.0 0.0 0.0 -3.27680 -3.27680 -3.27680 -3.27680 -3.27680 -3.27680
22.77 22.791820 0.0 24.350 14.6780 0.0960 0.1020 1.0 0.0 200.0 20.923080 500.0 197.0 20.923080 18659.0 888925.230770 152.0 47.0 838260616.874540 0.0 0.0 0.0 0.0 0.0 0.0 0.0 -3.27680 -3.27680 -3.27680 -3.27680 -3.27680 -3.27680
22.76 22.779610 0.0 24.40 14.7160 0.0960 0.1020 1.0 0.0 200.0 22.0 500.0 197.0 22.0 18657.250 888925.538460 152.0 47.0 838261196.464460 0.0 0.0 0.0 0.0 0.0 0.0 0.0 -3.27680 -3.27680 -3.27680 -3.27680 -3.27680 -3.27680
22.75 22.771210 0.0 24.433330 14.7540 0.0960 0.1020 1.0 0.0 200.0 17.578430 500.0 197.0 17.578430 18655.50 888925.846150 152.0 47.0 838261776.054370 0.0 0.0 0.0 0.0 0.0 0.0 0.0 -3.27680 -3.27680 -3.27680 -3.27680 -3.27680 -3.27680
22.74 22.762810 0.0 24.466670 14.7920 0.0960 0.1020 1.0 0.0 200.0 18.315360 500.0 197.0 18.315360 18653.750 888926.153850 152.0 47.0 838262355.644280 0.0 0.0 0.0 0.0 0.0 0.0 0.0 -3.27680 -3.27680 -3.27680 -3.27680 -3.27680 -3.27680
22.73 22.754410 0.0 24.50 14.830 0.0960 0.1020 1.0 0.0 200.0 19.052290 500.0 197.0 19.052290 18652.0 888926.461540 152.0 47.0 838262935.23420 0.0 0.0 0.0 0.0 0.0 0.0 0.0 -3.27680 -3.27680 -3.27680 -3.27680 -3.27680 -3.27680
22.72 22.74220 0.0 24.550 14.836670 0.0960 0.1020 1.0 0.0 200.0 19.789220 500.0 197.0 19.789220 18650.250 888926.769230 152.0 47.0 838263514.824110 0.0 0.0 0.0 0.0 0.0 0.0 0.0 -3.27680 -3.27680 -3.27680 -3.27680 -3.27680 -3.27680
22.71 22.729990 0.0 24.60 14.843330 0.0960 0.1020 1.0 0.0 200.0 20.526140 500.0 197.0 20.526140 18648.50 888927.076920 152.0 47.0 838264094.414030 0.0 0.0 0.0 0.0 0.0 0.0 0.0 -3.27680 -3.27680 -3.27680 -3.27680 -3.27680 -3.27680
22.70 22.721590 0.0 24.633330 14.850 0.0960 0.1020 1.0 0.0 200.0 21.263070 500.0 197.0 21.263070 18646.750 888927.384620 152.0 47.0 838264674.003940 0.0 0.0 0.0 0.0 0.0 0.0 0.0 -3.27680 -3.27680 -3.27680 -3.27680 -3.27680 -3.27680
22.69 22.713190 0.0 24.666670 14.856670 0.0960 0.1020 1.0 0.0 200.0 22.0 500.0 197.0 22.0 18645.0 888927.692310 152.0 47.0 838265253.593860 0.0 0.0 0.0 0.0 0.0 0.0 0.0 -3.27680 -3.27680 -3.27680 -3.27680 -3.27680 -3.27680
22.68 22.704790 0.0 24.70 14.863330 0.0960 0.1020 1.0 0.0 200.0 21.272730 500.0 197.0 21.272730 18642.384620 888928.0 152.0 47.0 838265833.183770 0.0 0.0 0.0 0.0 0.0 0.0 0.0 -3.27680 -3.27680 -3.27680 -3.27680 -3.27680 -3.27680
22.67 22.692190 0.0 24.750 14.870 0.0960 0.1020 1.0 0.0 200.0 20.545450 500.0 197.0 20.545450 18639.769230 888928.583330 152.0 47.0 838266931.996440 0.0 0.0 0.0 0.0 0.0 0.0 0.0 -3.27680 -3.27680 -3.27680 -3.27680 -3.27680 -3.27680
22.66 22.679590 0.0 24.80 14.876670 0.0960 0.1020 1.0 0.0 200.0 19.818180 500.0 197.0 19.818180 18637.153850 888929.166670 152.0 47.0 838268030.809110 0.0 0.0 0.0 0.0 0.0 0.0 0.0 -3.27680 -3.27680 -3.27680 -3.27680 -3.27680 -3.27680
22.65 22.671180 0.0 24.833330 14.883330 0.0960 0.1020 1.0 0.0 200.0 19.090910 500.0 197.0 19.090910 18634.538460 888929.750 152.0 47.0 838269129.621780 0.0 0.0 0.0 0.0 0.0 0.0 0.0 -3.27680 -3.27680 -3.27680 -3.27680 -3.27680 -3.27680
22.64 22.662780 0.0 24.866670 14.890 0.0960 0.1020 1.0 0.0 200.0 18.363640 500.0 197.0 18.363640 18631.923080 888930.333330 152.0 47.0 838270228.434450 0.0 0.0 0.0 0.0 0.0 0.0 0.0 -3.27680 -3.27680 -3.27680 -3.27680 -3.27680 -3.27680
22.63 22.654380 0.0 24.90 14.896670 0.0960 0.1020 1.0 0.0 200.0 17.636360 500.0 197.0 17.636360 18629.307690 888930.916670 152.0 47.0 838271327.247120 0.0 0.0 0.0 0.0 0.0 0.0 0.0 -3.27680 -3.27680 -3.27680 -3.27680 -3.27680 -3.27680
22.62 22.641780 0.0 24.950 14.903330 0.0960 0.1020 1.0 0.0 200.0 16.909090 500.0 197.0 16.909090 18626.692310 888931.50 152.0 47.0 838272426.059790 0.0 0.0 0.0 0.0 0.0 0.0 0.0 -3.27680 -3.27680 -3.27680 -3.27680 -3.27680 -3.27680
22.61 22.629180 0.0 25.0 14.910 0.0960 0.1020 1.0 0.0 200.0 16.181820 500.0 196.916670 16.181820 18624.076920 888932.083330 152.0 47.0 838273524.872460 0.0 0.0 0.0 0.0 0.0 0.0 0.0 -3.27680 -3.27680 -3.27680 -3.27680 -3.27680 -3.27680
