~VERSION INFORMATION SECTION
VERS. 2.0 : CWLS LAS-VERSION 2.0
WRAP. NO : One line per depth step
~WELL INFORMATION SECTION
# MNEM.UNIT VALUE/NAME DESCRIPTION
#-------- -------------- ---------------------
STRT.Metres 26 : Start
STOP.Metres -2.05 : Stop
STEP.Metres -0.01 : Step
NULL.  -999.25 :NULL VALUE
DATE. 2026-23-09 : DATE
~CURVE INFORMATION SECTION
DEPTH.Metres : 0 Depth
Depth. : 1 Depth
Tension. : 2 Tension
Time. : 3 Time
Speed. : 4 Speed
Voltage. : 5 Voltage
Current. : 6 Current
WET. : 7 WET
Sig. : 8 Sig
Vth. : 9 Vth
GR.CPS : 10 GR
Timebase.ms : 11 Timebase
HeadVoltage.V : 12 Head Voltage
API.API : 13 API
Conductivity.uS : 14 Conductivity
PT100.Ohms : 15 PT100
Vmon.mV : 16 Vmon
Status. : 17 Status
Temperature.C : 18 Temperature
Incline.Deg : 19 Incline
Azimuth.Deg : 20 Azimuth
RelativeBearing.Deg : 21 Relative Bearing
MagneticToolFace.Deg : 22 Magnetic Tool Face
GravityMagnitude.G : 23 Gravity Magnitude
MagnetometerMagnitude.H : 24 Magnetometer Magnitude
Temperature.C : 25 Temperature
GX. : 26 GX
GY. : 27 GY
GZ. : 28 GZ
HX. : 29 HX
HY. : 30 HY
HZ. : 31 HZ
~PARAMETER INFORMATION SECTION
~OTHER
#-------------------------------------------------
#Produced By: GeoVista Logger - Version 7.1.107.0
Verticality Sonde - 9605
Temperature and Conductivity Sonde - Inline - 8974
Natural Gamma Sonde - 9931
WLIS - 10021
#-------------------------------------------------
~ASCII LOG DATA
# ...
7.48 7.500270 0.0 85.50 14.970 0.0960 0.1020 1.0 43.0 200.0 4.769230 505.833330 197.0 4.769230 1857.666670 890386.384620 159.769230 43.0 841015201.391580 0.0 0.0 0.0 0.0 0.0 0.0 0.0 -3.27680 -3.27680 -3.27680 -3.27680 -3.27680 -3.27680
7.47 7.491870 0.0 85.533330 14.970 0.0960 0.1020 1.0 43.0 200.0 3.846150 506.666670 197.0 3.846150 1858.50 890388.076920 159.846150 43.0 841018394.39390 0.0 0.0 0.0 0.0 0.0 0.0 0.0 -3.27680 -3.27680 -3.27680 -3.27680 -3.27680 -3.27680
7.46 7.483470 0.0 85.566670 14.970 0.0960 0.1020 1.0 43.0 200.0 2.923080 507.50 197.0 2.923080 1859.333330 890389.769230 159.923080 43.0 841021587.396220 0.0 0.0 0.0 0.0 0.0 0.0 0.0 -3.27680 -3.27680 -3.27680 -3.27680 -3.27680 -3.27680
7.45 7.475060 0.0 85.60 14.970 0.0960 0.1020 1.0 43.0 200.0 2.0 508.333330 197.0 2.0 1860.166670 890391.461540 160.0 43.0 841024780.398540 0.0 0.0 0.0 0.0 0.0 0.0 0.0 -3.27680 -3.27680 -3.27680 -3.27680 -3.27680 -3.27680
7.44 7.462460 0.0 85.650 14.970 0.0960 0.1020 1.0 43.0 200.0 3.140520 509.166670 197.0 3.140520 1861.0 890393.153850 159.916670 43.0 841027973.400860 0.0 0.0 0.0 0.0 0.0 0.0 0.0 -3.27680 -3.27680 -3.27680 -3.27680 -3.27680 -3.27680
7.43 7.449860 0.0 85.70 14.970 0.0960 0.1020 1.0 43.0 200.0 4.281050 510.0 197.0 4.281050 1861.833330 890394.846150 159.833330 43.0 841031166.403180 0.0 0.0 0.0 0.0 0.0 0.0 0.0 -3.27680 -3.27680 -3.27680 -3.27680 -3.27680 -3.27680
7.42 7.437650 0.0 85.750 14.970 0.0960 0.1020 1.0 43.0 200.0 5.421570 509.230770 197.0 5.421570 1862.666670 890396.538460 159.750 43.0 841034359.405490 0.0 0.0 0.0 0.0 0.0 0.0 0.0 -3.27680 -3.27680 -3.27680 -3.27680 -3.27680 -3.27680
7.41 7.425450 0.0 85.80 14.970 0.0960 0.1020 1.0 43.0 200.0 6.562090 508.461540 197.0 6.562090 1863.50 890398.230770 159.666670 43.0 841037552.407810 0.0 0.0 0.0 0.0 0.0 0.0 0.0 -3.27680 -3.27680 -3.27680 -3.27680 -3.27680 -3.27680
7.40 7.417040 0.0 85.833330 14.970 0.0960 0.1020 1.0 43.0 200.0 7.702610 507.692310 197.0 7.702610 1864.333330 890399.923080 159.583330 43.0 841040745.410130 0.0 0.0 0.0 0.0 0.0 0.0 0.0 -3.27680 -3.27680 -3.27680 -3.27680 -3.27680 -3.27680
7.39 7.408640 0.0 85.866670 14.970 0.0960 0.1020 1.0 43.0 200.0 8.843140 506.923080 197.0 8.843140 1865.166670 890401.615380 159.50 43.0 841043938.412450 0.0 0.0 0.0 0.0 0.0 0.0 0.0 -3.27680 -3.27680 -3.27680 -3.27680 -3.27680 -3.27680
7.38 7.400240 0.0 85.90 14.970 0.0960 0.1020 1.0 43.0 200.0 9.983660 506.153850 197.0 9.983660 1866.0 890403.307690 159.416670 43.0 841047131.414770 0.0 0.0 0.0 0.0 0.0 0.0 0.0 -3.27680 -3.27680 -3.27680 -3.27680 -3.27680 -3.27680
7.37 7.387640 0.0 85.950 14.970 0.0960 0.1020 1.0 43.0 200.0 11.124180 505.384620 197.0 11.124180 1863.0 890405.0 159.333330 43.0 841050324.417090 0.0 0.0 0.0 0.0 0.0 0.0 0.0 -3.27680 -3.27680 -3.27680 -3.27680 -3.27680 -3.27680
7.36 7.375040 0.0 86.0 14.970 0.0960 0.1020 1.0 43.0 200.0 12.264710 504.615380 197.0 12.264710 1860.0 890406.250 159.250 43.0 841052682.933650 0.0 0.0 0.0 0.0 0.0 0.0 0.0 -3.27680 -3.27680 -3.27680 -3.27680 -3.27680 -3.27680
7.35 7.36690 0.0 86.033330 14.970 0.0960 0.1020 1.0 43.0 200.0 13.405230 503.846150 197.0 13.405230 1857.0 890407.50 159.166670 43.0 841055041.450220 0.0 0.0 0.0 0.0 0.0 0.0 0.0 -3.27680 -3.27680 -3.27680 -3.27680 -3.27680 -3.27680
7.34 7.358760 0.0 86.066670 14.970 0.0960 0.1020 1.0 43.0 200.0 14.545750 503.076920 197.0 14.545750 1854.0 890408.750 159.083330 43.0 841057399.966780 0.0 0.0 0.0 0.0 0.0 0.0 0.0 -3.27680 -3.27680 -3.27680 -3.27680 -3.27680 -3.27680
7.33 7.350620 0.0 86.10 14.970 0.0960 0.1020 1.0 43.0 200.0 15.686270 502.307690 197.0 15.686270 1851.0 890410.0 159.0 43.0 841059758.483340 0.0 0.0 0.0 0.0 0.0 0.0 0.0 -3.27680 -3.27680 -3.27680 -3.27680 -3.27680 -3.27680
7.32 7.338020 0.0 86.150 14.970 0.0960 0.1020 1.0 43.0 200.0 15.556560 501.538460 197.0 15.556560 1848.0 890411.250 159.0 43.0 841062116.999910 0.0 0.0 0.0 0.0 0.0 0.0 0.0 -3.27680 -3.27680 -3.27680 -3.27680 -3.27680 -3.27680
7.31 7.325420 0.0 86.20 14.970 0.0960 0.1020 1.0 43.0 200.0 15.426850 500.769230 197.0 15.426850 1845.0 890412.50 159.0 43.0 841064475.516470 0.0 0.0 0.0 0.0 0.0 0.0 0.0 -3.27680 -3.27680 -3.27680 -3.27680 -3.27680 -3.27680
7.30 7.317020 0.0 86.233330 14.970 0.0960 0.1020 1.0 43.0 200.0 15.297130 500.0 197.0 15.297130 1842.0 890413.750 159.0 43.0 841066834.033040 0.0 0.0 0.0 0.0 0.0 0.0 0.0 -3.27680 -3.27680 -3.27680 -3.27680 -3.27680 -3.27680
7.29 7.308620 0.0 86.266670 14.970 0.0960 0.1020 1.0 43.0 200.0 15.167420 500.0 197.0 15.167420 1839.0 890415.0 159.0 43.0 841069192.54960 0.0 0.0 0.0 0.0 0.0 0.0 0.0 -3.27680 -3.27680 -3.27680 -3.27680 -3.27680 -3.27680
7.28 7.300220 0.0 86.30 14.970 0.0960 0.1020 1.0 43.0 200.0 15.037710 500.0 197.0 15.037710 1836.0 890416.250 159.0 43.0 841071551.066160 0.0 0.0 0.0 0.0 0.0 0.0 0.0 -3.27680 -3.27680 -3.27680 -3.27680 -3.27680 -3.27680
7.27 7.291820 0.0 86.333330 14.973330 0.0960 0.1020 1.0 43.0 200.0 14.907990 500.0 197.0 14.907990 1833.0 890417.50 159.0 43.0 841073909.582730 0.0 0.0 0.0 0.0 0.0 0.0 0.0 -3.27680 -3.27680 -3.27680 -3.27680 -3.27680 -3.27680
7.26 7.283420 0.0 86.366670 14.976670 0.0960 0.1020 1.0 43.0 200.0 14.778280 500.0 197.0 14.778280 1830.0 890418.750 159.0 43.0 841076268.099290 0.0 0.0 0.0 0.0 0.0 0.0 0.0 -3.27680 -3.27680 -3.27680 -3.27680 -3.27680 -3.27680
7.25 7.275020 0.0 86.40 14.980 0.0960 0.1020 1.0 43.0 200.0 14.648570 500.0 197.0 14.648570 1827.0 890420.0 159.0 43.0 841078626.615850 0.0 0.0 0.0 0.0 0.0 0.0 0.0 -3.27680 -3.27680 -3.27680 -3.27680 -3.27680 -3.27680
7.24 7.262410 0.0 86.450 14.983330 0.0960 0.1020 1.0 43.0 200.0 14.518850 500.0 197.0 14.518850 1827.250 890421.538460 159.0 43.0 841081529.462450 0.0 0.0 0.0 0.0 0.0 0.0 0.0 -3.27680 -3.27680 -3.27680 -3.27680 -3.27680 -3.27680
7.23 7.249810 0.0 86.50 14.986670 0.0960 0.1020 1.0 43.0 200.0 14.389140 500.0 197.0 14.389140 1827.50 890423.076920 159.0 43.0 841084432.309050 0.0 0.0 0.0 0.0 0.0 0.0 0.0 -3.27680 -3.27680 -3.27680 -3.27680 -3.27680 -3.27680
7.22 7.241410 0.0 86.533330 14.990 0.0960 0.1020 1.0 43.0 200.0 14.259430 500.0 197.0 14.259430 1827.750 890424.615380 159.0 43.0 841087335.155650 0.0 0.0 0.0 0.0 0.0 0.0 0.0 -3.27680 -3.27680 -3.27680 -3.27680 -3.27680 -3.27680
7.21 7.233010 0.0 86.566670 14.993330 0.0960 0.1020 1.0 43.0 200.0 14.129710 500.0 197.0 14.129710 1828.0 890426.153850 159.0 43.0 841090238.002240 0.0 0.0 0.0 0.0 0.0 0.0 0.0 -3.27680 -3.27680 -3.27680 -3.27680 -3.27680 -3.27680
7.20 7.224610 0.0 86.60 14.996670 0.0960 0.1020 1.0 43.0 200.0 14.0 500.0 197.0 14.0 1828.250 890427.692310 159.0 43.0 841093140.848840 0.0 0.0 0.0 0.0 0.0 0.0 0.0 -3.27680 -3.27680 -3.27680 -3.27680 -3.27680 -3.27680
7.19 7.212010 0.0 86.650 15.0 0.0960 0.1020 1.0 43.0 200.0 13.666670 500.0 197.0 13.666670 1828.50 890429.230770 159.083330 43.0 841096043.695440 0.0 0.0 0.0 0.0 0.0 0.0 0.0 -3.27680 -3.27680 -3.27680 -3.27680 -3.27680 -3.27680
7.18 7.199410 0.0 86.70 15.003330 0.0960 0.1020 1.0 43.0 200.0 13.333330 500.0 197.0 13.333330 1828.750 890430.769230 159.166670 43.0 841098946.542030 0.0 0.0 0.0 0.0 0.0 0.0 0.0 -3.27680 -3.27680 -3.27680 -3.27680 -3.27680 -3.27680
7.17 7.191270 0.0 86.733330 15.006670 0.0960 0.1020 1.0 43.0 200.0 13.0 500.0 197.0 13.0 1829.0 890432.307690 159.250 43.0 841101849.388630 0.0 0.0 0.0 0.0 0.0 0.0 0.0 -3.27680 -3.27680 -3.27680 -3.27680 -3.27680 -3.27680
7.16 7.183130 0.0 86.766670 15.010 0.0960 0.1020 1.0 43.0 200.0 12.666670 500.0 197.0 12.666670 1829.250 890433.846150 159.333330 43.0 841104752.235230 0.0 0.0 0.0 0.0 0.0 0.0 0.0 -3.27680 -3.27680 -3.27680 -3.27680 -3.27680 -3.27680
7.15 7.174990 0.0 86.80 15.013330 0.0960 0.1020 1.0 43.0 200.0 12.333330 500.0 197.0 12.333330 1829.50 890435.384620 159.416670 43.0 841107655.081820 0.0 0.0 0.0 0.0 0.0 0.0 0.0 -3.27680 -3.27680 -3.27680 -3.27680 -3.27680 -3.27680
7.14 7.162390 0.0 86.850 15.016670 0.0960 0.1020 1.0 43.0 200.0 12.0 500.0 197.0 12.0 1829.750 890436.923080 159.50 43.0 841110557.928420 0.0 0.0 0.0 0.0 0.0 0.0 0.0 -3.27680 -3.27680 -3.27680 -3.27680 -3.27680 -3.27680
7.13 7.149790 0.0 86.90 15.020 0.0960 0.1020 1.0 43.0 200.0 11.666670 500.0 197.0 11.666670 1830.0 890438.461540 159.583330 43.0 841113460.775020 0.0 0.0 0.0 0.0 0.0 0.0 0.0 -3.27680 -3.27680 -3.27680 -3.27680 -3.27680 -3.27680
