~VERSION INFORMATION SECTION
VERS. 2.0 : CWLS LAS-VERSION 2.0
WRAP. NO : One line per depth step
~WELL INFORMATION SECTION
# MNEM.UNIT VALUE/NAME DESCRIPTION
#-------- -------------- ---------------------
STRT.Metres 19 : Start
STOP.Metres -2.05 : Stop
STEP.Metres -0.01 : Step
NULL.  -999.25 :NULL VALUE
DATE. 2026-03-09 : DATE
~CURVE INFORMATION SECTION
DEPTH.Metres : 0 Depth
Depth. : 1 Depth
Tension. : 2 Tension
Time. : 3 Time
Speed. : 4 Speed
Voltage. : 5 Voltage
Current. : 6 Current
WET. : 7 WET
Sig. : 8 Sig
Vth. : 9 Vth
GR.CPS : 10 GR
Timebase.ms : 11 Timebase
HeadVoltage.V : 12 Head Voltage
API.API : 13 API
Conductivity.uS : 14 Conductivity
PT100.Ohms : 15 PT100
Vmon.mV : 16 Vmon
Status. : 17 Status
Temperature.C : 18 Temperature
Incline.Deg : 19 Incline
Azimuth.Deg : 20 Azimuth
RelativeBearing.Deg : 21 Relative Bearing
MagneticToolFace.Deg : 22 Magnetic Tool Face
GravityMagnitude.G : 23 Gravity Magnitude
MagnetometerMagnitude.H : 24 Magnetometer Magnitude
Temperature.C : 25 Temperature
GX. : 26 GX
GY. : 27 GY
GZ. : 28 GZ
HX. : 29 HX
HY. : 30 HY
HZ. : 31 HZ
~PARAMETER INFORMATION SECTION
~OTHER
#-------------------------------------------------
#Produced By: GeoVista Logger - Version 7.1.107.0
Verticality Sonde - 9605
Temperature and Conductivity Sonde - Inline - 8974
Natural Gamma Sonde - 9931
WLIS - 10021
#-------------------------------------------------
~ASCII LOG DATA
# ...
2.73 2.734530 0.0 220.950 4.960 0.0960 0.1020 1.0 44.80 200.0 36.441180 500.0 197.0 36.441180 1738.50 890659.20 150.0 41.0 841530016.689980 0.0 0.0 0.0 0.0 0.0 0.0 0.0 -3.27680 -3.27680 -3.27680 -3.27680 -3.27680 -3.27680
2.72 2.721930 0.0 221.10 4.960 0.0960 0.1020 1.0 44.60 200.0 37.25490 500.0 197.0 37.25490 1732.750 890658.80 150.0 41.0 841529261.7560 0.0 0.0 0.0 0.0 0.0 0.0 0.0 -3.27680 -3.27680 -3.27680 -3.27680 -3.27680 -3.27680
2.71 2.713260 0.0 221.20 4.960 0.0960 0.1020 1.0 44.40 200.0 42.441180 500.0 197.0 42.441180 1727.0 890658.40 150.0 41.0 841528506.822020 0.0 0.0 0.0 0.0 0.0 0.0 0.0 -3.27680 -3.27680 -3.27680 -3.27680 -3.27680 -3.27680
2.70 2.705390 0.0 221.30 4.960 0.0960 0.1020 1.0 44.20 200.0 47.627450 500.0 197.0 47.627450 1720.0 890658.0 150.0 41.0 841527751.888050 0.0 0.0 0.0 0.0 0.0 0.0 0.0 -3.27680 -3.27680 -3.27680 -3.27680 -3.27680 -3.27680
2.69 2.696730 0.0 221.40 4.960 0.0960 0.1020 1.0 44.0 200.0 52.813730 500.0 197.0 52.813730 1713.0 890657.250 150.0 41.0 841526336.390810 0.0 0.0 0.0 0.0 0.0 0.0 0.0 -3.27680 -3.27680 -3.27680 -3.27680 -3.27680 -3.27680
2.68 2.684520 0.0 221.550 4.960 0.0960 0.1020 1.0 44.0 200.0 58.0 500.0 197.0 58.0 1706.0 890656.50 150.0 41.0 841524920.893570 0.0 0.0 0.0 0.0 0.0 0.0 0.0 -3.27680 -3.27680 -3.27680 -3.27680 -3.27680 -3.27680
2.67 2.672310 0.0 221.70 4.960 0.0960 0.1020 1.0 44.0 200.0 55.50 500.0 197.0 55.50 1699.0 890655.750 150.0 41.0 841523505.396330 0.0 0.0 0.0 0.0 0.0 0.0 0.0 -3.27680 -3.27680 -3.27680 -3.27680 -3.27680 -3.27680
2.66 2.663650 0.0 221.80 4.960 0.0960 0.1020 1.0 44.0 200.0 53.0 500.0 197.0 53.0 1707.750 890655.0 150.0 41.0 841522089.899090 0.0 0.0 0.0 0.0 0.0 0.0 0.0 -3.27680 -3.27680 -3.27680 -3.27680 -3.27680 -3.27680
2.65 2.655770 0.0 221.90 4.960 0.0960 0.1020 1.0 44.0 200.0 50.50 500.0 197.0 50.50 1716.50 890655.50 150.0 41.0 841523033.563390 0.0 0.0 0.0 0.0 0.0 0.0 0.0 -3.27680 -3.27680 -3.27680 -3.27680 -3.27680 -3.27680
2.64 2.647110 0.0 222.0 4.960 0.0960 0.1020 1.0 44.0 200.0 48.0 500.0 197.0 48.0 1725.250 890656.0 150.0 41.0 841523977.227680 0.0 0.0 0.0 0.0 0.0 0.0 0.0 -3.27680 -3.27680 -3.27680 -3.27680 -3.27680 -3.27680
2.63 2.63490 0.0 222.150 4.960 0.0960 0.1020 1.0 44.0 200.0 50.0 500.0 197.0 50.0 1734.0 890656.50 150.0 41.0 841524920.891980 0.0 0.0 0.0 0.0 0.0 0.0 0.0 -3.27680 -3.27680 -3.27680 -3.27680 -3.27680 -3.27680
2.62 2.622690 0.0 222.30 4.9680 0.0960 0.10 1.0 44.0 200.0 52.0 500.0 197.0 52.0 1733.0 890657.0 150.0 41.0 841525864.556280 0.0 0.0 0.0 0.0 0.0 0.0 0.0 -3.27680 -3.27680 -3.27680 -3.27680 -3.27680 -3.27680
2.61 2.614030 0.0 222.40 4.9760 0.0960 0.1020 1.0 44.0 200.0 54.0 500.0 197.0 54.0 1732.0 890657.50 150.0 41.0 841526808.222690 0.0 0.0 0.0 0.0 0.0 0.0 0.0 -3.27680 -3.27680 -3.27680 -3.27680 -3.27680 -3.27680
2.60 2.605360 0.0 222.50 4.9840 0.0960 0.1020 1.0 43.750 200.0 56.0 500.0 197.0 56.0 1731.0 890658.0 150.0 41.0 841527751.889110 0.0 0.0 0.0 0.0 0.0 0.0 0.0 -3.27680 -3.27680 -3.27680 -3.27680 -3.27680 -3.27680
2.59 2.597490 0.0 222.60 4.9920 0.0960 0.1020 1.0 43.50 200.0 53.60 500.0 197.0 53.60 1730.0 890658.50 150.0 41.0 841528695.555520 0.0 0.0 0.0 0.0 0.0 0.0 0.0 -3.27680 -3.27680 -3.27680 -3.27680 -3.27680 -3.27680
2.58 2.584490 0.0 222.750 5.0 0.0960 0.1020 1.0 43.250 200.0 51.20 500.0 197.0 51.20 1729.0 890659.0 150.0 41.0 841529639.221930 0.0 0.0 0.0 0.0 0.0 0.0 0.0 -3.27680 -3.27680 -3.27680 -3.27680 -3.27680 -3.27680
2.57 2.572290 0.0 222.90 5.0 0.0960 0.1020 1.0 43.0 200.0 48.80 500.0 197.0 48.80 1729.50 890658.250 150.0 41.0 841528223.723110 0.0 0.0 0.0 0.0 0.0 0.0 0.0 -3.27680 -3.27680 -3.27680 -3.27680 -3.27680 -3.27680
2.56 2.563620 0.0 223.0 5.0 0.0960 0.1020 1.0 43.250 200.0 46.40 500.0 197.0 46.40 1730.0 890657.50 150.0 41.0 841526808.224280 0.0 0.0 0.0 0.0 0.0 0.0 0.0 -3.27680 -3.27680 -3.27680 -3.27680 -3.27680 -3.27680
2.55 2.554960 0.0 223.10 5.0 0.0960 0.1020 1.0 43.50 200.0 44.0 500.0 197.0 44.0 1730.50 890656.750 150.0 41.0 841525392.725450 0.0 0.0 0.0 0.0 0.0 0.0 0.0 -3.27680 -3.27680 -3.27680 -3.27680 -3.27680 -3.27680
2.54 2.547080 0.0 223.20 5.0 0.0960 0.1020 1.0 43.750 200.0 43.0 500.0 197.0 43.0 1731.0 890656.0 150.0 41.0 841523977.226630 0.0 0.0 0.0 0.0 0.0 0.0 0.0 -3.27680 -3.27680 -3.27680 -3.27680 -3.27680 -3.27680
2.53 2.534480 0.0 223.350 5.0 0.0960 0.1020 1.0 44.0 200.0 42.0 500.0 197.0 42.0 1732.750 890655.250 150.0 41.0 841522561.732560 0.0 0.0 0.0 0.0 0.0 0.0 0.0 -3.27680 -3.27680 -3.27680 -3.27680 -3.27680 -3.27680
2.52 2.521880 0.0 223.50 4.9920 0.0960 0.1020 1.0 44.0 200.0 41.0 500.0 197.0 41.0 1734.50 890654.50 150.0 41.0 841521146.23850 0.0 0.0 0.0 0.0 0.0 0.0 0.0 -3.27680 -3.27680 -3.27680 -3.27680 -3.27680 -3.27680
2.51 2.5140 0.0 223.60 4.9840 0.0960 0.1020 1.0 44.0 200.0 40.0 500.0 197.0 40.0 1736.250 890653.750 150.0 41.0 841519730.744430 0.0 0.0 0.0 0.0 0.0 0.0 0.0 -3.27680 -3.27680 -3.27680 -3.27680 -3.27680 -3.27680
2.50 2.505340 0.0 223.70 4.9760 0.0960 0.1020 1.0 44.0 200.0 42.0 500.0 197.0 42.0 1738.0 890653.0 150.0 41.0 841518315.250370 0.0 0.0 0.0 0.0 0.0 0.0 0.0 -3.27680 -3.27680 -3.27680 -3.27680 -3.27680 -3.27680
2.49 2.497460 0.0 223.80 4.9680 0.0960 0.1020 1.0 44.0 200.0 44.0 500.0 197.0 44.0 1734.0 890653.20 150.0 41.0 841518692.715030 0.0 0.0 0.0 0.0 0.0 0.0 0.0 -3.27680 -3.27680 -3.27680 -3.27680 -3.27680 -3.27680
2.48 2.484470 0.0 223.950 4.960 0.0960 0.1020 1.0 44.0 200.0 46.0 500.0 197.0 46.0 1730.0 890653.40 150.0 41.0 841519070.179690 0.0 0.0 0.0 0.0 0.0 0.0 0.0 -3.27680 -3.27680 -3.27680 -3.27680 -3.27680 -3.27680
2.47 2.472260 0.0 224.10 4.960 0.0960 0.1020 1.0 44.0 200.0 48.0 500.0 197.0 48.0 1726.0 890653.60 150.0 41.0 841519447.644350 0.0 0.0 0.0 0.0 0.0 0.0 0.0 -3.27680 -3.27680 -3.27680 -3.27680 -3.27680 -3.27680
2.46 2.464380 0.0 224.20 4.960 0.0960 0.1020 1.0 44.0 200.0 51.50 500.0 197.0 51.50 1722.0 890653.80 150.0 41.0 841519825.109010 0.0 0.0 0.0 0.0 0.0 0.0 0.0 -3.27680 -3.27680 -3.27680 -3.27680 -3.27680 -3.27680
2.45 2.455720 0.0 224.30 4.960 0.0960 0.1020 1.0 44.0 200.0 55.0 500.0 197.0 55.0 1724.0 890654.0 150.0 41.0 841520202.573670 0.0 0.0 0.0 0.0 0.0 0.0 0.0 -3.27680 -3.27680 -3.27680 -3.27680 -3.27680 -3.27680
2.44 2.447060 0.0 224.40 4.960 0.0960 0.1020 1.0 44.0 200.0 58.50 500.0 197.0 58.50 1726.0 890654.0 150.0 41.0 841520202.573670 0.0 0.0 0.0 0.0 0.0 0.0 0.0 -3.27680 -3.27680 -3.27680 -3.27680 -3.27680 -3.27680
2.43 2.434850 0.0 224.550 4.960 0.0960 0.1020 1.0 44.250 200.0 62.0 500.0 197.0 62.0 1728.0 890654.0 150.0 41.0 841520202.573670 0.0 0.0 0.0 0.0 0.0 0.0 0.0 -3.27680 -3.27680 -3.27680 -3.27680 -3.27680 -3.27680
2.42 2.421850 0.0 224.70 4.9780 0.0960 0.1020 1.0 44.50 200.0 57.0 500.0 197.0 57.0 1730.0 890654.0 150.0 41.0 841520202.573670 0.0 0.0 0.0 0.0 0.0 0.0 0.0 -3.27680 -3.27680 -3.27680 -3.27680 -3.27680 -3.27680
2.41 2.413980 0.0 224.80 4.9960 0.0960 0.1020 1.0 44.750 200.0 52.0 500.0 197.0 52.0 1727.750 890654.0 150.0 41.0 841520202.573670 0.0 0.0 0.0 0.0 0.0 0.0 0.0 -3.27680 -3.27680 -3.27680 -3.27680 -3.27680 -3.27680
2.40 2.405320 0.0 224.90 5.0140 0.0960 0.1020 1.0 45.0 200.0 47.0 500.0 197.0 47.0 1725.50 890653.0 150.0 41.0 841518315.253540 0.0 0.0 0.0 0.0 0.0 0.0 0.0 -3.27680 -3.27680 -3.27680 -3.27680 -3.27680 -3.27680
2.39 2.397440 0.0 225.0 5.0320 0.0960 0.1020 1.0 44.750 200.0 42.0 500.0 197.0 42.0 1723.250 890652.0 150.0 41.0 841516427.933410 0.0 0.0 0.0 0.0 0.0 0.0 0.0 -3.27680 -3.27680 -3.27680 -3.27680 -3.27680 -3.27680
2.38 2.385230 0.0 225.150 5.050 0.0960 0.1020 1.0 44.50 200.0 41.0 500.0 197.0 41.0 1721.0 890651.0 150.0 41.0 841514540.613280 0.0 0.0 0.0 0.0 0.0 0.0 0.0 -3.27680 -3.27680 -3.27680 -3.27680 -3.27680 -3.27680
2.37 2.372240 0.0 225.30 5.0320 0.0960 0.1020 1.0 44.250 200.0 40.0 500.0 197.0 40.0 1716.50 890650.0 150.0 41.0 841512653.293150 0.0 0.0 0.0 0.0 0.0 0.0 0.0 -3.27680 -3.27680 -3.27680 -3.27680 -3.27680 -3.27680
2.36 2.364360 0.0 225.40 5.0140 0.0960 0.1020 1.0 44.0 200.0 39.0 500.0 197.0 39.0 1712.0 890650.750 150.250 41.0 841514068.782460 0.0 0.0 0.0 0.0 0.0 0.0 0.0 -3.27680 -3.27680 -3.27680 -3.27680 -3.27680 -3.27680
