~VERSION INFORMATION SECTION
VERS. 2.0 : CWLS LAS-VERSION 2.0
WRAP. NO : One line per depth step
~WELL INFORMATION SECTION
# MNEM.UNIT VALUE/NAME DESCRIPTION
#-------- -------------- ---------------------
STRT.Metres 26 : Start
STOP.Metres -2.05 : Stop
STEP.Metres -0.01 : Step
NULL.  -999.25 :NULL VALUE
DATE. 2026-29-09 : DATE
~CURVE INFORMATION SECTION
DEPTH.Metres : 0 Depth
Depth. : 1 Depth
Tension. : 2 Tension
Time. : 3 Time
Speed. : 4 Speed
Voltage. : 5 Voltage
Current. : 6 Current
WET. : 7 WET
Sig. : 8 Sig
Vth. : 9 Vth
GR.CPS : 10 GR
Timebase.ms : 11 Timebase
HeadVoltage.V : 12 Head Voltage
API.API : 13 API
Conductivity.uS : 14 Conductivity
PT100.Ohms : 15 PT100
Vmon.mV : 16 Vmon
Status. : 17 Status
Temperature.C : 18 Temperature
Incline.Deg : 19 Incline
Azimuth.Deg : 20 Azimuth
RelativeBearing.Deg : 21 Relative Bearing
MagneticToolFace.Deg : 22 Magnetic Tool Face
GravityMagnitude.G : 23 Gravity Magnitude
MagnetometerMagnitude.H : 24 Magnetometer Magnitude
Temperature.C : 25 Temperature
GX. : 26 GX
GY. : 27 GY
GZ. : 28 GZ
HX. : 29 HX
HY. : 30 HY
HZ. : 31 HZ
~PARAMETER INFORMATION SECTION
~OTHER
#-------------------------------------------------
#Produced By: GeoVista Logger - Version 7.1.107.0
Verticality Sonde - 9605
Temperature and Conductivity Sonde - Inline - 8974
Natural Gamma Sonde - 9931
WLIS - 10021
#-------------------------------------------------
~ASCII LOG DATA
# ...
7.58 7.598320 0.0 172.450 14.970 0.0960 0.1020 1.0 40.50 200.0 9.064860 500.0 197.0 9.064860 1896.750 890349.538460 161.0 43.0 840945683.094940 0.0 0.0 0.0 0.0 0.0 0.0 0.0 -3.27680 -3.27680 -3.27680 -3.27680 -3.27680 -3.27680
7.57 7.586120 0.0 172.50 14.970 0.0960 0.1020 1.0 40.583330 200.0 9.532430 500.0 197.0 9.532430 1897.0 890351.384620 161.0 43.0 840949166.221730 0.0 0.0 0.0 0.0 0.0 0.0 0.0 -3.27680 -3.27680 -3.27680 -3.27680 -3.27680 -3.27680
7.56 7.577710 0.0 172.533330 14.970 0.0960 0.1020 1.0 40.666670 200.0 10.0 500.0 197.0 10.0 1897.250 890353.230770 161.0 43.0 840952649.348510 0.0 0.0 0.0 0.0 0.0 0.0 0.0 -3.27680 -3.27680 -3.27680 -3.27680 -3.27680 -3.27680
7.55 7.569310 0.0 172.566670 14.970 0.0960 0.1020 1.0 40.750 200.0 9.666670 500.0 197.0 9.666670 1897.50 890355.076920 161.0 43.0 840956132.475290 0.0 0.0 0.0 0.0 0.0 0.0 0.0 -3.27680 -3.27680 -3.27680 -3.27680 -3.27680 -3.27680
7.54 7.560910 0.0 172.60 14.970 0.0960 0.1020 1.0 40.833330 200.0 9.333330 500.0 197.0 9.333330 1897.750 890356.923080 161.0 43.0 840959615.602080 0.0 0.0 0.0 0.0 0.0 0.0 0.0 -3.27680 -3.27680 -3.27680 -3.27680 -3.27680 -3.27680
7.53 7.548310 0.0 172.650 14.970 0.0960 0.1020 1.0 40.916670 200.0 9.0 500.0 197.0 9.0 1898.0 890358.769230 161.0 43.0 840963098.728860 0.0 0.0 0.0 0.0 0.0 0.0 0.0 -3.27680 -3.27680 -3.27680 -3.27680 -3.27680 -3.27680
7.52 7.535710 0.0 172.70 14.970 0.0960 0.1020 1.0 41.0 200.0 8.666670 500.0 197.0 8.666670 1898.250 890360.615380 161.0 43.0 840966581.855650 0.0 0.0 0.0 0.0 0.0 0.0 0.0 -3.27680 -3.27680 -3.27680 -3.27680 -3.27680 -3.27680
7.51 7.527570 0.0 172.733330 14.970 0.0960 0.101330 1.0 41.0 200.0 8.333330 500.0 197.0 8.333330 1898.50 890362.461540 161.0 43.0 840970064.982430 0.0 0.0 0.0 0.0 0.0 0.0 0.0 -3.27680 -3.27680 -3.27680 -3.27680 -3.27680 -3.27680
7.50 7.519430 0.0 172.766670 14.970 0.0960 0.100670 1.0 41.0 200.0 8.0 500.0 197.0 8.0 1898.750 890364.307690 161.0 43.0 840973548.109210 0.0 0.0 0.0 0.0 0.0 0.0 0.0 -3.27680 -3.27680 -3.27680 -3.27680 -3.27680 -3.27680
7.49 7.511290 0.0 172.80 14.970 0.0960 0.10 1.0 41.0 200.0 7.666670 500.0 197.0 7.666670 1899.0 890366.153850 161.0 43.0 840977031.2360 0.0 0.0 0.0 0.0 0.0 0.0 0.0 -3.27680 -3.27680 -3.27680 -3.27680 -3.27680 -3.27680
7.48 7.498690 0.0 172.850 14.970 0.0960 0.1010 1.0 41.0 200.0 7.333330 500.0 197.0 7.333330 1899.384620 890368.0 161.0 43.0 840980514.362780 0.0 0.0 0.0 0.0 0.0 0.0 0.0 -3.27680 -3.27680 -3.27680 -3.27680 -3.27680 -3.27680
7.47 7.486090 0.0 172.90 14.970 0.0960 0.1020 1.0 41.0 200.0 7.0 500.0 197.0 7.0 1899.769230 890369.750 161.0 43.0 840983816.160040 0.0 0.0 0.0 0.0 0.0 0.0 0.0 -3.27680 -3.27680 -3.27680 -3.27680 -3.27680 -3.27680
7.46 7.477690 0.0 172.933330 14.970 0.0960 0.1020 1.0 41.0 200.0 6.666670 500.0 197.0 6.666670 1900.153850 890371.50 161.0 43.0 840987117.957310 0.0 0.0 0.0 0.0 0.0 0.0 0.0 -3.27680 -3.27680 -3.27680 -3.27680 -3.27680 -3.27680
7.45 7.469290 0.0 172.966670 14.970 0.0960 0.1020 1.0 41.0 200.0 6.333330 500.0 197.0 6.333330 1900.538460 890373.250 161.0 43.0 840990419.754570 0.0 0.0 0.0 0.0 0.0 0.0 0.0 -3.27680 -3.27680 -3.27680 -3.27680 -3.27680 -3.27680
7.44 7.460890 0.0 173.0 14.970 0.0960 0.1020 1.0 41.0 200.0 6.0 500.0 197.0 6.0 1900.923080 890375.0 161.0 43.0 840993721.551830 0.0 0.0 0.0 0.0 0.0 0.0 0.0 -3.27680 -3.27680 -3.27680 -3.27680 -3.27680 -3.27680
7.43 7.448290 0.0 173.050 14.970 0.0960 0.1020 1.0 41.0 200.0 7.538460 500.0 197.0 7.538460 1901.307690 890376.750 161.0 43.0 840997023.34910 0.0 0.0 0.0 0.0 0.0 0.0 0.0 -3.27680 -3.27680 -3.27680 -3.27680 -3.27680 -3.27680
7.42 7.435680 0.0 173.10 14.970 0.0960 0.1020 1.0 41.0 200.0 9.076920 500.0 197.0 9.076920 1901.692310 890378.50 161.0 43.0 841000325.146360 0.0 0.0 0.0 0.0 0.0 0.0 0.0 -3.27680 -3.27680 -3.27680 -3.27680 -3.27680 -3.27680
7.41 7.427280 0.0 173.133330 14.970 0.0960 0.1020 1.0 41.0 200.0 10.615380 500.0 197.0 10.615380 1902.076920 890380.250 161.0 43.0 841003626.943620 0.0 0.0 0.0 0.0 0.0 0.0 0.0 -3.27680 -3.27680 -3.27680 -3.27680 -3.27680 -3.27680
7.40 7.418880 0.0 173.166670 14.970 0.0960 0.1020 1.0 41.0 200.0 12.153850 500.0 197.0 12.153850 1902.461540 890382.0 161.0 43.0 841006928.740890 0.0 0.0 0.0 0.0 0.0 0.0 0.0 -3.27680 -3.27680 -3.27680 -3.27680 -3.27680 -3.27680
7.39 7.410480 0.0 173.20 14.970 0.0960 0.1020 1.0 41.0 200.0 13.692310 500.0 197.0 13.692310 1902.846150 890383.750 161.0 43.0 841010230.538150 0.0 0.0 0.0 0.0 0.0 0.0 0.0 -3.27680 -3.27680 -3.27680 -3.27680 -3.27680 -3.27680
7.38 7.398270 0.0 173.250 14.970 0.0960 0.1020 1.0 41.0 200.0 15.230770 500.0 197.0 15.230770 1903.230770 890385.50 161.0 43.0 841013532.335410 0.0 0.0 0.0 0.0 0.0 0.0 0.0 -3.27680 -3.27680 -3.27680 -3.27680 -3.27680 -3.27680
7.37 7.386070 0.0 173.30 14.970 0.0960 0.1020 1.0 41.0 200.0 16.769230 500.0 197.0 16.769230 1903.615380 890387.250 161.0 43.0 841016834.132680 0.0 0.0 0.0 0.0 0.0 0.0 0.0 -3.27680 -3.27680 -3.27680 -3.27680 -3.27680 -3.27680
7.36 7.377660 0.0 173.333330 14.970 0.0960 0.1020 1.0 41.0 200.0 18.307690 500.0 197.0 18.307690 1904.0 890389.0 161.0 43.0 841020135.929940 0.0 0.0 0.0 0.0 0.0 0.0 0.0 -3.27680 -3.27680 -3.27680 -3.27680 -3.27680 -3.27680
7.35 7.369260 0.0 173.366670 14.970 0.0960 0.1020 1.0 41.0 200.0 19.846150 500.0 197.0 19.846150 1901.583330 890391.0 161.0 43.0 841023909.5120 0.0 0.0 0.0 0.0 0.0 0.0 0.0 -3.27680 -3.27680 -3.27680 -3.27680 -3.27680 -3.27680
7.34 7.360860 0.0 173.40 14.970 0.0960 0.1020 1.0 41.0 200.0 21.384620 500.0 197.0 21.384620 1899.166670 890393.0 161.0 43.0 841027683.094060 0.0 0.0 0.0 0.0 0.0 0.0 0.0 -3.27680 -3.27680 -3.27680 -3.27680 -3.27680 -3.27680
7.33 7.348660 0.0 173.450 14.970 0.0960 0.1020 1.0 41.0 200.0 22.923080 500.0 197.0 22.923080 1896.750 890395.0 161.0 43.0 841031456.676110 0.0 0.0 0.0 0.0 0.0 0.0 0.0 -3.27680 -3.27680 -3.27680 -3.27680 -3.27680 -3.27680
7.32 7.336450 0.0 173.50 14.970 0.0960 0.1020 1.0 41.0 200.0 24.461540 500.0 197.0 24.461540 1894.333330 890397.0 161.0 43.0 841035230.258170 0.0 0.0 0.0 0.0 0.0 0.0 0.0 -3.27680 -3.27680 -3.27680 -3.27680 -3.27680 -3.27680
7.31 7.327780 0.0 173.533330 14.970 0.0960 0.1020 1.0 41.0 200.0 26.0 500.0 197.0 26.0 1891.916670 890399.0 161.0 43.0 841039003.840230 0.0 0.0 0.0 0.0 0.0 0.0 0.0 -3.27680 -3.27680 -3.27680 -3.27680 -3.27680 -3.27680
7.30 7.319120 0.0 173.566670 14.970 0.0960 0.1020 1.0 41.0 200.0 24.833330 500.0 197.0 24.833330 1889.50 890401.0 161.0 43.0 841042777.422290 0.0 0.0 0.0 0.0 0.0 0.0 0.0 -3.27680 -3.27680 -3.27680 -3.27680 -3.27680 -3.27680
7.29 7.310460 0.0 173.60 14.970 0.0960 0.1020 1.0 41.0 200.0 23.666670 500.0 197.0 23.666670 1887.083330 890403.0 161.0 43.0 841046551.004340 0.0 0.0 0.0 0.0 0.0 0.0 0.0 -3.27680 -3.27680 -3.27680 -3.27680 -3.27680 -3.27680
7.28 7.298250 0.0 173.650 14.970 0.0960 0.1020 1.0 41.0 200.0 22.50 500.0 197.0 22.50 1884.666670 890405.0 161.0 43.0 841050324.58640 0.0 0.0 0.0 0.0 0.0 0.0 0.0 -3.27680 -3.27680 -3.27680 -3.27680 -3.27680 -3.27680
7.27 7.286040 0.0 173.70 14.970 0.0960 0.1020 1.0 41.0 200.0 21.333330 500.0 197.0 21.333330 1882.250 890407.0 161.0 43.0 841054098.168460 0.0 0.0 0.0 0.0 0.0 0.0 0.0 -3.27680 -3.27680 -3.27680 -3.27680 -3.27680 -3.27680
7.26 7.277640 0.0 173.733330 14.970 0.0960 0.1020 1.0 41.0 200.0 20.166670 500.0 197.0 20.166670 1879.833330 890409.0 161.0 43.0 841057871.750520 0.0 0.0 0.0 0.0 0.0 0.0 0.0 -3.27680 -3.27680 -3.27680 -3.27680 -3.27680 -3.27680
7.25 7.269240 0.0 173.766670 14.970 0.0960 0.1020 1.0 41.0 200.0 19.0 500.0 197.0 19.0 1877.416670 890411.0 161.0 43.0 841061645.332570 0.0 0.0 0.0 0.0 0.0 0.0 0.0 -3.27680 -3.27680 -3.27680 -3.27680 -3.27680 -3.27680
7.24 7.260840 0.0 173.80 14.970 0.0960 0.1020 1.0 41.0 200.0 17.833330 500.0 197.0 17.833330 1875.0 890413.0 161.0 43.0 841065418.914630 0.0 0.0 0.0 0.0 0.0 0.0 0.0 -3.27680 -3.27680 -3.27680 -3.27680 -3.27680 -3.27680
7.23 7.248240 0.0 173.850 14.970 0.0960 0.1020 1.0 41.0 200.0 16.666670 500.0 197.0 16.666670 1875.461540 890415.0 161.0 43.0 841069192.496690 0.0 0.0 0.0 0.0 0.0 0.0 0.0 -3.27680 -3.27680 -3.27680 -3.27680 -3.27680 -3.27680
