~VERSION INFORMATION SECTION
VERS. 2.0 : CWLS LAS-VERSION 2.0
WRAP. NO : One line per depth step
~WELL INFORMATION SECTION
# MNEM.UNIT VALUE/NAME DESCRIPTION
#-------- -------------- ---------------------
STRT.Metres 26 : Start
STOP.Metres -2.05 : Stop
STEP.Metres -0.01 : Step
NULL.  -999.25 :NULL VALUE
DATE. 2026-48-09 : DATE
~CURVE INFORMATION SECTION
DEPTH.Metres : 0 Depth
Depth. : 1 Depth
Tension. : 2 Tension
Time. : 3 Time
Speed. : 4 Speed
Voltage. : 5 Voltage
Current. : 6 Current
WET. : 7 WET
Sig. : 8 Sig
Vth. : 9 Vth
GR.CPS : 10 GR
Timebase.ms : 11 Timebase
HeadVoltage.V : 12 Head Voltage
API.API : 13 API
Conductivity.uS : 14 Conductivity
PT100.Ohms : 15 PT100
Vmon.mV : 16 Vmon
Status. : 17 Status
Temperature.C : 18 Temperature
Incline.Deg : 19 Incline
Azimuth.Deg : 20 Azimuth
RelativeBearing.Deg : 21 Relative Bearing
MagneticToolFace.Deg : 22 Magnetic Tool Face
GravityMagnitude.G : 23 Gravity Magnitude
MagnetometerMagnitude.H : 24 Magnetometer Magnitude
Temperature.C : 25 Temperature
GX. : 26 GX
GY. : 27 GY
GZ. : 28 GZ
HX. : 29 HX
HY. : 30 HY
HZ. : 31 HZ
~PARAMETER INFORMATION SECTION
~OTHER
#-------------------------------------------------
#Produced By: GeoVista Logger - Version 7.1.107.0
Verticality Sonde - 9605
Temperature and Conductivity Sonde - Inline - 8974
Natural Gamma Sonde - 9931
WLIS - 10021
#-------------------------------------------------
~ASCII LOG DATA
# ...
19.43 19.448610 0.0 37.033330 15.006670 0.0960 0.1020 1.0 2.250 200.0 26.0 500.0 197.0 26.0 11418.923080 889151.0 138.0 41.0 838685944.541510 0.0 0.0 0.0 0.0 0.0 0.0 0.0 -3.27680 -3.27680 -3.27680 -3.27680 -3.27680 -3.27680
19.42 19.440470 0.0 37.066670 15.010 0.0960 0.1020 1.0 2.333330 200.0 28.0 500.0 197.0 28.0 11382.846150 889151.666670 138.0 41.0 838687200.642760 0.0 0.0 0.0 0.0 0.0 0.0 0.0 -3.27680 -3.27680 -3.27680 -3.27680 -3.27680 -3.27680
19.41 19.432330 0.0 37.10 15.013330 0.0960 0.1020 1.0 2.416670 200.0 30.0 500.0 197.0 30.0 11346.769230 889152.333330 138.0 41.0 838688456.744010 0.0 0.0 0.0 0.0 0.0 0.0 0.0 -3.27680 -3.27680 -3.27680 -3.27680 -3.27680 -3.27680
19.40 19.420120 0.0 37.150 15.016670 0.0960 0.1020 1.0 2.50 200.0 32.0 500.0 197.0 32.0 11310.692310 889153.0 138.0 41.0 838689712.845260 0.0 0.0 0.0 0.0 0.0 0.0 0.0 -3.27680 -3.27680 -3.27680 -3.27680 -3.27680 -3.27680
19.39 19.407920 0.0 37.20 15.020 0.0960 0.1020 1.0 2.583330 200.0 34.0 500.0 197.0 34.0 11274.615380 889153.666670 138.0 41.0 838690968.946520 0.0 0.0 0.0 0.0 0.0 0.0 0.0 -3.27680 -3.27680 -3.27680 -3.27680 -3.27680 -3.27680
19.38 19.399780 0.0 37.233330 15.016670 0.0960 0.1020 1.0 2.666670 200.0 36.0 500.0 197.0 36.0 11238.538460 889154.333330 138.076920 41.0 838692225.047770 0.0 0.0 0.0 0.0 0.0 0.0 0.0 -3.27680 -3.27680 -3.27680 -3.27680 -3.27680 -3.27680
19.37 19.391640 0.0 37.266670 15.013330 0.0960 0.1020 1.0 2.750 200.0 35.0 500.0 197.0 35.0 11202.461540 889155.0 138.153850 41.0 838693481.149020 0.0 0.0 0.0 0.0 0.0 0.0 0.0 -3.27680 -3.27680 -3.27680 -3.27680 -3.27680 -3.27680
19.36 19.38350 0.0 37.30 15.010 0.0960 0.1020 1.0 2.833330 200.0 34.0 500.0 197.0 34.0 11166.384620 889155.666670 138.230770 41.0 838694737.250270 0.0 0.0 0.0 0.0 0.0 0.0 0.0 -3.27680 -3.27680 -3.27680 -3.27680 -3.27680 -3.27680
19.35 19.37090 0.0 37.350 15.006670 0.0960 0.1020 1.0 2.916670 200.0 33.0 500.0 197.0 33.0 11130.307690 889156.333330 138.307690 41.0 838695993.351520 0.0 0.0 0.0 0.0 0.0 0.0 0.0 -3.27680 -3.27680 -3.27680 -3.27680 -3.27680 -3.27680
19.34 19.35830 0.0 37.40 15.003330 0.0960 0.1020 1.0 3.0 200.0 32.0 500.0 197.0 32.0 11094.230770 889157.0 138.384620 41.0 838697249.452780 0.0 0.0 0.0 0.0 0.0 0.0 0.0 -3.27680 -3.27680 -3.27680 -3.27680 -3.27680 -3.27680
19.33 19.349630 0.0 37.433330 15.0 0.0960 0.1020 1.0 2.923080 200.0 31.0 500.0 197.0 31.0 11058.153850 889157.666670 138.461540 41.0 838698505.554030 0.0 0.0 0.0 0.0 0.0 0.0 0.0 -3.27680 -3.27680 -3.27680 -3.27680 -3.27680 -3.27680
19.32 19.340970 0.0 37.466670 14.996670 0.0960 0.1020 1.0 2.846150 200.0 30.0 500.0 197.0 30.0 11022.076920 889158.333330 138.538460 41.0 838699761.655280 0.0 0.0 0.0 0.0 0.0 0.0 0.0 -3.27680 -3.27680 -3.27680 -3.27680 -3.27680 -3.27680
19.31 19.332310 0.0 37.50 14.993330 0.0960 0.1020 1.0 2.769230 200.0 29.0 500.0 197.0 29.0 10986.0 889159.0 138.615380 41.0 838701017.756530 0.0 0.0 0.0 0.0 0.0 0.0 0.0 -3.27680 -3.27680 -3.27680 -3.27680 -3.27680 -3.27680
19.30 19.32010 0.0 37.550 14.990 0.0960 0.1010 1.0 2.692310 200.0 28.0 500.0 197.0 28.0 10944.416670 889159.538460 138.692310 41.0 838702032.30840 0.0 0.0 0.0 0.0 0.0 0.0 0.0 -3.27680 -3.27680 -3.27680 -3.27680 -3.27680 -3.27680
19.29 19.307890 0.0 37.60 14.986670 0.0960 0.10 1.0 2.615380 200.0 27.0 500.0 197.0 27.0 10902.833330 889160.076920 138.769230 41.0 838703046.860270 0.0 0.0 0.0 0.0 0.0 0.0 0.0 -3.27680 -3.27680 -3.27680 -3.27680 -3.27680 -3.27680
19.28 19.299490 0.0 37.633330 14.983330 0.0960 0.100670 1.0 2.538460 200.0 26.0 500.0 197.0 26.0 10861.250 889160.615380 138.846150 41.0 838704061.412130 0.0 0.0 0.0 0.0 0.0 0.0 0.0 -3.27680 -3.27680 -3.27680 -3.27680 -3.27680 -3.27680
19.27 19.291090 0.0 37.666670 14.980 0.0960 0.101330 1.0 2.461540 200.0 25.0 500.0 197.0 25.0 10819.666670 889161.153850 138.923080 41.0 838705075.9640 0.0 0.0 0.0 0.0 0.0 0.0 0.0 -3.27680 -3.27680 -3.27680 -3.27680 -3.27680 -3.27680
19.26 19.282690 0.0 37.70 14.976670 0.0960 0.1020 1.0 2.384620 200.0 24.0 500.0 197.0 24.0 10778.083330 889161.692310 139.0 41.0 838706090.515860 0.0 0.0 0.0 0.0 0.0 0.0 0.0 -3.27680 -3.27680 -3.27680 -3.27680 -3.27680 -3.27680
19.25 19.270480 0.0 37.750 14.973330 0.0960 0.1020 1.0 2.307690 200.0 24.615380 500.0 197.0 24.615380 10736.50 889162.230770 139.0 41.0 838707105.067730 0.0 0.0 0.0 0.0 0.0 0.0 0.0 -3.27680 -3.27680 -3.27680 -3.27680 -3.27680 -3.27680
19.24 19.258270 0.0 37.80 14.970 0.0960 0.1020 1.0 2.230770 200.0 25.230770 500.0 197.0 25.230770 10694.916670 889162.769230 139.0 41.0 838708119.619590 0.0 0.0 0.0 0.0 0.0 0.0 0.0 -3.27680 -3.27680 -3.27680 -3.27680 -3.27680 -3.27680
19.23 19.250130 0.0 37.833330 14.967330 0.0960 0.1020 1.0 2.153850 200.0 25.846150 500.0 197.0 25.846150 10653.333330 889163.307690 139.0 41.0 838709134.171460 0.0 0.0 0.0 0.0 0.0 0.0 0.0 -3.27680 -3.27680 -3.27680 -3.27680 -3.27680 -3.27680
19.22 19.2420 0.0 37.866670 14.964670 0.0960 0.1020 1.0 2.076920 200.0 26.461540 500.0 197.0 26.461540 10611.750 889163.846150 139.0 41.0 838710148.723330 0.0 0.0 0.0 0.0 0.0 0.0 0.0 -3.27680 -3.27680 -3.27680 -3.27680 -3.27680 -3.27680
19.21 19.233860 0.0 37.90 14.9620 0.0960 0.1020 1.0 2.0 200.0 27.076920 500.0 197.0 27.076920 10570.166670 889164.384620 139.0 41.0 838711163.275190 0.0 0.0 0.0 0.0 0.0 0.0 0.0 -3.27680 -3.27680 -3.27680 -3.27680 -3.27680 -3.27680
19.20 19.220860 0.0 37.950 14.959330 0.0960 0.1020 1.0 2.083330 200.0 27.692310 500.0 197.0 27.692310 10528.583330 889164.923080 139.0 41.0 838712177.827060 0.0 0.0 0.0 0.0 0.0 0.0 0.0 -3.27680 -3.27680 -3.27680 -3.27680 -3.27680 -3.27680
19.19 19.207870 0.0 38.0 14.956670 0.0960 0.1020 1.0 2.166670 200.0 28.307690 500.0 197.0 28.307690 10487.0 889165.461540 139.0 41.0 838713192.378920 0.0 0.0 0.0 0.0 0.0 0.0 0.0 -3.27680 -3.27680 -3.27680 -3.27680 -3.27680 -3.27680
19.18 19.199470 0.0 38.033330 14.9540 0.0960 0.1020 1.0 2.250 200.0 28.923080 500.0 197.0 28.923080 10448.384620 889166.0 139.0 41.0 838714206.930790 0.0 0.0 0.0 0.0 0.0 0.0 0.0 -3.27680 -3.27680 -3.27680 -3.27680 -3.27680 -3.27680
19.17 19.191060 0.0 38.066670 14.951330 0.0960 0.1020 1.0 2.333330 200.0 29.538460 500.0 197.0 29.538460 10409.769230 889166.50 139.0 41.0 838715149.021540 0.0 0.0 0.0 0.0 0.0 0.0 0.0 -3.27680 -3.27680 -3.27680 -3.27680 -3.27680 -3.27680
19.16 19.182660 0.0 38.10 14.948670 0.0960 0.1020 1.0 2.416670 200.0 30.153850 500.0 197.0 30.153850 10371.153850 889167.0 139.0 41.0 838716091.11230 0.0 0.0 0.0 0.0 0.0 0.0 0.0 -3.27680 -3.27680 -3.27680 -3.27680 -3.27680 -3.27680
19.15 19.170060 0.0 38.150 14.9460 0.0960 0.1020 1.0 2.50 200.0 30.769230 500.0 197.0 30.769230 10332.538460 889167.50 139.0 41.0 838717033.203050 0.0 0.0 0.0 0.0 0.0 0.0 0.0 -3.27680 -3.27680 -3.27680 -3.27680 -3.27680 -3.27680
19.14 19.157460 0.0 38.20 14.943330 0.0960 0.1020 1.0 2.583330 200.0 31.384620 500.0 197.0 31.384620 10293.923080 889168.0 139.0 41.0 838717975.293810 0.0 0.0 0.0 0.0 0.0 0.0 0.0 -3.27680 -3.27680 -3.27680 -3.27680 -3.27680 -3.27680
19.13 19.149060 0.0 38.233330 14.940670 0.0960 0.1020 1.0 2.666670 200.0 32.0 500.0 197.0 32.0 10255.307690 889168.50 139.0 41.0 838718917.384560 0.0 0.0 0.0 0.0 0.0 0.0 0.0 -3.27680 -3.27680 -3.27680 -3.27680 -3.27680 -3.27680
19.12 19.140660 0.0 38.266670 14.9380 0.0960 0.1020 1.0 2.750 200.0 32.0 500.0 197.0 32.0 10216.692310 889169.0 139.083330 41.0 838719859.475310 0.0 0.0 0.0 0.0 0.0 0.0 0.0 -3.27680 -3.27680 -3.27680 -3.27680 -3.27680 -3.27680
19.11 19.132260 0.0 38.30 14.935330 0.0960 0.1020 1.0 2.833330 200.0 32.0 500.0 197.0 32.0 10178.076920 889169.50 139.166670 41.0 838720801.566070 0.0 0.0 0.0 0.0 0.0 0.0 0.0 -3.27680 -3.27680 -3.27680 -3.27680 -3.27680 -3.27680
19.10 19.119660 0.0 38.350 14.932670 0.0960 0.1020 1.0 2.916670 200.0 32.0 500.0 197.0 32.0 10139.461540 889170.0 139.250 41.0 838721743.656820 0.0 0.0 0.0 0.0 0.0 0.0 0.0 -3.27680 -3.27680 -3.27680 -3.27680 -3.27680 -3.27680
19.09 19.107050 0.0 38.40 14.930 0.0960 0.1020 1.0 3.0 200.0 32.0 500.0 197.0 32.0 10100.846150 889170.50 139.333330 41.0 838722685.747570 0.0 0.0 0.0 0.0 0.0 0.0 0.0 -3.27680 -3.27680 -3.27680 -3.27680 -3.27680 -3.27680
