~VERSION INFORMATION SECTION
VERS. 2.0 : CWLS LAS-VERSION 2.0
WRAP. NO : One line per depth step
~WELL INFORMATION SECTION
# MNEM.UNIT VALUE/NAME DESCRIPTION
#-------- -------------- ---------------------
STRT.Metres 26 : Start
STOP.Metres -2.05 : Stop
STEP.Metres -0.01 : Step
NULL.  -999.25 :NULL VALUE
DATE. 2026-48-09 : DATE
~CURVE INFORMATION SECTION
DEPTH.Metres : 0 Depth
Depth. : 1 Depth
Tension. : 2 Tension
Time. : 3 Time
Speed. : 4 Speed
Voltage. : 5 Voltage
Current. : 6 Current
WET. : 7 WET
Sig. : 8 Sig
Vth. : 9 Vth
GR.CPS : 10 GR
Timebase.ms : 11 Timebase
HeadVoltage.V : 12 Head Voltage
API.API : 13 API
Conductivity.uS : 14 Conductivity
PT100.Ohms : 15 PT100
Vmon.mV : 16 Vmon
Status. : 17 Status
Temperature.C : 18 Temperature
Incline.Deg : 19 Incline
Azimuth.Deg : 20 Azimuth
RelativeBearing.Deg : 21 Relative Bearing
MagneticToolFace.Deg : 22 Magnetic Tool Face
GravityMagnitude.G : 23 Gravity Magnitude
MagnetometerMagnitude.H : 24 Magnetometer Magnitude
Temperature.C : 25 Temperature
GX. : 26 GX
GY. : 27 GY
GZ. : 28 GZ
HX. : 29 HX
HY. : 30 HY
HZ. : 31 HZ
~PARAMETER INFORMATION SECTION
~OTHER
#-------------------------------------------------
#Produced By: GeoVista Logger - Version 7.1.107.0
Verticality Sonde - 9605
Temperature and Conductivity Sonde - Inline - 8974
Natural Gamma Sonde - 9931
WLIS - 10021
#-------------------------------------------------
~ASCII LOG DATA
# ...
5.63 5.651260 0.0 92.233330 14.983330 0.0960 0.1020 1.0 41.461540 200.0 19.692310 500.0 197.0 19.692310 1800.0 890576.833330 152.166670 41.0 841374570.362810 0.0 0.0 0.0 0.0 0.0 0.0 0.0 -3.27680 -3.27680 -3.27680 -3.27680 -3.27680 -3.27680
5.62 5.642860 0.0 92.266670 14.980 0.0960 0.1020 1.0 41.538460 200.0 19.846150 500.0 197.0 19.846150 1800.0 890577.750 152.083330 41.0 841376300.267550 0.0 0.0 0.0 0.0 0.0 0.0 0.0 -3.27680 -3.27680 -3.27680 -3.27680 -3.27680 -3.27680
5.61 5.634450 0.0 92.30 14.976670 0.0960 0.1020 1.0 41.615380 200.0 20.0 500.0 197.0 20.0 1800.0 890578.666670 152.0 41.0 841378030.172280 0.0 0.0 0.0 0.0 0.0 0.0 0.0 -3.27680 -3.27680 -3.27680 -3.27680 -3.27680 -3.27680
5.60 5.621850 0.0 92.350 14.973330 0.0960 0.1020 1.0 41.692310 200.0 20.50 500.0 197.0 20.50 1800.0 890579.583330 152.076920 41.0 841379760.077020 0.0 0.0 0.0 0.0 0.0 0.0 0.0 -3.27680 -3.27680 -3.27680 -3.27680 -3.27680 -3.27680
5.59 5.609250 0.0 92.40 14.970 0.0960 0.1020 1.0 41.769230 200.0 21.0 500.0 197.0 21.0 1800.0 890580.50 152.153850 41.0 841381489.981760 0.0 0.0 0.0 0.0 0.0 0.0 0.0 -3.27680 -3.27680 -3.27680 -3.27680 -3.27680 -3.27680
5.58 5.600850 0.0 92.433330 14.976670 0.0960 0.102670 1.0 41.846150 200.0 21.50 500.0 197.0 21.50 1800.0 890581.416670 152.230770 41.0 841383219.88650 0.0 0.0 0.0 0.0 0.0 0.0 0.0 -3.27680 -3.27680 -3.27680 -3.27680 -3.27680 -3.27680
5.57 5.592450 0.0 92.466670 14.983330 0.0960 0.103330 1.0 41.923080 200.0 22.0 500.0 197.0 22.0 1800.0 890582.333330 152.307690 41.0 841384949.791240 0.0 0.0 0.0 0.0 0.0 0.0 0.0 -3.27680 -3.27680 -3.27680 -3.27680 -3.27680 -3.27680
5.56 5.584050 0.0 92.50 14.990 0.0960 0.1040 1.0 42.0 200.0 22.50 500.0 197.0 22.50 1800.0 890583.250 152.384620 41.0 841386679.695980 0.0 0.0 0.0 0.0 0.0 0.0 0.0 -3.27680 -3.27680 -3.27680 -3.27680 -3.27680 -3.27680
5.55 5.571840 0.0 92.550 14.996670 0.0960 0.1030 1.0 42.0 200.0 23.0 500.0 197.0 23.0 1800.0 890584.166670 152.461540 41.0 841388409.600720 0.0 0.0 0.0 0.0 0.0 0.0 0.0 -3.27680 -3.27680 -3.27680 -3.27680 -3.27680 -3.27680
5.54 5.559630 0.0 92.60 15.003330 0.0960 0.1020 1.0 42.0 200.0 23.50 500.0 197.0 23.50 1800.0 890585.083330 152.538460 41.0 841390139.505460 0.0 0.0 0.0 0.0 0.0 0.0 0.0 -3.27680 -3.27680 -3.27680 -3.27680 -3.27680 -3.27680
5.53 5.551230 0.0 92.633330 15.010 0.0960 0.1020 1.0 42.0 200.0 24.0 500.0 197.0 24.0 1800.0 890586.0 152.615380 41.0 841391869.41020 0.0 0.0 0.0 0.0 0.0 0.0 0.0 -3.27680 -3.27680 -3.27680 -3.27680 -3.27680 -3.27680
5.52 5.542830 0.0 92.666670 15.016670 0.0960 0.1020 1.0 42.0 200.0 24.50 500.0 197.0 24.50 1798.583330 890586.769230 152.692310 41.0 841393321.09560 0.0 0.0 0.0 0.0 0.0 0.0 0.0 -3.27680 -3.27680 -3.27680 -3.27680 -3.27680 -3.27680
5.51 5.534430 0.0 92.70 15.023330 0.0960 0.1020 1.0 42.0 200.0 25.0 500.0 197.0 25.0 1797.166670 890587.538460 152.769230 41.0 841394772.781010 0.0 0.0 0.0 0.0 0.0 0.0 0.0 -3.27680 -3.27680 -3.27680 -3.27680 -3.27680 -3.27680
5.50 5.521830 0.0 92.750 15.030 0.0960 0.1020 1.0 42.0 200.0 25.50 500.0 197.0 25.50 1795.750 890588.307690 152.846150 41.0 841396224.466420 0.0 0.0 0.0 0.0 0.0 0.0 0.0 -3.27680 -3.27680 -3.27680 -3.27680 -3.27680 -3.27680
5.49 5.509230 0.0 92.80 15.036670 0.0960 0.1020 1.0 42.0 200.0 26.0 500.0 197.0 26.0 1794.333330 890589.076920 152.923080 41.0 841397676.151820 0.0 0.0 0.0 0.0 0.0 0.0 0.0 -3.27680 -3.27680 -3.27680 -3.27680 -3.27680 -3.27680
5.48 5.501090 0.0 92.833330 15.043330 0.0960 0.1020 1.0 42.0 200.0 26.153850 500.0 197.0 26.153850 1792.916670 890589.846150 153.0 41.0 841399127.837230 0.0 0.0 0.0 0.0 0.0 0.0 0.0 -3.27680 -3.27680 -3.27680 -3.27680 -3.27680 -3.27680
5.47 5.492950 0.0 92.866670 15.050 0.0960 0.1020 1.0 42.0 200.0 26.307690 500.0 197.0 26.307690 1791.50 890590.615380 153.0 41.0 841400579.522640 0.0 0.0 0.0 0.0 0.0 0.0 0.0 -3.27680 -3.27680 -3.27680 -3.27680 -3.27680 -3.27680
5.46 5.484810 0.0 92.90 15.056670 0.0960 0.1020 1.0 42.0 200.0 26.461540 500.0 197.0 26.461540 1790.083330 890591.384620 153.0 41.0 841402031.208040 0.0 0.0 0.0 0.0 0.0 0.0 0.0 -3.27680 -3.27680 -3.27680 -3.27680 -3.27680 -3.27680
5.45 5.472210 0.0 92.950 15.063330 0.0960 0.1020 1.0 42.0 200.0 26.615380 500.0 197.0 26.615380 1788.666670 890592.153850 153.0 41.0 841403482.893450 0.0 0.0 0.0 0.0 0.0 0.0 0.0 -3.27680 -3.27680 -3.27680 -3.27680 -3.27680 -3.27680
5.44 5.459610 0.0 93.0 15.070 0.0960 0.1020 1.0 42.0 200.0 26.769230 500.0 197.0 26.769230 1787.250 890592.923080 153.0 41.0 841404934.578860 0.0 0.0 0.0 0.0 0.0 0.0 0.0 -3.27680 -3.27680 -3.27680 -3.27680 -3.27680 -3.27680
5.43 5.451210 0.0 93.033330 15.060670 0.0960 0.1020 1.0 42.0 200.0 26.923080 500.0 197.0 26.923080 1785.833330 890593.692310 153.0 41.0 841406386.264260 0.0 0.0 0.0 0.0 0.0 0.0 0.0 -3.27680 -3.27680 -3.27680 -3.27680 -3.27680 -3.27680
5.42 5.442810 0.0 93.066670 15.051330 0.0960 0.1020 1.0 42.0 200.0 27.076920 500.0 197.0 27.076920 1784.416670 890594.461540 153.0 41.0 841407837.949670 0.0 0.0 0.0 0.0 0.0 0.0 0.0 -3.27680 -3.27680 -3.27680 -3.27680 -3.27680 -3.27680
5.41 5.434410 0.0 93.10 15.0420 0.0960 0.1020 1.0 42.0 200.0 27.230770 500.0 197.0 27.230770 1783.0 890595.230770 153.0 41.0 841409289.635080 0.0 0.0 0.0 0.0 0.0 0.0 0.0 -3.27680 -3.27680 -3.27680 -3.27680 -3.27680 -3.27680
5.40 5.42220 0.0 93.150 15.032670 0.0960 0.1020 1.0 42.0 200.0 27.384620 500.0 197.0 27.384620 1782.153850 890596.0 153.0 41.0 841410741.320480 0.0 0.0 0.0 0.0 0.0 0.0 0.0 -3.27680 -3.27680 -3.27680 -3.27680 -3.27680 -3.27680
5.39 5.409990 0.0 93.20 15.023330 0.0960 0.1020 1.0 42.0 200.0 27.538460 500.0 197.0 27.538460 1781.307690 890596.750 153.0 41.0 841412156.728830 0.0 0.0 0.0 0.0 0.0 0.0 0.0 -3.27680 -3.27680 -3.27680 -3.27680 -3.27680 -3.27680
5.38 5.401590 0.0 93.233330 15.0140 0.0960 0.1020 1.0 42.0 200.0 27.692310 500.0 197.0 27.692310 1780.461540 890597.50 153.0 41.0 841413572.137180 0.0 0.0 0.0 0.0 0.0 0.0 0.0 -3.27680 -3.27680 -3.27680 -3.27680 -3.27680 -3.27680
5.37 5.393190 0.0 93.266670 15.004670 0.0960 0.1020 1.0 42.0 200.0 27.846150 500.0 197.0 27.846150 1779.615380 890598.250 153.0 41.0 841414987.545530 0.0 0.0 0.0 0.0 0.0 0.0 0.0 -3.27680 -3.27680 -3.27680 -3.27680 -3.27680 -3.27680
5.36 5.384790 0.0 93.30 14.995330 0.0960 0.1020 1.0 42.0 200.0 28.0 500.0 197.0 28.0 1778.769230 890599.0 153.0 41.0 841416402.953880 0.0 0.0 0.0 0.0 0.0 0.0 0.0 -3.27680 -3.27680 -3.27680 -3.27680 -3.27680 -3.27680
5.35 5.372190 0.0 93.350 14.9860 0.0960 0.1020 1.0 42.0 200.0 27.833330 500.0 197.0 27.833330 1777.923080 890599.750 153.0 41.0 841417818.362240 0.0 0.0 0.0 0.0 0.0 0.0 0.0 -3.27680 -3.27680 -3.27680 -3.27680 -3.27680 -3.27680
5.34 5.359580 0.0 93.40 14.976670 0.0960 0.1020 1.0 42.0 200.0 27.666670 500.0 197.0 27.666670 1777.076920 890600.50 153.0 41.0 841419233.770590 0.0 0.0 0.0 0.0 0.0 0.0 0.0 -3.27680 -3.27680 -3.27680 -3.27680 -3.27680 -3.27680
5.33 5.351180 0.0 93.433330 14.967330 0.0960 0.1020 1.0 42.0 200.0 27.50 500.0 197.0 27.50 1776.230770 890601.250 153.0 41.0 841420649.178940 0.0 0.0 0.0 0.0 0.0 0.0 0.0 -3.27680 -3.27680 -3.27680 -3.27680 -3.27680 -3.27680
5.32 5.342780 0.0 93.466670 14.9580 0.0960 0.1020 1.0 42.0 200.0 27.333330 500.0 197.0 27.333330 1775.384620 890602.0 153.0 41.0 841422064.587290 0.0 0.0 0.0 0.0 0.0 0.0 0.0 -3.27680 -3.27680 -3.27680 -3.27680 -3.27680 -3.27680
5.31 5.334380 0.0 93.50 14.948670 0.0960 0.1020 1.0 42.0 200.0 27.166670 500.0 197.0 27.166670 1774.538460 890602.750 153.0 41.0 841423479.995640 0.0 0.0 0.0 0.0 0.0 0.0 0.0 -3.27680 -3.27680 -3.27680 -3.27680 -3.27680 -3.27680
5.30 5.322170 0.0 93.550 14.939330 0.0960 0.1020 1.0 42.083330 200.0 27.0 500.0 197.0 27.0 1773.692310 890603.50 153.0 41.0 841424895.403990 0.0 0.0 0.0 0.0 0.0 0.0 0.0 -3.27680 -3.27680 -3.27680 -3.27680 -3.27680 -3.27680
5.29 5.309970 0.0 93.60 14.930 0.0960 0.1020 1.0 42.166670 200.0 26.833330 500.0 197.0 26.833330 1772.846150 890604.250 153.0 41.0 841426310.812340 0.0 0.0 0.0 0.0 0.0 0.0 0.0 -3.27680 -3.27680 -3.27680 -3.27680 -3.27680 -3.27680
5.28 5.301560 0.0 93.633330 14.932670 0.0960 0.101330 1.0 42.250 200.0 26.666670 500.0 197.0 26.666670 1772.0 890605.0 153.0 41.0 841427726.220690 0.0 0.0 0.0 0.0 0.0 0.0 0.0 -3.27680 -3.27680 -3.27680 -3.27680 -3.27680 -3.27680
