~VERSION INFORMATION SECTION
VERS. 2.0 : CWLS LAS-VERSION 2.0
WRAP. NO : One line per depth step
~WELL INFORMATION SECTION
# MNEM.UNIT VALUE/NAME DESCRIPTION
#-------- -------------- ---------------------
STRT.Metres 26 : Start
STOP.Metres -2.04 : Stop
STEP.Metres -0.01 : Step
NULL.  -999.25 :NULL VALUE
DATE. 2026-36-09 : DATE
~CURVE INFORMATION SECTION
DEPTH.Metres : 0 Depth
Depth. : 1 Depth
Tension. : 2 Tension
Time. : 3 Time
Speed. : 4 Speed
Voltage. : 5 Voltage
Current. : 6 Current
WET. : 7 WET
Sig. : 8 Sig
Vth. : 9 Vth
GR.CPS : 10 GR
Timebase.ms : 11 Timebase
HeadVoltage.V : 12 Head Voltage
API.API : 13 API
Conductivity.uS : 14 Conductivity
PT100.Ohms : 15 PT100
Vmon.mV : 16 Vmon
Status. : 17 Status
Temperature.C : 18 Temperature
Incline.Deg : 19 Incline
Azimuth.Deg : 20 Azimuth
RelativeBearing.Deg : 21 Relative Bearing
MagneticToolFace.Deg : 22 Magnetic Tool Face
GravityMagnitude.G : 23 Gravity Magnitude
MagnetometerMagnitude.H : 24 Magnetometer Magnitude
Temperature.C : 25 Temperature
GX. : 26 GX
GY. : 27 GY
GZ. : 28 GZ
HX. : 29 HX
HY. : 30 HY
HZ. : 31 HZ
~PARAMETER INFORMATION SECTION
~OTHER
#-------------------------------------------------
#Produced By: GeoVista Logger - Version 7.1.107.0
Verticality Sonde - 9605
Temperature and Conductivity Sonde - Inline - 8974
Natural Gamma Sonde - 9931
WLIS - 10021
#-------------------------------------------------
~ASCII LOG DATA
# ...
11.08 11.102460 0.0 92.366670 14.9560 0.0960 0.1020 1.0 39.0 200.0 4.833330 500.0 197.0 4.833330 2193.0 889793.615380 160.0 43.0 839897161.099920 0.0 0.0 0.0 0.0 0.0 0.0 0.0 -3.27680 -3.27680 -3.27680 -3.27680 -3.27680 -3.27680
11.07 11.094060 0.0 92.40 14.943330 0.0960 0.1020 1.0 39.0 200.0 5.666670 500.0 197.0 5.666670 2193.0 889794.384620 160.0 43.0 839898611.487810 0.0 0.0 0.0 0.0 0.0 0.0 0.0 -3.27680 -3.27680 -3.27680 -3.27680 -3.27680 -3.27680
11.06 11.081460 0.0 92.450 14.930670 0.0960 0.1020 1.0 39.0 200.0 6.50 500.0 197.0 6.50 2193.0 889795.153850 160.0 43.0 839900061.87570 0.0 0.0 0.0 0.0 0.0 0.0 0.0 -3.27680 -3.27680 -3.27680 -3.27680 -3.27680 -3.27680
11.05 11.068860 0.0 92.50 14.9180 0.0960 0.1020 1.0 39.0 200.0 7.333330 500.0 197.0 7.333330 2193.0 889795.923080 160.0 43.0 839901512.263590 0.0 0.0 0.0 0.0 0.0 0.0 0.0 -3.27680 -3.27680 -3.27680 -3.27680 -3.27680 -3.27680
11.04 11.060720 0.0 92.533330 14.905330 0.0960 0.1020 1.0 39.0 200.0 8.166670 500.0 197.0 8.166670 2193.0 889796.692310 160.0 43.0 839902962.651480 0.0 0.0 0.0 0.0 0.0 0.0 0.0 -3.27680 -3.27680 -3.27680 -3.27680 -3.27680 -3.27680
11.03 11.052580 0.0 92.566670 14.892670 0.0960 0.1020 1.0 39.0 200.0 9.0 500.0 197.0 9.0 2193.0 889797.461540 160.0 43.0 839904413.039380 0.0 0.0 0.0 0.0 0.0 0.0 0.0 -3.27680 -3.27680 -3.27680 -3.27680 -3.27680 -3.27680
11.02 11.044440 0.0 92.60 14.880 0.0960 0.1020 1.0 39.0 200.0 9.833330 500.0 197.0 9.833330 2193.0 889798.230770 160.0 43.0 839905863.427270 0.0 0.0 0.0 0.0 0.0 0.0 0.0 -3.27680 -3.27680 -3.27680 -3.27680 -3.27680 -3.27680
11.01 11.031840 0.0 92.650 14.883330 0.0960 0.1020 1.0 39.0 200.0 10.666670 500.0 197.0 10.666670 2189.692310 889799.0 160.0 43.0 839907313.815160 0.0 0.0 0.0 0.0 0.0 0.0 0.0 -3.27680 -3.27680 -3.27680 -3.27680 -3.27680 -3.27680
11.00 11.019240 0.0 92.70 14.886670 0.0960 0.1020 1.0 39.0 200.0 11.50 500.0 197.0 11.50 2186.384620 889800.083330 160.0 43.0 839909356.471140 0.0 0.0 0.0 0.0 0.0 0.0 0.0 -3.27680 -3.27680 -3.27680 -3.27680 -3.27680 -3.27680
10.99 11.01110 0.0 92.733330 14.890 0.0960 0.1020 1.0 39.0 200.0 12.333330 500.0 197.0 12.333330 2183.076920 889801.166670 160.0 43.0 839911399.127110 0.0 0.0 0.0 0.0 0.0 0.0 0.0 -3.27680 -3.27680 -3.27680 -3.27680 -3.27680 -3.27680
10.98 11.002960 0.0 92.766670 14.893330 0.0960 0.1020 1.0 39.0 200.0 13.166670 500.0 197.0 13.166670 2179.769230 889802.250 160.0 43.0 839913441.783090 0.0 0.0 0.0 0.0 0.0 0.0 0.0 -3.27680 -3.27680 -3.27680 -3.27680 -3.27680 -3.27680
10.97 10.994830 0.0 92.80 14.896670 0.0960 0.1020 1.0 39.0 200.0 14.0 500.0 197.0 14.0 2176.461540 889803.333330 160.0 43.0 839915484.439070 0.0 0.0 0.0 0.0 0.0 0.0 0.0 -3.27680 -3.27680 -3.27680 -3.27680 -3.27680 -3.27680
10.96 10.982220 0.0 92.850 14.90 0.0960 0.1020 1.0 39.0 200.0 14.153850 500.0 197.0 14.153850 2173.153850 889804.416670 160.0 43.0 839917527.095050 0.0 0.0 0.0 0.0 0.0 0.0 0.0 -3.27680 -3.27680 -3.27680 -3.27680 -3.27680 -3.27680
10.95 10.969620 0.0 92.90 14.903330 0.0960 0.1020 1.0 39.0 200.0 14.307690 500.0 197.0 14.307690 2169.846150 889805.50 160.0 43.0 839919569.751030 0.0 0.0 0.0 0.0 0.0 0.0 0.0 -3.27680 -3.27680 -3.27680 -3.27680 -3.27680 -3.27680
10.94 10.961220 0.0 92.933330 14.906670 0.0960 0.1020 1.0 39.0 200.0 14.461540 500.0 197.0 14.461540 2166.538460 889806.583330 160.0 43.0 839921612.407010 0.0 0.0 0.0 0.0 0.0 0.0 0.0 -3.27680 -3.27680 -3.27680 -3.27680 -3.27680 -3.27680
10.93 10.952820 0.0 92.966670 14.910 0.0960 0.1020 1.0 39.0 200.0 14.615380 500.0 197.0 14.615380 2163.230770 889807.666670 160.0 43.0 839923655.062990 0.0 0.0 0.0 0.0 0.0 0.0 0.0 -3.27680 -3.27680 -3.27680 -3.27680 -3.27680 -3.27680
10.92 10.944420 0.0 93.0 14.913330 0.0960 0.1020 1.0 39.076920 200.0 14.769230 500.0 197.0 14.769230 2159.923080 889808.750 160.0 43.0 839925697.718970 0.0 0.0 0.0 0.0 0.0 0.0 0.0 -3.27680 -3.27680 -3.27680 -3.27680 -3.27680 -3.27680
10.91 10.931820 0.0 93.050 14.916670 0.0960 0.1020 1.0 39.153850 200.0 14.923080 500.0 197.0 14.923080 2156.615380 889809.833330 160.0 43.0 839927740.374950 0.0 0.0 0.0 0.0 0.0 0.0 0.0 -3.27680 -3.27680 -3.27680 -3.27680 -3.27680 -3.27680
10.90 10.919220 0.0 93.10 14.920 0.0960 0.1020 1.0 39.230770 200.0 15.076920 500.0 197.0 15.076920 2153.307690 889810.916670 160.0 43.0 839929783.030930 0.0 0.0 0.0 0.0 0.0 0.0 0.0 -3.27680 -3.27680 -3.27680 -3.27680 -3.27680 -3.27680
10.89 10.910820 0.0 93.133330 14.923330 0.0960 0.1020 1.0 39.307690 200.0 15.230770 500.0 197.0 15.230770 2150.0 889812.0 160.0 43.0 839931825.686910 0.0 0.0 0.0 0.0 0.0 0.0 0.0 -3.27680 -3.27680 -3.27680 -3.27680 -3.27680 -3.27680
10.88 10.902420 0.0 93.166670 14.926670 0.0960 0.1020 1.0 39.384620 200.0 15.384620 500.0 197.0 15.384620 2152.666670 889813.307690 160.0 43.0 839934291.419660 0.0 0.0 0.0 0.0 0.0 0.0 0.0 -3.27680 -3.27680 -3.27680 -3.27680 -3.27680 -3.27680
10.87 10.894010 0.0 93.20 14.930 0.0960 0.1020 1.0 39.461540 200.0 15.538460 500.0 197.0 15.538460 2155.333330 889814.615380 160.0 43.0 839936757.152420 0.0 0.0 0.0 0.0 0.0 0.0 0.0 -3.27680 -3.27680 -3.27680 -3.27680 -3.27680 -3.27680
10.86 10.881410 0.0 93.250 14.942670 0.0960 0.1020 1.0 39.538460 200.0 15.692310 500.0 197.0 15.692310 2158.0 889815.923080 160.0 43.0 839939222.885170 0.0 0.0 0.0 0.0 0.0 0.0 0.0 -3.27680 -3.27680 -3.27680 -3.27680 -3.27680 -3.27680
10.85 10.868810 0.0 93.30 14.955330 0.0960 0.1020 1.0 39.615380 200.0 15.846150 500.0 197.0 15.846150 2160.666670 889817.230770 160.0 43.0 839941688.617930 0.0 0.0 0.0 0.0 0.0 0.0 0.0 -3.27680 -3.27680 -3.27680 -3.27680 -3.27680 -3.27680
10.84 10.860410 0.0 93.333330 14.9680 0.0960 0.1020 1.0 39.692310 200.0 16.0 500.0 197.0 16.0 2163.333330 889818.538460 160.0 43.0 839944154.350680 0.0 0.0 0.0 0.0 0.0 0.0 0.0 -3.27680 -3.27680 -3.27680 -3.27680 -3.27680 -3.27680
10.83 10.852010 0.0 93.366670 14.980670 0.0960 0.1020 1.0 39.769230 200.0 15.50 500.0 197.0 15.50 2166.0 889819.846150 160.0 43.0 839946620.083440 0.0 0.0 0.0 0.0 0.0 0.0 0.0 -3.27680 -3.27680 -3.27680 -3.27680 -3.27680 -3.27680
10.82 10.843610 0.0 93.40 14.993330 0.0960 0.1020 1.0 39.846150 200.0 15.0 500.0 197.0 15.0 2168.666670 889821.153850 160.0 43.0 839949085.816190 0.0 0.0 0.0 0.0 0.0 0.0 0.0 -3.27680 -3.27680 -3.27680 -3.27680 -3.27680 -3.27680
10.81 10.831010 0.0 93.450 15.0060 0.0960 0.1020 1.0 39.923080 200.0 14.50 500.0 197.0 14.50 2171.333330 889822.461540 160.0 43.0 839951551.548950 0.0 0.0 0.0 0.0 0.0 0.0 0.0 -3.27680 -3.27680 -3.27680 -3.27680 -3.27680 -3.27680
10.80 10.81840 0.0 93.50 15.018670 0.0960 0.1020 1.0 40.0 200.0 14.0 500.0 197.0 14.0 2174.0 889823.769230 160.0 43.0 839954017.28170 0.0 0.0 0.0 0.0 0.0 0.0 0.0 -3.27680 -3.27680 -3.27680 -3.27680 -3.27680 -3.27680
10.79 10.810270 0.0 93.533330 15.031330 0.0960 0.1020 1.0 40.0 200.0 13.50 500.0 197.0 13.50 2176.666670 889825.076920 160.0 43.0 839956483.014460 0.0 0.0 0.0 0.0 0.0 0.0 0.0 -3.27680 -3.27680 -3.27680 -3.27680 -3.27680 -3.27680
10.78 10.802130 0.0 93.566670 15.0440 0.0960 0.1020 1.0 40.0 200.0 13.0 500.0 197.0 13.0 2179.333330 889826.384620 160.0 43.0 839958948.747210 0.0 0.0 0.0 0.0 0.0 0.0 0.0 -3.27680 -3.27680 -3.27680 -3.27680 -3.27680 -3.27680
10.77 10.793990 0.0 93.60 15.056670 0.0960 0.1020 1.0 40.0 200.0 12.50 500.0 197.0 12.50 2182.0 889827.692310 160.0 43.0 839961414.479970 0.0 0.0 0.0 0.0 0.0 0.0 0.0 -3.27680 -3.27680 -3.27680 -3.27680 -3.27680 -3.27680
10.76 10.781390 0.0 93.650 15.069330 0.0960 0.1020 1.0 40.0 200.0 12.0 500.0 197.0 12.0 2180.538460 889829.0 160.0 43.0 839963880.212730 0.0 0.0 0.0 0.0 0.0 0.0 0.0 -3.27680 -3.27680 -3.27680 -3.27680 -3.27680 -3.27680
10.75 10.768790 0.0 93.70 15.0820 0.0960 0.1020 1.0 40.0 200.0 11.50 500.0 197.0 11.50 2179.076920 889830.166670 160.0 43.0 839966080.07140 0.0 0.0 0.0 0.0 0.0 0.0 0.0 -3.27680 -3.27680 -3.27680 -3.27680 -3.27680 -3.27680
10.74 10.760390 0.0 93.733330 15.094670 0.0960 0.1020 1.0 40.0 200.0 11.0 500.0 197.0 11.0 2177.615380 889831.333330 160.0 43.0 839968279.930070 0.0 0.0 0.0 0.0 0.0 0.0 0.0 -3.27680 -3.27680 -3.27680 -3.27680 -3.27680 -3.27680
