~VERSION INFORMATION SECTION
VERS. 2.0 : CWLS LAS-VERSION 2.0
WRAP. NO : One line per depth step
~WELL INFORMATION SECTION
# MNEM.UNIT VALUE/NAME DESCRIPTION
#-------- -------------- ---------------------
STRT.Metres 26 : Start
STOP.Metres -2.05 : Stop
STEP.Metres -0.01 : Step
NULL.  -999.25 :NULL VALUE
DATE. 2026-48-09 : DATE
~CURVE INFORMATION SECTION
DEPTH.Metres : 0 Depth
Depth. : 1 Depth
Tension. : 2 Tension
Time. : 3 Time
Speed. : 4 Speed
Voltage. : 5 Voltage
Current. : 6 Current
WET. : 7 WET
Sig. : 8 Sig
Vth. : 9 Vth
GR.CPS : 10 GR
Timebase.ms : 11 Timebase
HeadVoltage.V : 12 Head Voltage
API.API : 13 API
Conductivity.uS : 14 Conductivity
PT100.Ohms : 15 PT100
Vmon.mV : 16 Vmon
Status. : 17 Status
Temperature.C : 18 Temperature
Incline.Deg : 19 Incline
Azimuth.Deg : 20 Azimuth
RelativeBearing.Deg : 21 Relative Bearing
MagneticToolFace.Deg : 22 Magnetic Tool Face
GravityMagnitude.G : 23 Gravity Magnitude
MagnetometerMagnitude.H : 24 Magnetometer Magnitude
Temperature.C : 25 Temperature
GX. : 26 GX
GY. : 27 GY
GZ. : 28 GZ
HX. : 29 HX
HY. : 30 HY
HZ. : 31 HZ
~PARAMETER INFORMATION SECTION
~OTHER
#-------------------------------------------------
#Produced By: GeoVista Logger - Version 7.1.107.0
Verticality Sonde - 9605
Temperature and Conductivity Sonde - Inline - 8974
Natural Gamma Sonde - 9931
WLIS - 10021
#-------------------------------------------------
~ASCII LOG DATA
# ...
9.21 9.22720 0.0 77.933330 15.056670 0.0960 0.1020 1.0 40.153850 200.0 13.846150 500.0 197.0 13.846150 2032.076920 890052.0 153.0 41.0 840384416.952050 0.0 0.0 0.0 0.0 0.0 0.0 0.0 -3.27680 -3.27680 -3.27680 -3.27680 -3.27680 -3.27680
9.20 9.219060 0.0 77.966670 15.063330 0.0960 0.1020 1.0 40.076920 200.0 14.461540 500.0 197.0 14.461540 2032.461540 890054.0 153.0 41.0 840388189.044160 0.0 0.0 0.0 0.0 0.0 0.0 0.0 -3.27680 -3.27680 -3.27680 -3.27680 -3.27680 -3.27680
9.19 9.210920 0.0 78.0 15.070 0.0960 0.1020 1.0 40.0 200.0 15.076920 500.0 197.0 15.076920 2032.846150 890056.0 153.0 41.0 840391961.136270 0.0 0.0 0.0 0.0 0.0 0.0 0.0 -3.27680 -3.27680 -3.27680 -3.27680 -3.27680 -3.27680
9.18 9.198320 0.0 78.050 15.063330 0.0960 0.1010 1.0 40.0 200.0 15.692310 500.0 197.0 15.692310 2033.230770 890058.0 153.0 41.0 840395733.228380 0.0 0.0 0.0 0.0 0.0 0.0 0.0 -3.27680 -3.27680 -3.27680 -3.27680 -3.27680 -3.27680
9.17 9.185720 0.0 78.10 15.056670 0.0960 0.10 1.0 40.0 200.0 16.307690 500.0 197.0 16.307690 2033.615380 890060.0 153.0 41.0 840399505.320490 0.0 0.0 0.0 0.0 0.0 0.0 0.0 -3.27680 -3.27680 -3.27680 -3.27680 -3.27680 -3.27680
9.16 9.177580 0.0 78.133330 15.050 0.0960 0.100670 1.0 40.0 200.0 16.923080 500.0 197.0 16.923080 2034.0 890062.0 153.0 41.0 840403277.412610 0.0 0.0 0.0 0.0 0.0 0.0 0.0 -3.27680 -3.27680 -3.27680 -3.27680 -3.27680 -3.27680
9.15 9.169440 0.0 78.166670 15.043330 0.0960 0.101330 1.0 40.0 200.0 17.538460 500.0 197.0 17.538460 2030.333330 890063.769230 153.0 41.0 840406614.351310 0.0 0.0 0.0 0.0 0.0 0.0 0.0 -3.27680 -3.27680 -3.27680 -3.27680 -3.27680 -3.27680
9.14 9.161310 0.0 78.20 15.036670 0.0960 0.1020 1.0 40.0 200.0 18.153850 500.0 197.0 18.153850 2026.666670 890065.538460 153.0 41.0 840409951.290020 0.0 0.0 0.0 0.0 0.0 0.0 0.0 -3.27680 -3.27680 -3.27680 -3.27680 -3.27680 -3.27680
9.13 9.14870 0.0 78.250 15.030 0.0960 0.1020 1.0 40.0 200.0 18.769230 500.0 197.0 18.769230 2023.0 890067.307690 153.0 41.0 840413288.228730 0.0 0.0 0.0 0.0 0.0 0.0 0.0 -3.27680 -3.27680 -3.27680 -3.27680 -3.27680 -3.27680
9.12 9.13610 0.0 78.30 15.023330 0.0960 0.1020 1.0 40.0 200.0 19.384620 500.0 197.0 19.384620 2019.333330 890069.076920 153.0 41.0 840416625.167440 0.0 0.0 0.0 0.0 0.0 0.0 0.0 -3.27680 -3.27680 -3.27680 -3.27680 -3.27680 -3.27680
9.11 9.12770 0.0 78.333330 15.016670 0.0960 0.1020 1.0 40.0 200.0 20.0 500.0 197.0 20.0 2015.666670 890070.846150 153.0 41.0 840419962.106150 0.0 0.0 0.0 0.0 0.0 0.0 0.0 -3.27680 -3.27680 -3.27680 -3.27680 -3.27680 -3.27680
9.10 9.11930 0.0 78.366670 15.010 0.0960 0.1020 1.0 40.0 200.0 19.0 500.0 197.0 19.0 2012.0 890072.615380 153.0 41.0 840423299.044850 0.0 0.0 0.0 0.0 0.0 0.0 0.0 -3.27680 -3.27680 -3.27680 -3.27680 -3.27680 -3.27680
9.09 9.11090 0.0 78.40 15.003330 0.0960 0.1020 1.0 40.0 200.0 18.0 500.0 197.0 18.0 2008.333330 890074.384620 153.0 41.0 840426635.983560 0.0 0.0 0.0 0.0 0.0 0.0 0.0 -3.27680 -3.27680 -3.27680 -3.27680 -3.27680 -3.27680
9.08 9.098690 0.0 78.450 14.996670 0.0960 0.1020 1.0 40.0 200.0 17.0 500.0 197.0 17.0 2004.666670 890076.153850 153.0 41.0 840429972.922270 0.0 0.0 0.0 0.0 0.0 0.0 0.0 -3.27680 -3.27680 -3.27680 -3.27680 -3.27680 -3.27680
9.07 9.086480 0.0 78.50 14.990 0.0960 0.1020 1.0 40.0 200.0 16.0 500.0 197.0 16.0 2001.0 890077.923080 153.0 41.0 840433309.860980 0.0 0.0 0.0 0.0 0.0 0.0 0.0 -3.27680 -3.27680 -3.27680 -3.27680 -3.27680 -3.27680
9.06 9.078080 0.0 78.533330 14.983330 0.0960 0.1020 1.0 40.0 200.0 15.0 500.0 197.0 15.0 1997.333330 890079.692310 153.0 41.0 840436646.799690 0.0 0.0 0.0 0.0 0.0 0.0 0.0 -3.27680 -3.27680 -3.27680 -3.27680 -3.27680 -3.27680
9.05 9.069680 0.0 78.566670 14.976670 0.0960 0.1020 1.0 40.0 200.0 14.0 500.0 197.0 14.0 1993.666670 890081.461540 153.0 41.0 840439983.738390 0.0 0.0 0.0 0.0 0.0 0.0 0.0 -3.27680 -3.27680 -3.27680 -3.27680 -3.27680 -3.27680
9.04 9.061280 0.0 78.60 14.970 0.0960 0.1020 1.0 40.0 200.0 13.0 500.0 197.0 13.0 1990.0 890083.230770 153.0 41.0 840443320.67710 0.0 0.0 0.0 0.0 0.0 0.0 0.0 -3.27680 -3.27680 -3.27680 -3.27680 -3.27680 -3.27680
9.03 9.048680 0.0 78.650 14.967330 0.0960 0.1020 1.0 40.0 200.0 12.0 500.0 197.0 12.0 1990.615380 890085.0 153.0 41.0 840446657.615810 0.0 0.0 0.0 0.0 0.0 0.0 0.0 -3.27680 -3.27680 -3.27680 -3.27680 -3.27680 -3.27680
9.02 9.036080 0.0 78.70 14.964670 0.0960 0.1020 1.0 40.0 200.0 11.0 500.0 197.0 11.0 1991.230770 890086.333330 153.0 41.0 840449172.465230 0.0 0.0 0.0 0.0 0.0 0.0 0.0 -3.27680 -3.27680 -3.27680 -3.27680 -3.27680 -3.27680
9.01 9.027940 0.0 78.733330 14.9620 0.0960 0.1020 1.0 40.0 200.0 10.0 500.0 197.0 10.0 1991.846150 890087.666670 153.0 41.0 840451687.314640 0.0 0.0 0.0 0.0 0.0 0.0 0.0 -3.27680 -3.27680 -3.27680 -3.27680 -3.27680 -3.27680
9.00 9.01980 0.0 78.766670 14.959330 0.0960 0.1020 1.0 40.0 200.0 9.0 500.0 197.0 9.0 1992.461540 890089.0 153.0 41.0 840454202.164050 0.0 0.0 0.0 0.0 0.0 0.0 0.0 -3.27680 -3.27680 -3.27680 -3.27680 -3.27680 -3.27680
8.99 9.011660 0.0 78.80 14.956670 0.0960 0.1020 1.0 40.0 200.0 8.0 500.0 197.0 8.0 1993.076920 890090.333330 153.0 41.0 840456717.013470 0.0 0.0 0.0 0.0 0.0 0.0 0.0 -3.27680 -3.27680 -3.27680 -3.27680 -3.27680 -3.27680
8.98 8.999060 0.0 78.850 14.9540 0.0960 0.1020 1.0 40.0 200.0 7.692310 500.0 197.0 7.692310 1993.692310 890091.666670 153.0 41.0 840459231.862880 0.0 0.0 0.0 0.0 0.0 0.0 0.0 -3.27680 -3.27680 -3.27680 -3.27680 -3.27680 -3.27680
8.97 8.986460 0.0 78.90 14.951330 0.0960 0.1020 1.0 40.0 200.0 7.384620 500.0 197.0 7.384620 1994.307690 890093.0 153.0 41.0 840461746.71230 0.0 0.0 0.0 0.0 0.0 0.0 0.0 -3.27680 -3.27680 -3.27680 -3.27680 -3.27680 -3.27680
8.96 8.978320 0.0 78.933330 14.948670 0.0960 0.1020 1.0 40.0 200.0 7.076920 500.0 197.0 7.076920 1994.923080 890094.333330 153.0 41.0 840464261.561710 0.0 0.0 0.0 0.0 0.0 0.0 0.0 -3.27680 -3.27680 -3.27680 -3.27680 -3.27680 -3.27680
8.95 8.970180 0.0 78.966670 14.9460 0.0960 0.1020 1.0 40.0 200.0 6.769230 500.833330 197.0 6.769230 1995.538460 890095.666670 153.0 41.0 840466776.411130 0.0 0.0 0.0 0.0 0.0 0.0 0.0 -3.27680 -3.27680 -3.27680 -3.27680 -3.27680 -3.27680
8.94 8.962040 0.0 79.0 14.943330 0.0960 0.1020 1.0 40.0 200.0 6.461540 501.666670 197.0 6.461540 1996.153850 890097.0 153.0 41.0 840469291.260540 0.0 0.0 0.0 0.0 0.0 0.0 0.0 -3.27680 -3.27680 -3.27680 -3.27680 -3.27680 -3.27680
8.93 8.949440 0.0 79.050 14.940670 0.0960 0.1020 1.0 40.0 200.0 6.153850 502.50 197.0 6.153850 1996.769230 890098.333330 153.0 41.0 840471806.109960 0.0 0.0 0.0 0.0 0.0 0.0 0.0 -3.27680 -3.27680 -3.27680 -3.27680 -3.27680 -3.27680
8.92 8.936840 0.0 79.10 14.9380 0.0960 0.1020 1.0 40.0 200.0 5.846150 503.333330 197.0 5.846150 1997.384620 890099.666670 153.0 41.0 840474320.959370 0.0 0.0 0.0 0.0 0.0 0.0 0.0 -3.27680 -3.27680 -3.27680 -3.27680 -3.27680 -3.27680
8.91 8.928440 0.0 79.133330 14.935330 0.0960 0.1020 1.0 40.0 200.0 5.538460 504.166670 197.0 5.538460 1998.0 890101.0 153.0 41.0 840476835.808790 0.0 0.0 0.0 0.0 0.0 0.0 0.0 -3.27680 -3.27680 -3.27680 -3.27680 -3.27680 -3.27680
8.90 8.920040 0.0 79.166670 14.932670 0.0960 0.1020 1.0 40.0 200.0 5.230770 505.0 197.0 5.230770 1996.50 890102.769230 153.0 41.0 840480172.893530 0.0 0.0 0.0 0.0 0.0 0.0 0.0 -3.27680 -3.27680 -3.27680 -3.27680 -3.27680 -3.27680
8.89 8.911640 0.0 79.20 14.930 0.0960 0.1020 1.0 40.0 200.0 4.923080 505.833330 197.0 4.923080 1995.0 890104.538460 153.0 41.0 840483509.978270 0.0 0.0 0.0 0.0 0.0 0.0 0.0 -3.27680 -3.27680 -3.27680 -3.27680 -3.27680 -3.27680
8.88 8.899040 0.0 79.250 14.932670 0.0960 0.1020 1.0 40.0 200.0 4.615380 506.666670 197.0 4.615380 1993.50 890106.307690 153.0 41.0 840486847.063010 0.0 0.0 0.0 0.0 0.0 0.0 0.0 -3.27680 -3.27680 -3.27680 -3.27680 -3.27680 -3.27680
8.87 8.886430 0.0 79.30 14.935330 0.0960 0.1020 1.0 40.0 200.0 4.307690 507.50 197.0 4.307690 1992.0 890108.076920 153.0 41.0 840490184.147750 0.0 0.0 0.0 0.0 0.0 0.0 0.0 -3.27680 -3.27680 -3.27680 -3.27680 -3.27680 -3.27680
8.86 8.878030 0.0 79.333330 14.9380 0.0960 0.1020 1.0 40.0 200.0 4.0 508.333330 197.0 4.0 1990.50 890109.846150 153.0 41.0 840493521.232490 0.0 0.0 0.0 0.0 0.0 0.0 0.0 -3.27680 -3.27680 -3.27680 -3.27680 -3.27680 -3.27680
