~VERSION INFORMATION SECTION
VERS. 2.0 : CWLS LAS-VERSION 2.0
WRAP. NO : One line per depth step
~WELL INFORMATION SECTION
# MNEM.UNIT VALUE/NAME DESCRIPTION
#-------- -------------- ---------------------
STRT.Metres 19 : Start
STOP.Metres -2.05 : Stop
STEP.Metres -0.01 : Step
NULL.  -999.25 :NULL VALUE
DATE. 2026-03-09 : DATE
~CURVE INFORMATION SECTION
DEPTH.Metres : 0 Depth
Depth. : 1 Depth
Tension. : 2 Tension
Time. : 3 Time
Speed. : 4 Speed
Voltage. : 5 Voltage
Current. : 6 Current
WET. : 7 WET
Sig. : 8 Sig
Vth. : 9 Vth
GR.CPS : 10 GR
Timebase.ms : 11 Timebase
HeadVoltage.V : 12 Head Voltage
API.API : 13 API
Conductivity.uS : 14 Conductivity
PT100.Ohms : 15 PT100
Vmon.mV : 16 Vmon
Status. : 17 Status
Temperature.C : 18 Temperature
Incline.Deg : 19 Incline
Azimuth.Deg : 20 Azimuth
RelativeBearing.Deg : 21 Relative Bearing
MagneticToolFace.Deg : 22 Magnetic Tool Face
GravityMagnitude.G : 23 Gravity Magnitude
MagnetometerMagnitude.H : 24 Magnetometer Magnitude
Temperature.C : 25 Temperature
GX. : 26 GX
GY. : 27 GY
GZ. : 28 GZ
HX. : 29 HX
HY. : 30 HY
HZ. : 31 HZ
~PARAMETER INFORMATION SECTION
~OTHER
#-------------------------------------------------
#Produced By: GeoVista Logger - Version 7.1.107.0
Verticality Sonde - 9605
Temperature and Conductivity Sonde - Inline - 8974
Natural Gamma Sonde - 9931
WLIS - 10021
#-------------------------------------------------
~ASCII LOG DATA
# ...
6.92 6.92690 0.0 170.50 4.960 0.0960 0.1020 1.0 43.0 200.0 5.882350 500.0 197.0 5.882350 1788.0 890456.50 149.50 41.0 841147497.295280 0.0 0.0 0.0 0.0 0.0 0.0 0.0 -3.27680 -3.27680 -3.27680 -3.27680 -3.27680 -3.27680
6.91 6.918230 0.0 170.60 4.960 0.0960 0.1020 1.0 43.0 200.0 7.411760 500.0 197.0 7.411760 1783.0 890457.750 149.250 41.0 841149855.928250 0.0 0.0 0.0 0.0 0.0 0.0 0.0 -3.27680 -3.27680 -3.27680 -3.27680 -3.27680 -3.27680
6.90 6.905630 0.0 170.750 4.9680 0.0960 0.1020 1.0 43.0 200.0 8.941180 500.0 197.0 8.941180 1780.60 890459.0 149.0 41.0 841152214.561210 0.0 0.0 0.0 0.0 0.0 0.0 0.0 -3.27680 -3.27680 -3.27680 -3.27680 -3.27680 -3.27680
6.89 6.893030 0.0 170.90 4.9760 0.0960 0.1020 1.0 43.0 200.0 10.470590 500.0 197.0 10.470590 1778.20 890459.250 149.250 41.0 841152686.289390 0.0 0.0 0.0 0.0 0.0 0.0 0.0 -3.27680 -3.27680 -3.27680 -3.27680 -3.27680 -3.27680
6.88 6.885160 0.0 171.0 4.9840 0.0960 0.1020 1.0 42.750 200.0 12.0 500.0 197.0 12.0 1775.80 890459.50 149.50 41.0 841153158.017570 0.0 0.0 0.0 0.0 0.0 0.0 0.0 -3.27680 -3.27680 -3.27680 -3.27680 -3.27680 -3.27680
6.87 6.876490 0.0 171.10 4.9920 0.0960 0.1020 1.0 42.50 200.0 13.60 500.0 197.0 13.60 1773.40 890459.750 149.750 41.0 841153629.745750 0.0 0.0 0.0 0.0 0.0 0.0 0.0 -3.27680 -3.27680 -3.27680 -3.27680 -3.27680 -3.27680
6.86 6.868620 0.0 171.20 5.0 0.0960 0.1020 1.0 42.250 200.0 15.20 500.0 197.0 15.20 1771.0 890460.0 150.0 41.0 841154101.473930 0.0 0.0 0.0 0.0 0.0 0.0 0.0 -3.27680 -3.27680 -3.27680 -3.27680 -3.27680 -3.27680
6.85 6.856010 0.0 171.350 5.0 0.0960 0.1020 1.0 42.0 200.0 16.80 500.0 197.0 16.80 1771.750 890461.750 150.0 41.0 841157403.586010 0.0 0.0 0.0 0.0 0.0 0.0 0.0 -3.27680 -3.27680 -3.27680 -3.27680 -3.27680 -3.27680
6.84 6.843410 0.0 171.50 5.0 0.0960 0.1020 1.0 42.0 200.0 18.40 500.0 197.0 18.40 1772.50 890463.50 150.0 41.0 841160705.698090 0.0 0.0 0.0 0.0 0.0 0.0 0.0 -3.27680 -3.27680 -3.27680 -3.27680 -3.27680 -3.27680
6.83 6.834750 0.0 171.60 5.0 0.0960 0.1020 1.0 42.0 200.0 20.0 500.0 197.0 20.0 1773.250 890465.250 150.0 41.0 841164007.810170 0.0 0.0 0.0 0.0 0.0 0.0 0.0 -3.27680 -3.27680 -3.27680 -3.27680 -3.27680 -3.27680
6.82 6.826870 0.0 171.70 5.0 0.0960 0.1020 1.0 42.0 200.0 20.50 500.0 197.0 20.50 1774.0 890467.0 150.0 41.0 841167309.922250 0.0 0.0 0.0 0.0 0.0 0.0 0.0 -3.27680 -3.27680 -3.27680 -3.27680 -3.27680 -3.27680
6.81 6.818210 0.0 171.80 5.0 0.0960 0.1020 1.0 42.0 200.0 21.0 500.0 197.0 21.0 1778.50 890467.750 149.80 41.0 841168725.121070 0.0 0.0 0.0 0.0 0.0 0.0 0.0 -3.27680 -3.27680 -3.27680 -3.27680 -3.27680 -3.27680
6.80 6.805610 0.0 171.950 5.010 0.0960 0.1020 1.0 42.0 200.0 21.50 500.0 197.0 21.50 1783.0 890468.50 149.60 41.0 841170140.31990 0.0 0.0 0.0 0.0 0.0 0.0 0.0 -3.27680 -3.27680 -3.27680 -3.27680 -3.27680 -3.27680
6.79 6.793790 0.0 172.10 5.020 0.0960 0.1020 1.0 42.0 200.0 22.0 500.0 197.0 22.0 1787.50 890469.250 149.40 41.0 841171555.518730 0.0 0.0 0.0 0.0 0.0 0.0 0.0 -3.27680 -3.27680 -3.27680 -3.27680 -3.27680 -3.27680
6.78 6.785130 0.0 172.20 5.030 0.0960 0.1020 1.0 42.0 200.0 19.0 500.0 197.0 19.0 1792.0 890470.0 149.20 41.0 841172970.717550 0.0 0.0 0.0 0.0 0.0 0.0 0.0 -3.27680 -3.27680 -3.27680 -3.27680 -3.27680 -3.27680
6.77 6.777250 0.0 172.30 5.040 0.0960 0.10 1.0 42.0 200.0 16.0 500.0 197.0 16.0 1790.50 890470.20 149.0 41.0 841173348.104760 0.0 0.0 0.0 0.0 0.0 0.0 0.0 -3.27680 -3.27680 -3.27680 -3.27680 -3.27680 -3.27680
6.76 6.768590 0.0 172.40 5.050 0.0960 0.10 1.0 42.0 200.0 13.0 500.0 197.0 13.0 1789.0 890470.40 149.250 41.0 841173725.491960 0.0 0.0 0.0 0.0 0.0 0.0 0.0 -3.27680 -3.27680 -3.27680 -3.27680 -3.27680 -3.27680
6.75 6.755990 0.0 172.550 5.03750 0.0960 0.1020 1.0 41.750 200.0 10.0 500.0 197.0 10.0 1787.50 890470.60 149.50 41.0 841174102.879160 0.0 0.0 0.0 0.0 0.0 0.0 0.0 -3.27680 -3.27680 -3.27680 -3.27680 -3.27680 -3.27680
6.74 6.743390 0.0 172.70 5.0250 0.0960 0.1020 1.0 41.50 200.0 10.0 500.0 197.0 10.0 1786.0 890470.80 149.750 41.0 841174480.266360 0.0 0.0 0.0 0.0 0.0 0.0 0.0 -3.27680 -3.27680 -3.27680 -3.27680 -3.27680 -3.27680
6.73 6.735510 0.0 172.80 5.01250 0.0960 0.1020 1.0 41.250 200.0 10.0 500.0 197.0 10.0 1784.250 890471.0 150.0 41.0 841174857.653560 0.0 0.0 0.0 0.0 0.0 0.0 0.0 -3.27680 -3.27680 -3.27680 -3.27680 -3.27680 -3.27680
6.72 6.726850 0.0 172.90 5.0 0.0960 0.1020 1.0 41.0 200.0 10.0 500.0 197.0 10.0 1782.50 890471.750 149.750 41.0 841176272.858730 0.0 0.0 0.0 0.0 0.0 0.0 0.0 -3.27680 -3.27680 -3.27680 -3.27680 -3.27680 -3.27680
6.71 6.714640 0.0 173.050 5.0 0.0960 0.1020 1.0 41.250 200.0 10.0 500.0 197.0 10.0 1780.750 890472.50 149.50 41.0 841177688.063910 0.0 0.0 0.0 0.0 0.0 0.0 0.0 -3.27680 -3.27680 -3.27680 -3.27680 -3.27680 -3.27680
6.70 6.701650 0.0 173.20 5.0 0.0960 0.1020 1.0 41.50 200.0 10.0 500.0 197.0 10.0 1779.0 890473.250 149.250 41.0 841179103.269090 0.0 0.0 0.0 0.0 0.0 0.0 0.0 -3.27680 -3.27680 -3.27680 -3.27680 -3.27680 -3.27680
6.69 6.693770 0.0 173.30 5.0 0.0960 0.1020 1.0 41.750 200.0 10.0 500.0 197.0 10.0 1784.0 890474.0 149.0 41.0 841180518.474260 0.0 0.0 0.0 0.0 0.0 0.0 0.0 -3.27680 -3.27680 -3.27680 -3.27680 -3.27680 -3.27680
6.68 6.685110 0.0 173.40 5.0 0.0960 0.1020 1.0 42.0 200.0 10.0 500.0 197.0 10.0 1789.0 890475.750 149.250 41.0 841183820.638190 0.0 0.0 0.0 0.0 0.0 0.0 0.0 -3.27680 -3.27680 -3.27680 -3.27680 -3.27680 -3.27680
6.67 6.677230 0.0 173.50 5.0 0.0960 0.1020 1.0 42.0 200.0 10.0 500.0 197.0 10.0 1794.0 890477.50 149.50 41.0 841187122.802120 0.0 0.0 0.0 0.0 0.0 0.0 0.0 -3.27680 -3.27680 -3.27680 -3.27680 -3.27680 -3.27680
6.66 6.668570 0.0 173.60 5.0 0.0960 0.1020 1.0 42.0 200.0 10.50 500.0 197.0 10.50 1799.0 890479.250 149.750 41.0 841190424.966050 0.0 0.0 0.0 0.0 0.0 0.0 0.0 -3.27680 -3.27680 -3.27680 -3.27680 -3.27680 -3.27680
6.65 6.655970 0.0 173.750 4.990 0.0960 0.1020 1.0 42.0 200.0 11.0 500.0 197.0 11.0 1798.50 890481.0 150.0 41.0 841193727.129980 0.0 0.0 0.0 0.0 0.0 0.0 0.0 -3.27680 -3.27680 -3.27680 -3.27680 -3.27680 -3.27680
6.64 6.643360 0.0 173.90 4.980 0.0960 0.1020 1.0 42.0 200.0 11.50 500.0 197.0 11.50 1798.0 890482.250 149.750 41.0 841196085.834380 0.0 0.0 0.0 0.0 0.0 0.0 0.0 -3.27680 -3.27680 -3.27680 -3.27680 -3.27680 -3.27680
6.63 6.63470 0.0 174.0 4.970 0.0960 0.1020 1.0 42.0 200.0 12.0 500.0 197.0 12.0 1797.50 890483.50 149.50 41.0 841198444.538770 0.0 0.0 0.0 0.0 0.0 0.0 0.0 -3.27680 -3.27680 -3.27680 -3.27680 -3.27680 -3.27680
6.62 6.626820 0.0 174.10 4.960 0.0960 0.1020 1.0 42.0 200.0 13.0 500.0 197.0 13.0 1797.0 890484.750 149.250 41.0 841200803.243160 0.0 0.0 0.0 0.0 0.0 0.0 0.0 -3.27680 -3.27680 -3.27680 -3.27680 -3.27680 -3.27680
6.61 6.614620 0.0 174.250 4.960 0.0960 0.1020 1.0 42.0 200.0 14.0 500.0 197.0 14.0 1793.80 890486.0 149.0 41.0 841203161.947560 0.0 0.0 0.0 0.0 0.0 0.0 0.0 -3.27680 -3.27680 -3.27680 -3.27680 -3.27680 -3.27680
6.60 6.602410 0.0 174.40 4.960 0.0960 0.1020 1.0 42.0 200.0 15.0 500.0 197.0 15.0 1790.60 890486.0 149.0 41.0 841203161.947560 0.0 0.0 0.0 0.0 0.0 0.0 0.0 -3.27680 -3.27680 -3.27680 -3.27680 -3.27680 -3.27680
6.59 6.593750 0.0 174.50 4.960 0.0960 0.1020 1.0 42.250 200.0 16.0 502.50 197.0 16.0 1787.40 890486.0 149.0 41.0 841203161.947560 0.0 0.0 0.0 0.0 0.0 0.0 0.0 -3.27680 -3.27680 -3.27680 -3.27680 -3.27680 -3.27680
6.58 6.585870 0.0 174.60 4.960 0.0960 0.1020 1.0 42.50 200.0 18.40 505.0 197.0 18.40 1784.20 890486.0 149.0 41.0 841203161.947560 0.0 0.0 0.0 0.0 0.0 0.0 0.0 -3.27680 -3.27680 -3.27680 -3.27680 -3.27680 -3.27680
6.57 6.577210 0.0 174.70 4.960 0.0960 0.1020 1.0 42.750 200.0 20.80 507.50 197.0 20.80 1781.0 890486.0 149.0 41.0 841203161.947560 0.0 0.0 0.0 0.0 0.0 0.0 0.0 -3.27680 -3.27680 -3.27680 -3.27680 -3.27680 -3.27680
6.56 6.56460 0.0 174.850 4.960 0.0960 0.1020 1.0 43.0 200.0 23.20 510.0 197.0 23.20 1784.0 890487.0 149.20 41.0 841205048.92060 0.0 0.0 0.0 0.0 0.0 0.0 0.0 -3.27680 -3.27680 -3.27680 -3.27680 -3.27680 -3.27680
6.55 6.552790 0.0 175.0 4.960 0.0960 0.1020 1.0 42.750 200.0 25.60 507.50 197.0 25.60 1787.0 890488.0 149.40 41.0 841206935.893640 0.0 0.0 0.0 0.0 0.0 0.0 0.0 -3.27680 -3.27680 -3.27680 -3.27680 -3.27680 -3.27680
