~VERSION INFORMATION SECTION
VERS. 2.0 : CWLS LAS-VERSION 2.0
WRAP. NO : One line per depth step
~WELL INFORMATION SECTION
# MNEM.UNIT VALUE/NAME DESCRIPTION
#-------- -------------- ---------------------
STRT.Metres 26 : Start
STOP.Metres -2.05 : Stop
STEP.Metres -0.01 : Step
NULL.  -999.25 :NULL VALUE
DATE. 2026-40-09 : DATE
~CURVE INFORMATION SECTION
DEPTH.Metres : 0 Depth
Depth. : 1 Depth
Tension. : 2 Tension
Time. : 3 Time
Speed. : 4 Speed
Voltage. : 5 Voltage
Current. : 6 Current
WET. : 7 WET
Sig. : 8 Sig
Vth. : 9 Vth
GR.CPS : 10 GR
Timebase.ms : 11 Timebase
HeadVoltage.V : 12 Head Voltage
API.API : 13 API
Conductivity.uS : 14 Conductivity
PT100.Ohms : 15 PT100
Vmon.mV : 16 Vmon
Status. : 17 Status
Temperature.C : 18 Temperature
Incline.Deg : 19 Incline
Azimuth.Deg : 20 Azimuth
RelativeBearing.Deg : 21 Relative Bearing
MagneticToolFace.Deg : 22 Magnetic Tool Face
GravityMagnitude.G : 23 Gravity Magnitude
MagnetometerMagnitude.H : 24 Magnetometer Magnitude
Temperature.C : 25 Temperature
GX. : 26 GX
GY. : 27 GY
GZ. : 28 GZ
HX. : 29 HX
HY. : 30 HY
HZ. : 31 HZ
~PARAMETER INFORMATION SECTION
~OTHER
#-------------------------------------------------
#Produced By: GeoVista Logger - Version 7.1.107.0
Verticality Sonde - 9605
Temperature and Conductivity Sonde - Inline - 8974
Natural Gamma Sonde - 9931
WLIS - 10021
#-------------------------------------------------
~ASCII LOG DATA
# ...
4.33 4.346740 0.0 119.50 15.070 0.0960 0.1020 1.0 43.0 200.0 11.333330 500.0 197.0 11.333330 1761.0 890694.461540 155.666670 42.0 841596568.358970 0.0 0.0 0.0 0.0 0.0 0.0 0.0 -3.27680 -3.27680 -3.27680 -3.27680 -3.27680 -3.27680
4.32 4.33860 0.0 119.533330 15.060 0.0960 0.1020 1.0 43.0 200.0 11.166670 500.0 197.0 11.166670 1762.333330 890694.846150 155.583330 42.0 841597294.285110 0.0 0.0 0.0 0.0 0.0 0.0 0.0 -3.27680 -3.27680 -3.27680 -3.27680 -3.27680 -3.27680
4.31 4.330460 0.0 119.566670 15.050 0.0960 0.1020 1.0 43.0 200.0 11.0 500.0 197.0 11.0 1763.666670 890695.230770 155.50 42.0 841598020.211240 0.0 0.0 0.0 0.0 0.0 0.0 0.0 -3.27680 -3.27680 -3.27680 -3.27680 -3.27680 -3.27680
4.30 4.322320 0.0 119.60 15.040 0.0960 0.1020 1.0 43.0 200.0 10.833330 500.0 197.0 10.833330 1765.0 890695.615380 155.416670 42.0 841598746.137380 0.0 0.0 0.0 0.0 0.0 0.0 0.0 -3.27680 -3.27680 -3.27680 -3.27680 -3.27680 -3.27680
4.29 4.309720 0.0 119.650 15.030 0.0960 0.1020 1.0 43.0 200.0 10.666670 500.0 197.0 10.666670 1764.923080 890696.0 155.333330 42.0 841599472.063520 0.0 0.0 0.0 0.0 0.0 0.0 0.0 -3.27680 -3.27680 -3.27680 -3.27680 -3.27680 -3.27680
4.28 4.297120 0.0 119.70 15.020 0.0960 0.1020 1.0 43.0 200.0 10.50 500.0 197.0 10.50 1764.846150 890696.416670 155.250 42.0 841600258.487910 0.0 0.0 0.0 0.0 0.0 0.0 0.0 -3.27680 -3.27680 -3.27680 -3.27680 -3.27680 -3.27680
4.27 4.288720 0.0 119.733330 15.010 0.0960 0.1020 1.0 43.0 200.0 10.333330 500.0 197.0 10.333330 1764.769230 890696.833330 155.166670 42.0 841601044.912310 0.0 0.0 0.0 0.0 0.0 0.0 0.0 -3.27680 -3.27680 -3.27680 -3.27680 -3.27680 -3.27680
4.26 4.280320 0.0 119.766670 15.0 0.0960 0.1020 1.0 43.0 200.0 10.166670 500.0 197.0 10.166670 1764.692310 890697.250 155.083330 42.0 841601831.33670 0.0 0.0 0.0 0.0 0.0 0.0 0.0 -3.27680 -3.27680 -3.27680 -3.27680 -3.27680 -3.27680
4.25 4.271920 0.0 119.80 14.990 0.0960 0.1020 1.0 43.0 200.0 10.0 500.0 197.0 10.0 1764.615380 890697.666670 155.0 42.0 841602617.761090 0.0 0.0 0.0 0.0 0.0 0.0 0.0 -3.27680 -3.27680 -3.27680 -3.27680 -3.27680 -3.27680
4.24 4.259710 0.0 119.850 14.980 0.0960 0.1020 1.0 43.0 200.0 11.384620 500.0 197.0 11.384620 1764.538460 890698.083330 155.076920 42.0 841603404.185480 0.0 0.0 0.0 0.0 0.0 0.0 0.0 -3.27680 -3.27680 -3.27680 -3.27680 -3.27680 -3.27680
4.23 4.24750 0.0 119.90 14.970 0.0960 0.1020 1.0 43.0 200.0 12.769230 500.0 197.0 12.769230 1764.461540 890698.50 155.153850 42.0 841604190.609880 0.0 0.0 0.0 0.0 0.0 0.0 0.0 -3.27680 -3.27680 -3.27680 -3.27680 -3.27680 -3.27680
4.22 4.23910 0.0 119.933330 14.967330 0.0960 0.1020 1.0 43.0 200.0 14.153850 500.0 197.0 14.153850 1764.384620 890698.916670 155.230770 42.0 841604977.034270 0.0 0.0 0.0 0.0 0.0 0.0 0.0 -3.27680 -3.27680 -3.27680 -3.27680 -3.27680 -3.27680
4.21 4.23070 0.0 119.966670 14.964670 0.0960 0.1020 1.0 43.0 200.0 15.538460 500.0 197.0 15.538460 1764.307690 890699.333330 155.307690 42.0 841605763.458660 0.0 0.0 0.0 0.0 0.0 0.0 0.0 -3.27680 -3.27680 -3.27680 -3.27680 -3.27680 -3.27680
4.20 4.22230 0.0 120.0 14.9620 0.0960 0.1020 1.0 43.0 200.0 16.923080 500.0 197.0 16.923080 1764.230770 890699.750 155.384620 42.0 841606549.883050 0.0 0.0 0.0 0.0 0.0 0.0 0.0 -3.27680 -3.27680 -3.27680 -3.27680 -3.27680 -3.27680
4.19 4.20970 0.0 120.050 14.959330 0.0960 0.1020 1.0 43.0 200.0 18.307690 500.0 197.0 18.307690 1764.153850 890700.166670 155.461540 42.0 841607336.307440 0.0 0.0 0.0 0.0 0.0 0.0 0.0 -3.27680 -3.27680 -3.27680 -3.27680 -3.27680 -3.27680
4.18 4.197090 0.0 120.10 14.956670 0.0960 0.1020 1.0 43.0 200.0 19.692310 500.0 197.0 19.692310 1764.076920 890700.583330 155.538460 42.0 841608122.731840 0.0 0.0 0.0 0.0 0.0 0.0 0.0 -3.27680 -3.27680 -3.27680 -3.27680 -3.27680 -3.27680
4.17 4.188960 0.0 120.133330 14.9540 0.0960 0.1020 1.0 43.0 200.0 21.076920 500.0 197.0 21.076920 1764.0 890701.0 155.615380 42.0 841608909.156230 0.0 0.0 0.0 0.0 0.0 0.0 0.0 -3.27680 -3.27680 -3.27680 -3.27680 -3.27680 -3.27680
4.16 4.180820 0.0 120.166670 14.951330 0.0960 0.1020 1.0 43.0 200.0 22.461540 500.0 197.0 22.461540 1761.333330 890701.230770 155.692310 42.0 841609344.716310 0.0 0.0 0.0 0.0 0.0 0.0 0.0 -3.27680 -3.27680 -3.27680 -3.27680 -3.27680 -3.27680
4.15 4.172680 0.0 120.20 14.948670 0.0960 0.1020 1.0 43.0 200.0 23.846150 500.0 197.0 23.846150 1758.666670 890701.461540 155.769230 42.0 841609780.276390 0.0 0.0 0.0 0.0 0.0 0.0 0.0 -3.27680 -3.27680 -3.27680 -3.27680 -3.27680 -3.27680
4.14 4.160080 0.0 120.250 14.9460 0.0960 0.1020 1.0 43.0 200.0 25.230770 500.0 197.0 25.230770 1756.0 890701.692310 155.846150 42.0 841610215.836460 0.0 0.0 0.0 0.0 0.0 0.0 0.0 -3.27680 -3.27680 -3.27680 -3.27680 -3.27680 -3.27680
4.13 4.147480 0.0 120.30 14.943330 0.0960 0.1020 1.0 43.0 200.0 26.615380 500.0 197.0 26.615380 1753.333330 890701.923080 155.923080 42.0 841610651.396540 0.0 0.0 0.0 0.0 0.0 0.0 0.0 -3.27680 -3.27680 -3.27680 -3.27680 -3.27680 -3.27680
4.12 4.139070 0.0 120.333330 14.940670 0.0960 0.1020 1.0 43.0 200.0 28.0 500.0 197.0 28.0 1750.666670 890702.153850 156.0 42.0 841611086.956620 0.0 0.0 0.0 0.0 0.0 0.0 0.0 -3.27680 -3.27680 -3.27680 -3.27680 -3.27680 -3.27680
4.11 4.130670 0.0 120.366670 14.9380 0.0960 0.1020 1.0 43.0 200.0 27.0 500.0 197.0 27.0 1748.0 890702.384620 155.916670 42.0 841611522.51670 0.0 0.0 0.0 0.0 0.0 0.0 0.0 -3.27680 -3.27680 -3.27680 -3.27680 -3.27680 -3.27680
4.10 4.122270 0.0 120.40 14.935330 0.0960 0.1020 1.0 43.0 200.0 26.0 500.0 197.0 26.0 1745.333330 890702.615380 155.833330 42.0 841611958.076780 0.0 0.0 0.0 0.0 0.0 0.0 0.0 -3.27680 -3.27680 -3.27680 -3.27680 -3.27680 -3.27680
4.09 4.109670 0.0 120.450 14.932670 0.0960 0.1020 1.0 43.0 200.0 25.0 500.769230 197.0 25.0 1742.666670 890702.846150 155.750 42.0 841612393.636860 0.0 0.0 0.0 0.0 0.0 0.0 0.0 -3.27680 -3.27680 -3.27680 -3.27680 -3.27680 -3.27680
4.08 4.097070 0.0 120.50 14.930 0.0960 0.1020 1.0 43.0 200.0 24.0 501.538460 197.0 24.0 1740.0 890703.076920 155.666670 42.0 841612829.196940 0.0 0.0 0.0 0.0 0.0 0.0 0.0 -3.27680 -3.27680 -3.27680 -3.27680 -3.27680 -3.27680
4.07 4.088670 0.0 120.533330 14.939330 0.0960 0.1020 1.0 43.0 200.0 23.0 502.307690 197.0 23.0 1737.333330 890703.307690 155.583330 42.0 841613264.757010 0.0 0.0 0.0 0.0 0.0 0.0 0.0 -3.27680 -3.27680 -3.27680 -3.27680 -3.27680 -3.27680
4.06 4.080270 0.0 120.566670 14.948670 0.0960 0.1020 1.0 43.0 200.0 22.0 503.076920 197.0 22.0 1734.666670 890703.538460 155.50 42.0 841613700.317090 0.0 0.0 0.0 0.0 0.0 0.0 0.0 -3.27680 -3.27680 -3.27680 -3.27680 -3.27680 -3.27680
4.05 4.071870 0.0 120.60 14.9580 0.0960 0.1020 1.0 43.0 200.0 21.0 503.846150 197.0 21.0 1732.0 890703.769230 155.416670 42.0 841614135.877170 0.0 0.0 0.0 0.0 0.0 0.0 0.0 -3.27680 -3.27680 -3.27680 -3.27680 -3.27680 -3.27680
4.04 4.059260 0.0 120.650 14.967330 0.0960 0.1020 1.0 43.0 200.0 20.0 504.615380 197.0 20.0 1733.615380 890704.0 155.333330 42.0 841614571.437250 0.0 0.0 0.0 0.0 0.0 0.0 0.0 -3.27680 -3.27680 -3.27680 -3.27680 -3.27680 -3.27680
4.03 4.046660 0.0 120.70 14.976670 0.0960 0.1020 1.0 43.0 200.0 19.0 505.384620 197.0 19.0 1735.230770 890704.333330 155.250 42.0 841615200.582050 0.0 0.0 0.0 0.0 0.0 0.0 0.0 -3.27680 -3.27680 -3.27680 -3.27680 -3.27680 -3.27680
4.02 4.038520 0.0 120.733330 14.9860 0.0960 0.1020 1.0 43.0 200.0 18.0 506.153850 197.0 18.0 1736.846150 890704.666670 155.166670 42.0 841615829.726860 0.0 0.0 0.0 0.0 0.0 0.0 0.0 -3.27680 -3.27680 -3.27680 -3.27680 -3.27680 -3.27680
4.01 4.030390 0.0 120.766670 14.995330 0.0960 0.1020 1.0 43.0 200.0 17.0 506.923080 197.0 17.0 1738.461540 890705.0 155.083330 42.0 841616458.871660 0.0 0.0 0.0 0.0 0.0 0.0 0.0 -3.27680 -3.27680 -3.27680 -3.27680 -3.27680 -3.27680
4.00 4.022250 0.0 120.80 15.004670 0.0960 0.1020 1.0 43.0 200.0 16.0 507.692310 197.0 16.0 1740.076920 890705.333330 155.0 42.0 841617088.016470 0.0 0.0 0.0 0.0 0.0 0.0 0.0 -3.27680 -3.27680 -3.27680 -3.27680 -3.27680 -3.27680
3.99 4.009650 0.0 120.850 15.0140 0.0960 0.1020 1.0 43.0 200.0 17.333330 508.461540 197.0 17.333330 1741.692310 890705.666670 155.0 42.0 841617717.161270 0.0 0.0 0.0 0.0 0.0 0.0 0.0 -3.27680 -3.27680 -3.27680 -3.27680 -3.27680 -3.27680
