~VERSION INFORMATION SECTION
VERS. 2.0 : CWLS LAS-VERSION 2.0
WRAP. NO : One line per depth step
~WELL INFORMATION SECTION
# MNEM.UNIT VALUE/NAME DESCRIPTION
#-------- -------------- ---------------------
STRT.Metres 26 : Start
STOP.Metres -2.04 : Stop
STEP.Metres -0.01 : Step
NULL.  -999.25 :NULL VALUE
DATE. 2026-36-09 : DATE
~CURVE INFORMATION SECTION
DEPTH.Metres : 0 Depth
Depth. : 1 Depth
Tension. : 2 Tension
Time. : 3 Time
Speed. : 4 Speed
Voltage. : 5 Voltage
Current. : 6 Current
WET. : 7 WET
Sig. : 8 Sig
Vth. : 9 Vth
GR.CPS : 10 GR
Timebase.ms : 11 Timebase
HeadVoltage.V : 12 Head Voltage
API.API : 13 API
Conductivity.uS : 14 Conductivity
PT100.Ohms : 15 PT100
Vmon.mV : 16 Vmon
Status. : 17 Status
Temperature.C : 18 Temperature
Incline.Deg : 19 Incline
Azimuth.Deg : 20 Azimuth
RelativeBearing.Deg : 21 Relative Bearing
MagneticToolFace.Deg : 22 Magnetic Tool Face
GravityMagnitude.G : 23 Gravity Magnitude
MagnetometerMagnitude.H : 24 Magnetometer Magnitude
Temperature.C : 25 Temperature
GX. : 26 GX
GY. : 27 GY
GZ. : 28 GZ
HX. : 29 HX
HY. : 30 HY
HZ. : 31 HZ
~PARAMETER INFORMATION SECTION
~OTHER
#-------------------------------------------------
#Produced By: GeoVista Logger - Version 7.1.107.0
Verticality Sonde - 9605
Temperature and Conductivity Sonde - Inline - 8974
Natural Gamma Sonde - 9931
WLIS - 10021
#-------------------------------------------------
~ASCII LOG DATA
# ...
7.54 7.558810 0.0 106.533330 14.970 0.0960 0.1020 1.0 42.0 200.0 13.333330 500.0 197.0 13.333330 1869.0 890345.923080 160.0 43.0 840938862.017650 0.0 0.0 0.0 0.0 0.0 0.0 0.0 -3.27680 -3.27680 -3.27680 -3.27680 -3.27680 -3.27680
7.53 7.550410 0.0 106.566670 14.970 0.0960 0.1020 1.0 42.0 200.0 14.0 500.0 197.0 14.0 1866.50 890347.615380 160.0 43.0 840942054.826560 0.0 0.0 0.0 0.0 0.0 0.0 0.0 -3.27680 -3.27680 -3.27680 -3.27680 -3.27680 -3.27680
7.52 7.542010 0.0 106.60 14.970 0.0960 0.1020 1.0 42.0 200.0 14.666670 500.0 197.0 14.666670 1864.0 890349.307690 160.0 43.0 840945247.635480 0.0 0.0 0.0 0.0 0.0 0.0 0.0 -3.27680 -3.27680 -3.27680 -3.27680 -3.27680 -3.27680
7.51 7.529410 0.0 106.650 14.970 0.0960 0.1020 1.0 42.0 200.0 15.333330 500.0 197.0 15.333330 1866.166670 890351.0 160.0 43.0 840948440.444390 0.0 0.0 0.0 0.0 0.0 0.0 0.0 -3.27680 -3.27680 -3.27680 -3.27680 -3.27680 -3.27680
7.50 7.516810 0.0 106.70 14.970 0.0960 0.1020 1.0 42.0 200.0 16.0 500.0 197.0 16.0 1868.333330 890352.666670 160.0 43.0 840951584.951480 0.0 0.0 0.0 0.0 0.0 0.0 0.0 -3.27680 -3.27680 -3.27680 -3.27680 -3.27680 -3.27680
7.49 7.508670 0.0 106.733330 14.970 0.0960 0.1020 1.0 42.0 200.0 16.666670 500.0 197.0 16.666670 1870.50 890354.333330 160.0 43.0 840954729.458580 0.0 0.0 0.0 0.0 0.0 0.0 0.0 -3.27680 -3.27680 -3.27680 -3.27680 -3.27680 -3.27680
7.48 7.500530 0.0 106.766670 14.970 0.0960 0.1020 1.0 42.0 200.0 17.333330 500.0 197.0 17.333330 1872.666670 890356.0 160.0 43.0 840957873.965670 0.0 0.0 0.0 0.0 0.0 0.0 0.0 -3.27680 -3.27680 -3.27680 -3.27680 -3.27680 -3.27680
7.47 7.492390 0.0 106.80 14.970 0.0960 0.1020 1.0 42.0 200.0 18.0 500.0 197.0 18.0 1874.833330 890357.666670 160.0 43.0 840961018.472770 0.0 0.0 0.0 0.0 0.0 0.0 0.0 -3.27680 -3.27680 -3.27680 -3.27680 -3.27680 -3.27680
7.46 7.479790 0.0 106.850 14.970 0.0960 0.1020 1.0 42.0 200.0 17.230770 500.0 197.0 17.230770 1877.0 890359.333330 160.0 43.0 840964162.979860 0.0 0.0 0.0 0.0 0.0 0.0 0.0 -3.27680 -3.27680 -3.27680 -3.27680 -3.27680 -3.27680
7.45 7.467190 0.0 106.90 14.970 0.0960 0.1020 1.0 42.0 200.0 16.461540 500.0 197.0 16.461540 1879.166670 890361.0 160.0 43.0 840967307.486950 0.0 0.0 0.0 0.0 0.0 0.0 0.0 -3.27680 -3.27680 -3.27680 -3.27680 -3.27680 -3.27680
7.44 7.458790 0.0 106.933330 14.970 0.0960 0.1020 1.0 42.0 200.0 15.692310 500.0 197.0 15.692310 1881.333330 890362.666670 160.0 43.0 840970451.994050 0.0 0.0 0.0 0.0 0.0 0.0 0.0 -3.27680 -3.27680 -3.27680 -3.27680 -3.27680 -3.27680
7.43 7.450390 0.0 106.966670 14.970 0.0960 0.1020 1.0 42.0 200.0 14.923080 500.833330 197.0 14.923080 1883.50 890364.333330 160.0 43.0 840973596.501140 0.0 0.0 0.0 0.0 0.0 0.0 0.0 -3.27680 -3.27680 -3.27680 -3.27680 -3.27680 -3.27680
7.42 7.441990 0.0 107.0 14.970 0.0960 0.1020 1.0 42.0 200.0 14.153850 501.666670 197.0 14.153850 1885.666670 890366.0 160.0 43.0 840976741.008240 0.0 0.0 0.0 0.0 0.0 0.0 0.0 -3.27680 -3.27680 -3.27680 -3.27680 -3.27680 -3.27680
7.41 7.429380 0.0 107.050 14.973330 0.0960 0.1020 1.0 42.0 200.0 13.384620 502.50 197.0 13.384620 1887.833330 890367.666670 160.0 43.0 840979885.515330 0.0 0.0 0.0 0.0 0.0 0.0 0.0 -3.27680 -3.27680 -3.27680 -3.27680 -3.27680 -3.27680
7.40 7.416780 0.0 107.10 14.976670 0.0960 0.1020 1.0 42.0 200.0 12.615380 503.333330 197.0 12.615380 1890.0 890369.333330 160.0 43.0 840983030.022420 0.0 0.0 0.0 0.0 0.0 0.0 0.0 -3.27680 -3.27680 -3.27680 -3.27680 -3.27680 -3.27680
7.39 7.408640 0.0 107.133330 14.980 0.0960 0.1020 1.0 42.0 200.0 11.846150 504.166670 197.0 11.846150 1887.769230 890371.0 160.0 43.0 840986174.529520 0.0 0.0 0.0 0.0 0.0 0.0 0.0 -3.27680 -3.27680 -3.27680 -3.27680 -3.27680 -3.27680
7.38 7.400510 0.0 107.166670 14.983330 0.0960 0.1020 1.0 42.0 200.0 11.076920 505.0 197.0 11.076920 1885.538460 890372.666670 160.0 43.0 840989319.107160 0.0 0.0 0.0 0.0 0.0 0.0 0.0 -3.27680 -3.27680 -3.27680 -3.27680 -3.27680 -3.27680
7.37 7.392370 0.0 107.20 14.986670 0.0960 0.1020 1.0 42.0 200.0 10.307690 505.833330 197.0 10.307690 1883.307690 890374.333330 160.0 43.0 840992463.68480 0.0 0.0 0.0 0.0 0.0 0.0 0.0 -3.27680 -3.27680 -3.27680 -3.27680 -3.27680 -3.27680
7.36 7.379770 0.0 107.250 14.990 0.0960 0.1020 1.0 42.0 200.0 9.538460 506.666670 197.0 9.538460 1881.076920 890376.0 160.0 43.0 840995608.262440 0.0 0.0 0.0 0.0 0.0 0.0 0.0 -3.27680 -3.27680 -3.27680 -3.27680 -3.27680 -3.27680
7.35 7.367160 0.0 107.30 14.993330 0.0960 0.1020 1.0 42.0 200.0 8.769230 507.50 197.0 8.769230 1878.846150 890377.666670 160.0 43.0 840998752.840080 0.0 0.0 0.0 0.0 0.0 0.0 0.0 -3.27680 -3.27680 -3.27680 -3.27680 -3.27680 -3.27680
7.34 7.359030 0.0 107.333330 14.996670 0.0960 0.1020 1.0 42.0 200.0 8.0 508.333330 197.0 8.0 1876.615380 890379.333330 160.0 43.0 841001897.417720 0.0 0.0 0.0 0.0 0.0 0.0 0.0 -3.27680 -3.27680 -3.27680 -3.27680 -3.27680 -3.27680
7.33 7.350890 0.0 107.366670 15.0 0.0960 0.1020 1.0 42.0 200.0 7.986930 509.166670 197.0 7.986930 1874.384620 890381.0 160.0 43.0 841005041.995360 0.0 0.0 0.0 0.0 0.0 0.0 0.0 -3.27680 -3.27680 -3.27680 -3.27680 -3.27680 -3.27680
7.32 7.342750 0.0 107.40 15.003330 0.0960 0.1020 1.0 42.0 200.0 7.973860 510.0 197.0 7.973860 1872.153850 890382.666670 160.0 43.0 841008186.5730 0.0 0.0 0.0 0.0 0.0 0.0 0.0 -3.27680 -3.27680 -3.27680 -3.27680 -3.27680 -3.27680
7.31 7.330150 0.0 107.450 15.006670 0.0960 0.1020 1.0 42.0 200.0 7.960780 501.538460 197.0 7.960780 1869.923080 890384.333330 160.0 43.0 841011331.150640 0.0 0.0 0.0 0.0 0.0 0.0 0.0 -3.27680 -3.27680 -3.27680 -3.27680 -3.27680 -3.27680
7.30 7.317550 0.0 107.50 15.010 0.0960 0.1020 1.0 42.0 200.0 7.947710 493.076920 197.0 7.947710 1867.692310 890386.0 160.0 43.0 841014475.728280 0.0 0.0 0.0 0.0 0.0 0.0 0.0 -3.27680 -3.27680 -3.27680 -3.27680 -3.27680 -3.27680
7.29 7.308880 0.0 107.533330 15.013330 0.0960 0.1020 1.0 42.0 200.0 7.934640 484.615380 197.0 7.934640 1865.461540 890387.666670 160.0 43.0 841017620.305920 0.0 0.0 0.0 0.0 0.0 0.0 0.0 -3.27680 -3.27680 -3.27680 -3.27680 -3.27680 -3.27680
7.28 7.300220 0.0 107.566670 15.016670 0.0960 0.1020 1.0 42.0 200.0 7.921570 476.153850 197.0 7.921570 1863.230770 890389.333330 160.0 43.0 841020764.883560 0.0 0.0 0.0 0.0 0.0 0.0 0.0 -3.27680 -3.27680 -3.27680 -3.27680 -3.27680 -3.27680
7.27 7.291550 0.0 107.60 15.020 0.0960 0.1020 1.0 42.0 200.0 7.90850 467.692310 197.0 7.90850 1861.0 890391.0 160.0 43.0 841023909.461210 0.0 0.0 0.0 0.0 0.0 0.0 0.0 -3.27680 -3.27680 -3.27680 -3.27680 -3.27680 -3.27680
7.26 7.279350 0.0 107.650 15.020 0.0960 0.1020 1.0 42.0 200.0 7.895420 459.230770 197.0 7.895420 1861.384620 890392.769230 160.0 43.0 841027247.631820 0.0 0.0 0.0 0.0 0.0 0.0 0.0 -3.27680 -3.27680 -3.27680 -3.27680 -3.27680 -3.27680
7.25 7.267140 0.0 107.70 15.020 0.0960 0.1020 1.0 42.0 200.0 7.882350 450.769230 197.0 7.882350 1861.769230 890394.538460 160.0 43.0 841030585.802440 0.0 0.0 0.0 0.0 0.0 0.0 0.0 -3.27680 -3.27680 -3.27680 -3.27680 -3.27680 -3.27680
7.24 7.258740 0.0 107.733330 15.020 0.0960 0.1020 1.0 42.0 200.0 7.869280 442.307690 197.0 7.869280 1862.153850 890396.307690 160.0 43.0 841033923.973050 0.0 0.0 0.0 0.0 0.0 0.0 0.0 -3.27680 -3.27680 -3.27680 -3.27680 -3.27680 -3.27680
7.23 7.250340 0.0 107.766670 15.020 0.0960 0.1020 1.0 42.0 200.0 7.856210 433.846150 197.0 7.856210 1862.538460 890398.076920 160.0 43.0 841037262.143670 0.0 0.0 0.0 0.0 0.0 0.0 0.0 -3.27680 -3.27680 -3.27680 -3.27680 -3.27680 -3.27680
7.22 7.241940 0.0 107.80 15.020 0.0960 0.1020 1.0 42.0 200.0 7.843140 425.384620 197.0 7.843140 1862.923080 890399.846150 160.0 43.0 841040600.314280 0.0 0.0 0.0 0.0 0.0 0.0 0.0 -3.27680 -3.27680 -3.27680 -3.27680 -3.27680 -3.27680
7.21 7.229330 0.0 107.850 15.020 0.0960 0.1020 1.0 42.0 200.0 7.816740 416.923080 197.0 7.816740 1863.307690 890401.615380 160.076920 43.0 841043938.48490 0.0 0.0 0.0 0.0 0.0 0.0 0.0 -3.27680 -3.27680 -3.27680 -3.27680 -3.27680 -3.27680
7.20 7.216730 0.0 107.90 15.020 0.0960 0.1020 1.0 42.0 200.0 7.790350 408.461540 197.0 7.790350 1863.692310 890403.384620 160.153850 43.0 841047276.655510 0.0 0.0 0.0 0.0 0.0 0.0 0.0 -3.27680 -3.27680 -3.27680 -3.27680 -3.27680 -3.27680
