~VERSION INFORMATION SECTION
VERS. 2.0 : CWLS LAS-VERSION 2.0
WRAP. NO : One line per depth step
~WELL INFORMATION SECTION
# MNEM.UNIT VALUE/NAME DESCRIPTION
#-------- -------------- ---------------------
STRT.Metres 26 : Start
STOP.Metres -2.05 : Stop
STEP.Metres -0.01 : Step
NULL.  -999.25 :NULL VALUE
DATE. 2026-48-09 : DATE
~CURVE INFORMATION SECTION
DEPTH.Metres : 0 Depth
Depth. : 1 Depth
Tension. : 2 Tension
Time. : 3 Time
Speed. : 4 Speed
Voltage. : 5 Voltage
Current. : 6 Current
WET. : 7 WET
Sig. : 8 Sig
Vth. : 9 Vth
GR.CPS : 10 GR
Timebase.ms : 11 Timebase
HeadVoltage.V : 12 Head Voltage
API.API : 13 API
Conductivity.uS : 14 Conductivity
PT100.Ohms : 15 PT100
Vmon.mV : 16 Vmon
Status. : 17 Status
Temperature.C : 18 Temperature
Incline.Deg : 19 Incline
Azimuth.Deg : 20 Azimuth
RelativeBearing.Deg : 21 Relative Bearing
MagneticToolFace.Deg : 22 Magnetic Tool Face
GravityMagnitude.G : 23 Gravity Magnitude
MagnetometerMagnitude.H : 24 Magnetometer Magnitude
Temperature.C : 25 Temperature
GX. : 26 GX
GY. : 27 GY
GZ. : 28 GZ
HX. : 29 HX
HY. : 30 HY
HZ. : 31 HZ
~PARAMETER INFORMATION SECTION
~OTHER
#-------------------------------------------------
#Produced By: GeoVista Logger - Version 7.1.107.0
Verticality Sonde - 9605
Temperature and Conductivity Sonde - Inline - 8974
Natural Gamma Sonde - 9931
WLIS - 10021
#-------------------------------------------------
~ASCII LOG DATA
# ...
16.28 16.301380 0.0 49.633330 15.020 0.0960 0.1020 1.0 12.250 200.0 31.384620 500.0 197.0 31.384620 3926.230770 889391.0 147.0 41.0 839138199.91810 0.0 0.0 0.0 0.0 0.0 0.0 0.0 -3.27680 -3.27680 -3.27680 -3.27680 -3.27680 -3.27680
16.27 16.293240 0.0 49.666670 15.020 0.0960 0.1020 1.0 12.333330 200.0 32.307690 500.0 197.0 32.307690 3919.307690 889391.50 147.0 41.0 839139142.245890 0.0 0.0 0.0 0.0 0.0 0.0 0.0 -3.27680 -3.27680 -3.27680 -3.27680 -3.27680 -3.27680
16.26 16.28510 0.0 49.70 15.020 0.0960 0.1020 1.0 12.416670 200.0 33.230770 500.0 197.0 33.230770 3912.384620 889392.0 147.0 41.0 839140084.573680 0.0 0.0 0.0 0.0 0.0 0.0 0.0 -3.27680 -3.27680 -3.27680 -3.27680 -3.27680 -3.27680
16.25 16.27250 0.0 49.750 15.020 0.0960 0.1020 1.0 12.50 200.0 34.153850 500.0 197.0 34.153850 3905.461540 889392.50 147.0 41.0 839141026.901470 0.0 0.0 0.0 0.0 0.0 0.0 0.0 -3.27680 -3.27680 -3.27680 -3.27680 -3.27680 -3.27680
16.24 16.25990 0.0 49.80 15.020 0.0960 0.1020 1.0 12.583330 200.0 35.076920 500.0 197.0 35.076920 3898.538460 889393.0 147.0 41.0 839141969.229260 0.0 0.0 0.0 0.0 0.0 0.0 0.0 -3.27680 -3.27680 -3.27680 -3.27680 -3.27680 -3.27680
16.23 16.24730 0.0 49.850 15.0140 0.0960 0.1020 1.0 12.666670 200.0 36.0 500.0 197.0 36.0 3891.615380 889393.50 147.0 41.0 839142911.557050 0.0 0.0 0.0 0.0 0.0 0.0 0.0 -3.27680 -3.27680 -3.27680 -3.27680 -3.27680 -3.27680
16.22 16.23470 0.0 49.90 15.0080 0.0960 0.1020 1.0 12.750 200.0 34.833330 500.0 197.0 34.833330 3884.692310 889394.0 147.0 41.0 839143853.884840 0.0 0.0 0.0 0.0 0.0 0.0 0.0 -3.27680 -3.27680 -3.27680 -3.27680 -3.27680 -3.27680
16.21 16.226560 0.0 49.933330 15.0020 0.0960 0.1020 1.0 12.833330 200.0 33.666670 500.0 197.0 33.666670 3877.769230 889394.50 147.0 41.0 839144796.212630 0.0 0.0 0.0 0.0 0.0 0.0 0.0 -3.27680 -3.27680 -3.27680 -3.27680 -3.27680 -3.27680
16.20 16.218420 0.0 49.966670 14.9960 0.0960 0.1020 1.0 12.916670 200.0 32.50 500.833330 197.0 32.50 3870.846150 889395.0 147.0 41.0 839145738.540420 0.0 0.0 0.0 0.0 0.0 0.0 0.0 -3.27680 -3.27680 -3.27680 -3.27680 -3.27680 -3.27680
16.19 16.210280 0.0 50.0 14.990 0.0960 0.1020 1.0 13.0 200.0 31.333330 501.666670 197.0 31.333330 3863.923080 889395.50 147.0 41.0 839146680.868210 0.0 0.0 0.0 0.0 0.0 0.0 0.0 -3.27680 -3.27680 -3.27680 -3.27680 -3.27680 -3.27680
16.18 16.201880 0.0 50.033330 14.9840 0.0960 0.1020 1.0 13.230770 200.0 30.166670 502.50 197.0 30.166670 3857.0 889396.0 147.0 41.0 839147623.1960 0.0 0.0 0.0 0.0 0.0 0.0 0.0 -3.27680 -3.27680 -3.27680 -3.27680 -3.27680 -3.27680
16.17 16.193480 0.0 50.066670 14.9780 0.0960 0.1020 1.0 13.461540 200.0 29.0 503.333330 197.0 29.0 3849.866670 889396.923080 147.0 41.0 839149362.895660 0.0 0.0 0.0 0.0 0.0 0.0 0.0 -3.27680 -3.27680 -3.27680 -3.27680 -3.27680 -3.27680
16.16 16.185080 0.0 50.10 14.9720 0.0960 0.1020 1.0 13.692310 200.0 27.833330 504.166670 197.0 27.833330 3842.733330 889397.846150 147.0 41.0 839151102.595320 0.0 0.0 0.0 0.0 0.0 0.0 0.0 -3.27680 -3.27680 -3.27680 -3.27680 -3.27680 -3.27680
16.15 16.172480 0.0 50.150 14.9660 0.0960 0.1020 1.0 13.923080 200.0 26.666670 505.0 197.0 26.666670 3835.60 889398.769230 147.0 41.0 839152842.294970 0.0 0.0 0.0 0.0 0.0 0.0 0.0 -3.27680 -3.27680 -3.27680 -3.27680 -3.27680 -3.27680
16.14 16.159870 0.0 50.20 14.960 0.0960 0.1020 1.0 14.153850 200.0 25.50 505.833330 197.0 25.50 3828.466670 889399.692310 147.0 41.0 839154581.994630 0.0 0.0 0.0 0.0 0.0 0.0 0.0 -3.27680 -3.27680 -3.27680 -3.27680 -3.27680 -3.27680
16.13 16.151740 0.0 50.233330 14.9540 0.0960 0.1020 1.0 14.384620 200.0 24.333330 506.666670 197.0 24.333330 3821.333330 889400.615380 147.0 41.0 839156321.694290 0.0 0.0 0.0 0.0 0.0 0.0 0.0 -3.27680 -3.27680 -3.27680 -3.27680 -3.27680 -3.27680
16.12 16.14360 0.0 50.266670 14.9480 0.0960 0.1020 1.0 14.615380 200.0 23.166670 507.50 197.0 23.166670 3814.20 889401.538460 147.0 41.0 839158061.393950 0.0 0.0 0.0 0.0 0.0 0.0 0.0 -3.27680 -3.27680 -3.27680 -3.27680 -3.27680 -3.27680
16.11 16.135460 0.0 50.30 14.9420 0.0960 0.1020 1.0 14.846150 200.0 22.0 508.333330 197.0 22.0 3807.066670 889402.461540 147.0 41.0 839159801.09360 0.0 0.0 0.0 0.0 0.0 0.0 0.0 -3.27680 -3.27680 -3.27680 -3.27680 -3.27680 -3.27680
16.10 16.122460 0.0 50.350 14.9360 0.0960 0.1020 1.0 15.076920 200.0 21.147060 509.166670 197.0 21.147060 3799.933330 889403.384620 147.083330 41.0 839161540.793260 0.0 0.0 0.0 0.0 0.0 0.0 0.0 -3.27680 -3.27680 -3.27680 -3.27680 -3.27680 -3.27680
16.09 16.109470 0.0 50.40 14.930 0.0960 0.1020 1.0 15.307690 200.0 20.294120 510.0 197.0 20.294120 3792.80 889404.307690 147.166670 41.0 839163280.492920 0.0 0.0 0.0 0.0 0.0 0.0 0.0 -3.27680 -3.27680 -3.27680 -3.27680 -3.27680 -3.27680
16.08 16.101070 0.0 50.433330 14.939330 0.0960 0.1020 1.0 15.538460 200.0 19.441180 509.230770 197.0 19.441180 3785.666670 889405.230770 147.250 41.0 839165020.192580 0.0 0.0 0.0 0.0 0.0 0.0 0.0 -3.27680 -3.27680 -3.27680 -3.27680 -3.27680 -3.27680
16.07 16.092670 0.0 50.466670 14.948670 0.0960 0.1020 1.0 15.769230 200.0 18.588240 508.461540 197.0 18.588240 3778.533330 889406.153850 147.333330 41.0 839166759.892230 0.0 0.0 0.0 0.0 0.0 0.0 0.0 -3.27680 -3.27680 -3.27680 -3.27680 -3.27680 -3.27680
16.06 16.084270 0.0 50.50 14.9580 0.0960 0.1020 1.0 16.0 200.0 17.735290 507.692310 197.0 17.735290 3771.40 889407.076920 147.416670 41.0 839168499.591890 0.0 0.0 0.0 0.0 0.0 0.0 0.0 -3.27680 -3.27680 -3.27680 -3.27680 -3.27680 -3.27680
16.05 16.071660 0.0 50.550 14.967330 0.0960 0.1020 1.0 16.0 200.0 16.882350 506.923080 197.0 16.882350 3764.266670 889408.0 147.50 41.0 839170239.291550 0.0 0.0 0.0 0.0 0.0 0.0 0.0 -3.27680 -3.27680 -3.27680 -3.27680 -3.27680 -3.27680
16.04 16.059060 0.0 50.60 14.976670 0.0960 0.1020 1.0 16.0 200.0 16.029410 506.153850 197.0 16.029410 3757.133330 889408.466670 147.583330 41.0 839171118.815760 0.0 0.0 0.0 0.0 0.0 0.0 0.0 -3.27680 -3.27680 -3.27680 -3.27680 -3.27680 -3.27680
16.03 16.050660 0.0 50.633330 14.9860 0.0960 0.1020 1.0 16.0 200.0 15.176470 505.384620 197.0 15.176470 3750.0 889408.933330 147.666670 41.0 839171998.339970 0.0 0.0 0.0 0.0 0.0 0.0 0.0 -3.27680 -3.27680 -3.27680 -3.27680 -3.27680 -3.27680
16.02 16.042260 0.0 50.666670 14.995330 0.0960 0.1020 1.0 16.0 200.0 14.323530 504.615380 197.0 14.323530 3742.250 889409.40 147.750 41.0 839172877.864180 0.0 0.0 0.0 0.0 0.0 0.0 0.0 -3.27680 -3.27680 -3.27680 -3.27680 -3.27680 -3.27680
16.01 16.033860 0.0 50.70 15.004670 0.0960 0.1020 1.0 16.0 200.0 13.470590 503.846150 197.0 13.470590 3734.50 889409.866670 147.833330 41.0 839173757.388390 0.0 0.0 0.0 0.0 0.0 0.0 0.0 -3.27680 -3.27680 -3.27680 -3.27680 -3.27680 -3.27680
16.00 16.021260 0.0 50.750 15.0140 0.0960 0.1020 1.0 16.0 200.0 12.617650 503.076920 197.0 12.617650 3726.750 889410.333330 147.916670 41.0 839174636.91260 0.0 0.0 0.0 0.0 0.0 0.0 0.0 -3.27680 -3.27680 -3.27680 -3.27680 -3.27680 -3.27680
15.99 16.008660 0.0 50.80 15.023330 0.0960 0.1020 1.0 16.0 200.0 11.764710 502.307690 197.0 11.764710 3719.0 889410.80 148.0 41.0 839175516.43680 0.0 0.0 0.0 0.0 0.0 0.0 0.0 -3.27680 -3.27680 -3.27680 -3.27680 -3.27680 -3.27680
15.98 16.000250 0.0 50.833330 15.032670 0.0960 0.101330 1.0 16.0 200.0 11.936650 501.538460 197.0 11.936650 3711.250 889411.266670 148.0 41.0 839176395.961010 0.0 0.0 0.0 0.0 0.0 0.0 0.0 -3.27680 -3.27680 -3.27680 -3.27680 -3.27680 -3.27680
15.97 15.991850 0.0 50.866670 15.0420 0.0960 0.100670 1.0 16.0 200.0 12.10860 500.769230 197.0 12.10860 3703.50 889411.733330 148.0 41.0 839177275.485220 0.0 0.0 0.0 0.0 0.0 0.0 0.0 -3.27680 -3.27680 -3.27680 -3.27680 -3.27680 -3.27680
15.96 15.983450 0.0 50.90 15.051330 0.0960 0.10 1.0 16.0 200.0 12.280540 500.0 197.0 12.280540 3695.750 889412.20 148.0 41.0 839178155.009430 0.0 0.0 0.0 0.0 0.0 0.0 0.0 -3.27680 -3.27680 -3.27680 -3.27680 -3.27680 -3.27680
15.95 15.971250 0.0 50.950 15.060670 0.0960 0.1010 1.0 16.0 200.0 12.452490 466.666670 197.0 12.452490 3688.0 889412.666670 148.0 41.0 839179034.533640 0.0 0.0 0.0 0.0 0.0 0.0 0.0 -3.27680 -3.27680 -3.27680 -3.27680 -3.27680 -3.27680
15.94 15.959040 0.0 51.0 15.070 0.0960 0.1020 1.0 16.0 200.0 12.624430 433.333330 197.0 12.624430 3680.250 889413.133330 148.0 41.0 839179914.057850 0.0 0.0 0.0 0.0 0.0 0.0 0.0 -3.27680 -3.27680 -3.27680 -3.27680 -3.27680 -3.27680
