~VERSION INFORMATION SECTION
VERS. 2.0 : CWLS LAS-VERSION 2.0
WRAP. NO : One line per depth step
~WELL INFORMATION SECTION
# MNEM.UNIT VALUE/NAME DESCRIPTION
#-------- -------------- ---------------------
STRT.Metres 19 : Start
STOP.Metres -2.05 : Stop
STEP.Metres -0.01 : Step
NULL.  -999.25 :NULL VALUE
DATE. 2026-03-09 : DATE
~CURVE INFORMATION SECTION
DEPTH.Metres : 0 Depth
Depth. : 1 Depth
Tension. : 2 Tension
Time. : 3 Time
Speed. : 4 Speed
Voltage. : 5 Voltage
Current. : 6 Current
WET. : 7 WET
Sig. : 8 Sig
Vth. : 9 Vth
GR.CPS : 10 GR
Timebase.ms : 11 Timebase
HeadVoltage.V : 12 Head Voltage
API.API : 13 API
Conductivity.uS : 14 Conductivity
PT100.Ohms : 15 PT100
Vmon.mV : 16 Vmon
Status. : 17 Status
Temperature.C : 18 Temperature
Incline.Deg : 19 Incline
Azimuth.Deg : 20 Azimuth
RelativeBearing.Deg : 21 Relative Bearing
MagneticToolFace.Deg : 22 Magnetic Tool Face
GravityMagnitude.G : 23 Gravity Magnitude
MagnetometerMagnitude.H : 24 Magnetometer Magnitude
Temperature.C : 25 Temperature
GX. : 26 GX
GY. : 27 GY
GZ. : 28 GZ
HX. : 29 HX
HY. : 30 HY
HZ. : 31 HZ
~PARAMETER INFORMATION SECTION
~OTHER
#-------------------------------------------------
#Produced By: GeoVista Logger - Version 7.1.107.0
Verticality Sonde - 9605
Temperature and Conductivity Sonde - Inline - 8974
Natural Gamma Sonde - 9931
WLIS - 10021
#-------------------------------------------------
~ASCII LOG DATA
# ...
10.73 10.73650 0.0 124.70 5.0140 0.0960 0.1020 1.0 38.0 200.0 3.952940 500.0 197.0 3.952940 2052.0 889914.0 149.0 41.0 840124162.016410 0.0 0.0 0.0 0.0 0.0 0.0 0.0 -3.27680 -3.27680 -3.27680 -3.27680 -3.27680 -3.27680
10.72 10.728620 0.0 124.80 5.0320 0.0960 0.1020 1.0 38.0 200.0 3.968630 500.0 197.0 3.968630 2050.750 889914.0 149.0 41.0 840124162.016410 0.0 0.0 0.0 0.0 0.0 0.0 0.0 -3.27680 -3.27680 -3.27680 -3.27680 -3.27680 -3.27680
10.71 10.716020 0.0 124.950 5.050 0.0960 0.1020 1.0 38.0 200.0 3.984310 500.0 197.0 3.984310 2049.50 889914.0 149.0 41.0 840124162.016410 0.0 0.0 0.0 0.0 0.0 0.0 0.0 -3.27680 -3.27680 -3.27680 -3.27680 -3.27680 -3.27680
10.70 10.703420 0.0 125.10 5.0320 0.0960 0.1020 1.0 38.0 200.0 4.0 500.0 197.0 4.0 2048.250 889914.0 149.0 41.0 840124162.016410 0.0 0.0 0.0 0.0 0.0 0.0 0.0 -3.27680 -3.27680 -3.27680 -3.27680 -3.27680 -3.27680
10.69 10.694750 0.0 125.20 5.0140 0.0960 0.1020 1.0 38.0 200.0 6.0 500.0 197.0 6.0 2047.0 889914.0 149.0 41.0 840124162.016410 0.0 0.0 0.0 0.0 0.0 0.0 0.0 -3.27680 -3.27680 -3.27680 -3.27680 -3.27680 -3.27680
10.68 10.686880 0.0 125.30 4.9960 0.0960 0.1020 1.0 38.0 200.0 8.0 500.0 197.0 8.0 2039.250 889914.750 149.0 41.0 840125576.337460 0.0 0.0 0.0 0.0 0.0 0.0 0.0 -3.27680 -3.27680 -3.27680 -3.27680 -3.27680 -3.27680
10.67 10.674280 0.0 125.450 4.9780 0.0960 0.1020 1.0 38.0 200.0 10.0 500.0 197.0 10.0 2031.50 889915.50 149.0 41.0 840126990.658510 0.0 0.0 0.0 0.0 0.0 0.0 0.0 -3.27680 -3.27680 -3.27680 -3.27680 -3.27680 -3.27680
10.66 10.661670 0.0 125.60 4.960 0.0960 0.1040 1.0 38.0 200.0 12.0 500.0 197.0 12.0 2023.750 889916.250 149.0 41.0 840128404.979560 0.0 0.0 0.0 0.0 0.0 0.0 0.0 -3.27680 -3.27680 -3.27680 -3.27680 -3.27680 -3.27680
10.65 10.65380 0.0 125.70 4.960 0.0960 0.1020 1.0 38.0 200.0 11.0 500.0 197.0 11.0 2016.0 889917.0 149.0 41.0 840129819.300610 0.0 0.0 0.0 0.0 0.0 0.0 0.0 -3.27680 -3.27680 -3.27680 -3.27680 -3.27680 -3.27680
10.64 10.645130 0.0 125.80 4.960 0.0960 0.1020 1.0 38.0 200.0 10.0 500.0 197.0 10.0 2014.0 889918.20 149.0 41.0 840132082.225720 0.0 0.0 0.0 0.0 0.0 0.0 0.0 -3.27680 -3.27680 -3.27680 -3.27680 -3.27680 -3.27680
10.63 10.637260 0.0 125.90 4.960 0.0960 0.1020 1.0 38.0 200.0 9.0 500.0 197.0 9.0 2012.0 889919.40 149.0 41.0 840134345.150820 0.0 0.0 0.0 0.0 0.0 0.0 0.0 -3.27680 -3.27680 -3.27680 -3.27680 -3.27680 -3.27680
10.62 10.624660 0.0 126.050 4.960 0.0960 0.1020 1.0 38.250 200.0 8.0 500.0 197.0 8.0 2010.0 889920.60 149.0 41.0 840136608.075930 0.0 0.0 0.0 0.0 0.0 0.0 0.0 -3.27680 -3.27680 -3.27680 -3.27680 -3.27680 -3.27680
10.61 10.612060 0.0 126.20 4.960 0.0960 0.1020 1.0 38.50 200.0 8.0 500.0 197.0 8.0 2008.0 889921.80 149.0 41.0 840138871.001040 0.0 0.0 0.0 0.0 0.0 0.0 0.0 -3.27680 -3.27680 -3.27680 -3.27680 -3.27680 -3.27680
10.60 10.604180 0.0 126.30 4.9680 0.0960 0.1020 1.0 38.750 200.0 8.0 500.0 197.0 8.0 2009.750 889923.0 149.0 41.0 840141133.926150 0.0 0.0 0.0 0.0 0.0 0.0 0.0 -3.27680 -3.27680 -3.27680 -3.27680 -3.27680 -3.27680
10.59 10.595520 0.0 126.40 4.9760 0.0960 0.1020 1.0 39.0 200.0 8.0 500.0 197.0 8.0 2011.50 889923.50 149.0 41.0 840142076.815850 0.0 0.0 0.0 0.0 0.0 0.0 0.0 -3.27680 -3.27680 -3.27680 -3.27680 -3.27680 -3.27680
10.58 10.587640 0.0 126.50 4.9840 0.0960 0.1020 1.0 38.750 200.0 8.0 500.0 197.0 8.0 2013.250 889924.0 149.0 41.0 840143019.705540 0.0 0.0 0.0 0.0 0.0 0.0 0.0 -3.27680 -3.27680 -3.27680 -3.27680 -3.27680 -3.27680
10.57 10.575040 0.0 126.650 4.9920 0.0960 0.1020 1.0 38.50 200.0 7.50 500.0 197.0 7.50 2015.0 889924.50 149.0 41.0 840143962.595230 0.0 0.0 0.0 0.0 0.0 0.0 0.0 -3.27680 -3.27680 -3.27680 -3.27680 -3.27680 -3.27680
10.56 10.562440 0.0 126.80 5.0 0.0960 0.1020 1.0 38.250 200.0 7.0 500.0 197.0 7.0 2013.50 889925.0 149.0 41.0 840144905.484930 0.0 0.0 0.0 0.0 0.0 0.0 0.0 -3.27680 -3.27680 -3.27680 -3.27680 -3.27680 -3.27680
10.55 10.553770 0.0 126.90 4.9920 0.0960 0.1020 1.0 38.0 200.0 6.50 500.0 197.0 6.50 2012.0 889926.250 148.750 41.0 840147262.718430 0.0 0.0 0.0 0.0 0.0 0.0 0.0 -3.27680 -3.27680 -3.27680 -3.27680 -3.27680 -3.27680
10.54 10.54590 0.0 127.0 4.9840 0.0960 0.1020 1.0 38.0 200.0 6.0 500.0 197.0 6.0 2010.50 889927.50 148.50 41.0 840149619.951920 0.0 0.0 0.0 0.0 0.0 0.0 0.0 -3.27680 -3.27680 -3.27680 -3.27680 -3.27680 -3.27680
10.53 10.537230 0.0 127.10 4.9760 0.0960 0.1020 1.0 38.0 200.0 9.0 500.0 197.0 9.0 2009.0 889928.750 148.250 41.0 840151977.185420 0.0 0.0 0.0 0.0 0.0 0.0 0.0 -3.27680 -3.27680 -3.27680 -3.27680 -3.27680 -3.27680
10.52 10.525030 0.0 127.250 4.9680 0.0960 0.1020 1.0 38.0 200.0 12.0 500.0 197.0 12.0 2005.0 889930.0 148.0 41.0 840154334.418910 0.0 0.0 0.0 0.0 0.0 0.0 0.0 -3.27680 -3.27680 -3.27680 -3.27680 -3.27680 -3.27680
10.51 10.512820 0.0 127.40 4.960 0.0960 0.1020 1.0 38.0 200.0 15.0 500.0 197.0 15.0 2001.0 889931.0 148.250 41.0 840156220.215240 0.0 0.0 0.0 0.0 0.0 0.0 0.0 -3.27680 -3.27680 -3.27680 -3.27680 -3.27680 -3.27680
10.50 10.504150 0.0 127.50 4.960 0.0960 0.1020 1.0 37.750 200.0 18.0 500.0 197.0 18.0 1997.0 889932.0 148.50 41.0 840158106.011560 0.0 0.0 0.0 0.0 0.0 0.0 0.0 -3.27680 -3.27680 -3.27680 -3.27680 -3.27680 -3.27680
10.49 10.496280 0.0 127.60 4.960 0.0960 0.1020 1.0 37.50 200.0 16.80 500.0 197.0 16.80 1993.0 889933.0 148.750 41.0 840159991.807880 0.0 0.0 0.0 0.0 0.0 0.0 0.0 -3.27680 -3.27680 -3.27680 -3.27680 -3.27680 -3.27680
10.48 10.487620 0.0 127.70 4.960 0.0960 0.1020 1.0 37.250 200.0 15.60 500.0 197.0 15.60 1996.40 889934.0 149.0 41.0 840161877.60420 0.0 0.0 0.0 0.0 0.0 0.0 0.0 -3.27680 -3.27680 -3.27680 -3.27680 -3.27680 -3.27680
10.47 10.475410 0.0 127.850 4.960 0.0960 0.1010 1.0 37.0 200.0 14.40 500.0 197.0 14.40 1999.80 889936.0 149.0 41.0 840165649.222240 0.0 0.0 0.0 0.0 0.0 0.0 0.0 -3.27680 -3.27680 -3.27680 -3.27680 -3.27680 -3.27680
10.46 10.46320 0.0 128.0 4.960 0.0960 0.1020 1.0 37.250 200.0 13.20 500.0 197.0 13.20 2003.20 889938.0 149.0 41.0 840169420.840270 0.0 0.0 0.0 0.0 0.0 0.0 0.0 -3.27680 -3.27680 -3.27680 -3.27680 -3.27680 -3.27680
10.45 10.454540 0.0 128.10 4.950 0.0960 0.1020 1.0 37.50 200.0 12.0 500.0 197.0 12.0 2006.60 889940.0 149.0 41.0 840173192.458310 0.0 0.0 0.0 0.0 0.0 0.0 0.0 -3.27680 -3.27680 -3.27680 -3.27680 -3.27680 -3.27680
10.44 10.446660 0.0 128.20 4.940 0.0960 0.1020 1.0 37.750 200.0 13.0 500.0 197.0 13.0 2010.0 889942.0 149.0 41.0 840176964.076350 0.0 0.0 0.0 0.0 0.0 0.0 0.0 -3.27680 -3.27680 -3.27680 -3.27680 -3.27680 -3.27680
10.43 10.4380 0.0 128.30 4.930 0.0960 0.1020 1.0 38.0 200.0 14.0 500.0 197.0 14.0 2008.50 889942.750 149.0 41.0 840178378.441850 0.0 0.0 0.0 0.0 0.0 0.0 0.0 -3.27680 -3.27680 -3.27680 -3.27680 -3.27680 -3.27680
10.42 10.4250 0.0 128.450 4.920 0.0960 0.1020 1.0 38.20 200.0 15.0 500.0 197.0 15.0 2007.0 889943.50 149.0 41.0 840179792.807340 0.0 0.0 0.0 0.0 0.0 0.0 0.0 -3.27680 -3.27680 -3.27680 -3.27680 -3.27680 -3.27680
10.41 10.412790 0.0 128.60 4.910 0.0960 0.10 1.0 38.40 200.0 16.0 500.0 197.0 16.0 2005.50 889944.250 149.0 41.0 840181207.172830 0.0 0.0 0.0 0.0 0.0 0.0 0.0 -3.27680 -3.27680 -3.27680 -3.27680 -3.27680 -3.27680
10.40 10.404130 0.0 128.70 4.9280 0.0960 0.1020 1.0 38.60 200.0 17.50 500.0 197.0 17.50 2004.0 889945.0 149.0 41.0 840182621.538330 0.0 0.0 0.0 0.0 0.0 0.0 0.0 -3.27680 -3.27680 -3.27680 -3.27680 -3.27680 -3.27680
10.39 10.396250 0.0 128.80 4.9460 0.0960 0.1020 1.0 38.80 200.0 19.0 500.0 197.0 19.0 2007.50 889946.50 149.0 41.0 840185450.28360 0.0 0.0 0.0 0.0 0.0 0.0 0.0 -3.27680 -3.27680 -3.27680 -3.27680 -3.27680 -3.27680
10.38 10.387590 0.0 128.90 4.9640 0.0960 0.1020 1.0 39.0 200.0 20.50 502.50 197.0 20.50 2011.0 889948.0 149.0 41.0 840188279.028880 0.0 0.0 0.0 0.0 0.0 0.0 0.0 -3.27680 -3.27680 -3.27680 -3.27680 -3.27680 -3.27680
10.37 10.375380 0.0 129.050 4.9820 0.0960 0.1020 1.0 39.0 200.0 22.0 505.0 197.0 22.0 2014.50 889949.50 149.0 41.0 840191107.774150 0.0 0.0 0.0 0.0 0.0 0.0 0.0 -3.27680 -3.27680 -3.27680 -3.27680 -3.27680 -3.27680
10.36 10.363180 0.0 129.20 5.0 0.0960 0.1020 1.0 39.0 200.0 20.50 507.50 197.0 20.50 2018.0 889951.0 149.0 41.0 840193936.519430 0.0 0.0 0.0 0.0 0.0 0.0 0.0 -3.27680 -3.27680 -3.27680 -3.27680 -3.27680 -3.27680
