~VERSION INFORMATION SECTION
VERS. 2.0 : CWLS LAS-VERSION 2.0
WRAP. NO : One line per depth step
~WELL INFORMATION SECTION
# MNEM.UNIT VALUE/NAME DESCRIPTION
#-------- -------------- ---------------------
STRT.Metres 26 : Start
STOP.Metres -2.05 : Stop
STEP.Metres -0.01 : Step
NULL.  -999.25 :NULL VALUE
DATE. 2026-29-09 : DATE
~CURVE INFORMATION SECTION
DEPTH.Metres : 0 Depth
Depth. : 1 Depth
Tension. : 2 Tension
Time. : 3 Time
Speed. : 4 Speed
Voltage. : 5 Voltage
Current. : 6 Current
WET. : 7 WET
Sig. : 8 Sig
Vth. : 9 Vth
GR.CPS : 10 GR
Timebase.ms : 11 Timebase
HeadVoltage.V : 12 Head Voltage
API.API : 13 API
Conductivity.uS : 14 Conductivity
PT100.Ohms : 15 PT100
Vmon.mV : 16 Vmon
Status. : 17 Status
Temperature.C : 18 Temperature
Incline.Deg : 19 Incline
Azimuth.Deg : 20 Azimuth
RelativeBearing.Deg : 21 Relative Bearing
MagneticToolFace.Deg : 22 Magnetic Tool Face
GravityMagnitude.G : 23 Gravity Magnitude
MagnetometerMagnitude.H : 24 Magnetometer Magnitude
Temperature.C : 25 Temperature
GX. : 26 GX
GY. : 27 GY
GZ. : 28 GZ
HX. : 29 HX
HY. : 30 HY
HZ. : 31 HZ
~PARAMETER INFORMATION SECTION
~OTHER
#-------------------------------------------------
#Produced By: GeoVista Logger - Version 7.1.107.0
Verticality Sonde - 9605
Temperature and Conductivity Sonde - Inline - 8974
Natural Gamma Sonde - 9931
WLIS - 10021
#-------------------------------------------------
~ASCII LOG DATA
# ...
21.23 21.250890 0.0 117.850 14.9460 0.0960 0.1020 1.0 0.50 200.0 16.0 500.0 197.0 16.0 17380.250 889057.230770 141.846150 43.0 838509279.167660 0.0 0.0 0.0 0.0 0.0 0.0 0.0 -3.27680 -3.27680 -3.27680 -3.27680 -3.27680 -3.27680
21.22 21.238290 0.0 117.90 14.943330 0.0960 0.1020 1.0 0.416670 200.0 16.0 500.0 197.0 16.0 17363.333330 889057.307690 141.923080 43.0 838509424.086550 0.0 0.0 0.0 0.0 0.0 0.0 0.0 -3.27680 -3.27680 -3.27680 -3.27680 -3.27680 -3.27680
21.21 21.230150 0.0 117.933330 14.940670 0.0960 0.1020 1.0 0.333330 200.0 16.0 500.0 197.0 16.0 17346.416670 889057.384620 142.0 43.0 838509569.005430 0.0 0.0 0.0 0.0 0.0 0.0 0.0 -3.27680 -3.27680 -3.27680 -3.27680 -3.27680 -3.27680
21.20 21.222010 0.0 117.966670 14.9380 0.0960 0.1020 1.0 0.250 200.0 16.166670 500.0 197.0 16.166670 17329.50 889057.461540 142.0 43.0 838509713.924320 0.0 0.0 0.0 0.0 0.0 0.0 0.0 -3.27680 -3.27680 -3.27680 -3.27680 -3.27680 -3.27680
21.19 21.213870 0.0 118.0 14.935330 0.0960 0.1020 1.0 0.166670 200.0 16.333330 500.0 197.0 16.333330 17312.583330 889057.538460 142.0 43.0 838509858.843210 0.0 0.0 0.0 0.0 0.0 0.0 0.0 -3.27680 -3.27680 -3.27680 -3.27680 -3.27680 -3.27680
21.18 21.200880 0.0 118.050 14.932670 0.0960 0.1020 1.0 0.083330 200.0 16.50 500.0 197.0 16.50 17295.666670 889057.615380 142.0 43.0 838510003.762090 0.0 0.0 0.0 0.0 0.0 0.0 0.0 -3.27680 -3.27680 -3.27680 -3.27680 -3.27680 -3.27680
21.17 21.187880 0.0 118.10 14.930 0.0960 0.1020 1.0 0.0 200.0 16.666670 500.0 197.0 16.666670 17278.750 889057.692310 142.0 43.0 838510148.680980 0.0 0.0 0.0 0.0 0.0 0.0 0.0 -3.27680 -3.27680 -3.27680 -3.27680 -3.27680 -3.27680
21.16 21.179220 0.0 118.133330 14.939330 0.0960 0.1020 1.0 0.0 200.0 16.833330 500.0 197.0 16.833330 17261.833330 889057.769230 142.0 43.0 838510293.599870 0.0 0.0 0.0 0.0 0.0 0.0 0.0 -3.27680 -3.27680 -3.27680 -3.27680 -3.27680 -3.27680
21.15 21.170550 0.0 118.166670 14.948670 0.0960 0.1020 1.0 0.0 200.0 17.0 500.0 197.0 17.0 17244.916670 889057.846150 142.0 43.0 838510438.518750 0.0 0.0 0.0 0.0 0.0 0.0 0.0 -3.27680 -3.27680 -3.27680 -3.27680 -3.27680 -3.27680
21.14 21.161890 0.0 118.20 14.9580 0.0960 0.1020 1.0 0.0 200.0 17.166670 500.0 197.0 17.166670 17228.0 889057.923080 142.0 43.0 838510583.437640 0.0 0.0 0.0 0.0 0.0 0.0 0.0 -3.27680 -3.27680 -3.27680 -3.27680 -3.27680 -3.27680
21.13 21.149680 0.0 118.250 14.967330 0.0960 0.1020 1.0 0.0 200.0 17.333330 500.0 197.0 17.333330 17214.538460 889058.0 142.0 43.0 838510728.356530 0.0 0.0 0.0 0.0 0.0 0.0 0.0 -3.27680 -3.27680 -3.27680 -3.27680 -3.27680 -3.27680
21.12 21.137470 0.0 118.30 14.976670 0.0960 0.1020 1.0 0.0 200.0 17.50 500.0 197.0 17.50 17201.076920 889057.750 142.0 43.0 838510257.370670 0.0 0.0 0.0 0.0 0.0 0.0 0.0 -3.27680 -3.27680 -3.27680 -3.27680 -3.27680 -3.27680
21.11 21.129070 0.0 118.333330 14.9860 0.0960 0.1020 1.0 0.0 200.0 17.666670 500.0 197.0 17.666670 17187.615380 889057.50 142.0 43.0 838509786.384820 0.0 0.0 0.0 0.0 0.0 0.0 0.0 -3.27680 -3.27680 -3.27680 -3.27680 -3.27680 -3.27680
21.10 21.120670 0.0 118.366670 14.995330 0.0960 0.1020 1.0 0.0 200.0 17.833330 500.0 197.0 17.833330 17174.153850 889057.250 142.0 43.0 838509315.398970 0.0 0.0 0.0 0.0 0.0 0.0 0.0 -3.27680 -3.27680 -3.27680 -3.27680 -3.27680 -3.27680
21.09 21.112270 0.0 118.40 15.004670 0.0960 0.1020 1.0 0.0 200.0 18.0 500.0 197.0 18.0 17160.692310 889057.0 142.0 43.0 838508844.413110 0.0 0.0 0.0 0.0 0.0 0.0 0.0 -3.27680 -3.27680 -3.27680 -3.27680 -3.27680 -3.27680
21.08 21.100060 0.0 118.450 15.0140 0.0960 0.1030 1.0 0.0 200.0 17.230770 500.0 197.0 17.230770 17147.230770 889056.750 142.0 43.0 838508373.427260 0.0 0.0 0.0 0.0 0.0 0.0 0.0 -3.27680 -3.27680 -3.27680 -3.27680 -3.27680 -3.27680
21.07 21.087860 0.0 118.50 15.023330 0.0960 0.1040 1.0 0.0 200.0 16.461540 500.0 197.0 16.461540 17133.769230 889056.50 142.0 43.0 838507902.441410 0.0 0.0 0.0 0.0 0.0 0.0 0.0 -3.27680 -3.27680 -3.27680 -3.27680 -3.27680 -3.27680
21.06 21.079720 0.0 118.533330 15.032670 0.0960 0.103330 1.0 0.0 200.0 15.692310 500.0 197.0 15.692310 17120.307690 889056.250 142.0 43.0 838507431.455560 0.0 0.0 0.0 0.0 0.0 0.0 0.0 -3.27680 -3.27680 -3.27680 -3.27680 -3.27680 -3.27680
21.05 21.071580 0.0 118.566670 15.0420 0.0960 0.102670 1.0 0.0 200.0 14.923080 500.0 197.0 14.923080 17106.846150 889056.0 142.0 43.0 838506960.46970 0.0 0.0 0.0 0.0 0.0 0.0 0.0 -3.27680 -3.27680 -3.27680 -3.27680 -3.27680 -3.27680
21.04 21.063440 0.0 118.60 15.051330 0.0960 0.1020 1.0 0.0 200.0 14.153850 500.0 197.0 14.153850 17093.384620 889055.750 142.0 43.0 838506489.483850 0.0 0.0 0.0 0.0 0.0 0.0 0.0 -3.27680 -3.27680 -3.27680 -3.27680 -3.27680 -3.27680
21.03 21.050450 0.0 118.650 15.060670 0.0960 0.1020 1.0 0.0 200.0 13.384620 500.0 197.0 13.384620 17079.923080 889055.50 142.0 43.0 838506018.4980 0.0 0.0 0.0 0.0 0.0 0.0 0.0 -3.27680 -3.27680 -3.27680 -3.27680 -3.27680 -3.27680
21.02 21.037450 0.0 118.70 15.070 0.0960 0.1020 1.0 0.0 200.0 12.615380 500.0 197.0 12.615380 17066.461540 889055.250 142.0 43.0 838505547.512140 0.0 0.0 0.0 0.0 0.0 0.0 0.0 -3.27680 -3.27680 -3.27680 -3.27680 -3.27680 -3.27680
21.01 21.029310 0.0 118.733330 15.060670 0.0960 0.1020 1.0 0.0 200.0 11.846150 500.0 197.0 11.846150 17053.0 889055.0 142.0 43.0 838505076.526290 0.0 0.0 0.0 0.0 0.0 0.0 0.0 -3.27680 -3.27680 -3.27680 -3.27680 -3.27680 -3.27680
21.00 21.021170 0.0 118.766670 15.051330 0.0960 0.1020 1.0 0.0 200.0 11.076920 500.0 197.0 11.076920 17029.333330 889055.307690 142.0 43.0 838505656.201510 0.0 0.0 0.0 0.0 0.0 0.0 0.0 -3.27680 -3.27680 -3.27680 -3.27680 -3.27680 -3.27680
20.99 21.013030 0.0 118.80 15.0420 0.0960 0.1020 1.0 0.0 200.0 10.307690 500.0 197.0 10.307690 17005.666670 889055.615380 142.0 43.0 838506235.876730 0.0 0.0 0.0 0.0 0.0 0.0 0.0 -3.27680 -3.27680 -3.27680 -3.27680 -3.27680 -3.27680
20.98 21.000430 0.0 118.850 15.032670 0.0960 0.1020 1.0 0.0 200.0 9.538460 500.0 197.0 9.538460 16982.0 889055.923080 142.0 43.0 838506815.551950 0.0 0.0 0.0 0.0 0.0 0.0 0.0 -3.27680 -3.27680 -3.27680 -3.27680 -3.27680 -3.27680
20.97 20.987830 0.0 118.90 15.023330 0.0960 0.1020 1.0 0.0 200.0 8.769230 500.0 197.0 8.769230 16958.333330 889056.230770 142.0 43.0 838507395.227180 0.0 0.0 0.0 0.0 0.0 0.0 0.0 -3.27680 -3.27680 -3.27680 -3.27680 -3.27680 -3.27680
20.96 20.979690 0.0 118.933330 15.0140 0.0960 0.1020 1.0 0.0 200.0 8.0 500.0 197.0 8.0 16934.666670 889056.538460 142.0 43.0 838507974.90240 0.0 0.0 0.0 0.0 0.0 0.0 0.0 -3.27680 -3.27680 -3.27680 -3.27680 -3.27680 -3.27680
20.95 20.971550 0.0 118.966670 15.004670 0.0960 0.1020 1.0 0.0 200.0 9.833330 500.0 197.0 9.833330 16911.0 889056.846150 142.0 43.0 838508554.577620 0.0 0.0 0.0 0.0 0.0 0.0 0.0 -3.27680 -3.27680 -3.27680 -3.27680 -3.27680 -3.27680
20.94 20.963420 0.0 119.0 14.995330 0.0960 0.1020 1.0 0.0 200.0 11.666670 500.0 197.0 11.666670 16887.333330 889057.153850 142.0 43.0 838509134.252840 0.0 0.0 0.0 0.0 0.0 0.0 0.0 -3.27680 -3.27680 -3.27680 -3.27680 -3.27680 -3.27680
20.93 20.950810 0.0 119.050 14.9860 0.0960 0.1020 1.0 0.0 200.0 13.50 493.076920 197.0 13.50 16863.666670 889057.461540 142.0 43.0 838509713.928060 0.0 0.0 0.0 0.0 0.0 0.0 0.0 -3.27680 -3.27680 -3.27680 -3.27680 -3.27680 -3.27680
20.92 20.938210 0.0 119.10 14.976670 0.0960 0.1020 1.0 0.0 200.0 15.333330 486.153850 197.0 15.333330 16840.0 889057.769230 142.0 43.0 838510293.603290 0.0 0.0 0.0 0.0 0.0 0.0 0.0 -3.27680 -3.27680 -3.27680 -3.27680 -3.27680 -3.27680
20.91 20.929810 0.0 119.133330 14.967330 0.0960 0.1020 1.0 0.0 200.0 17.166670 479.230770 197.0 17.166670 16816.333330 889058.076920 142.0 43.0 838510873.278510 0.0 0.0 0.0 0.0 0.0 0.0 0.0 -3.27680 -3.27680 -3.27680 -3.27680 -3.27680 -3.27680
20.90 20.921410 0.0 119.166670 14.9580 0.0960 0.1020 1.0 0.0 200.0 19.0 472.307690 197.0 19.0 16792.666670 889058.384620 142.0 43.0 838511452.953730 0.0 0.0 0.0 0.0 0.0 0.0 0.0 -3.27680 -3.27680 -3.27680 -3.27680 -3.27680 -3.27680
20.89 20.913010 0.0 119.20 14.948670 0.0960 0.1020 1.0 0.0 200.0 20.833330 465.384620 197.0 20.833330 16769.0 889058.692310 142.0 43.0 838512032.628950 0.0 0.0 0.0 0.0 0.0 0.0 0.0 -3.27680 -3.27680 -3.27680 -3.27680 -3.27680 -3.27680
