~VERSION INFORMATION SECTION
VERS. 2.0 : CWLS LAS-VERSION 2.0
WRAP. NO : One line per depth step
~WELL INFORMATION SECTION
# MNEM.UNIT VALUE/NAME DESCRIPTION
#-------- -------------- ---------------------
STRT.Metres 26 : Start
STOP.Metres -2.05 : Stop
STEP.Metres -0.01 : Step
NULL.  -999.25 :NULL VALUE
DATE. 2026-23-09 : DATE
~CURVE INFORMATION SECTION
DEPTH.Metres : 0 Depth
Depth. : 1 Depth
Tension. : 2 Tension
Time. : 3 Time
Speed. : 4 Speed
Voltage. : 5 Voltage
Current. : 6 Current
WET. : 7 WET
Sig. : 8 Sig
Vth. : 9 Vth
GR.CPS : 10 GR
Timebase.ms : 11 Timebase
HeadVoltage.V : 12 Head Voltage
API.API : 13 API
Conductivity.uS : 14 Conductivity
PT100.Ohms : 15 PT100
Vmon.mV : 16 Vmon
Status. : 17 Status
Temperature.C : 18 Temperature
Incline.Deg : 19 Incline
Azimuth.Deg : 20 Azimuth
RelativeBearing.Deg : 21 Relative Bearing
MagneticToolFace.Deg : 22 Magnetic Tool Face
GravityMagnitude.G : 23 Gravity Magnitude
MagnetometerMagnitude.H : 24 Magnetometer Magnitude
Temperature.C : 25 Temperature
GX. : 26 GX
GY. : 27 GY
GZ. : 28 GZ
HX. : 29 HX
HY. : 30 HY
HZ. : 31 HZ
~PARAMETER INFORMATION SECTION
~OTHER
#-------------------------------------------------
#Produced By: GeoVista Logger - Version 7.1.107.0
Verticality Sonde - 9605
Temperature and Conductivity Sonde - Inline - 8974
Natural Gamma Sonde - 9931
WLIS - 10021
#-------------------------------------------------
~ASCII LOG DATA
# ...
19.44 19.460160 0.0 37.666670 15.063330 0.0960 0.1020 1.0 1.750 200.0 29.50 500.0 197.0 29.50 10909.50 889085.692310 158.0 47.0 838562900.013420 0.0 0.0 0.0 0.0 0.0 0.0 0.0 -3.27680 -3.27680 -3.27680 -3.27680 -3.27680 -3.27680
19.43 19.452020 0.0 37.70 15.070 0.0960 0.1020 1.0 1.833330 200.0 29.0 500.0 197.0 29.0 10864.583330 889086.307690 158.0 47.0 838564059.401640 0.0 0.0 0.0 0.0 0.0 0.0 0.0 -3.27680 -3.27680 -3.27680 -3.27680 -3.27680 -3.27680
19.42 19.439420 0.0 37.750 15.063330 0.0960 0.1020 1.0 1.916670 200.0 28.50 500.0 197.0 28.50 10819.666670 889086.923080 158.0 47.0 838565218.789850 0.0 0.0 0.0 0.0 0.0 0.0 0.0 -3.27680 -3.27680 -3.27680 -3.27680 -3.27680 -3.27680
19.41 19.426820 0.0 37.80 15.056670 0.0960 0.1020 1.0 2.0 200.0 28.0 500.0 197.0 28.0 10774.750 889087.538460 158.0 47.0 838566378.178060 0.0 0.0 0.0 0.0 0.0 0.0 0.0 -3.27680 -3.27680 -3.27680 -3.27680 -3.27680 -3.27680
19.40 19.418420 0.0 37.833330 15.050 0.0960 0.1020 1.0 2.0 200.0 27.50 500.0 197.0 27.50 10729.833330 889088.153850 158.0 47.0 838567537.566270 0.0 0.0 0.0 0.0 0.0 0.0 0.0 -3.27680 -3.27680 -3.27680 -3.27680 -3.27680 -3.27680
19.39 19.410020 0.0 37.866670 15.043330 0.0960 0.1020 1.0 2.0 200.0 27.0 500.0 197.0 27.0 10684.916670 889088.769230 158.0 47.0 838568696.954490 0.0 0.0 0.0 0.0 0.0 0.0 0.0 -3.27680 -3.27680 -3.27680 -3.27680 -3.27680 -3.27680
19.38 19.401620 0.0 37.90 15.036670 0.0960 0.1020 1.0 2.0 200.0 26.50 500.0 197.0 26.50 10640.0 889089.384620 158.0 47.0 838569856.34270 0.0 0.0 0.0 0.0 0.0 0.0 0.0 -3.27680 -3.27680 -3.27680 -3.27680 -3.27680 -3.27680
19.37 19.389410 0.0 37.950 15.030 0.0960 0.1020 1.0 2.0 200.0 26.0 500.0 197.0 26.0 10600.0 889090.0 158.0 47.0 838571015.730910 0.0 0.0 0.0 0.0 0.0 0.0 0.0 -3.27680 -3.27680 -3.27680 -3.27680 -3.27680 -3.27680
19.36 19.37720 0.0 38.0 15.023330 0.0960 0.1020 1.0 2.0 200.0 25.50 500.0 197.0 25.50 10560.0 889090.750 158.0 47.0 838572428.748790 0.0 0.0 0.0 0.0 0.0 0.0 0.0 -3.27680 -3.27680 -3.27680 -3.27680 -3.27680 -3.27680
19.35 19.36880 0.0 38.033330 15.016670 0.0960 0.1020 1.0 2.0 200.0 25.0 500.0 197.0 25.0 10520.0 889091.50 158.0 47.0 838573841.766670 0.0 0.0 0.0 0.0 0.0 0.0 0.0 -3.27680 -3.27680 -3.27680 -3.27680 -3.27680 -3.27680
19.34 19.36040 0.0 38.066670 15.010 0.0960 0.1020 1.0 2.0 200.0 24.50 500.0 197.0 24.50 10480.0 889092.250 158.0 47.0 838575254.784540 0.0 0.0 0.0 0.0 0.0 0.0 0.0 -3.27680 -3.27680 -3.27680 -3.27680 -3.27680 -3.27680
19.33 19.3520 0.0 38.10 15.003330 0.0960 0.1020 1.0 2.0 200.0 24.0 500.0 197.0 24.0 10440.0 889093.0 158.0 47.0 838576667.802420 0.0 0.0 0.0 0.0 0.0 0.0 0.0 -3.27680 -3.27680 -3.27680 -3.27680 -3.27680 -3.27680
19.32 19.33940 0.0 38.150 14.996670 0.0960 0.1020 1.0 2.0 200.0 25.230770 500.0 197.0 25.230770 10400.0 889093.750 158.076920 47.0 838578080.82030 0.0 0.0 0.0 0.0 0.0 0.0 0.0 -3.27680 -3.27680 -3.27680 -3.27680 -3.27680 -3.27680
19.31 19.326790 0.0 38.20 14.990 0.0960 0.1020 1.0 2.0 200.0 26.461540 500.0 197.0 26.461540 10360.0 889094.50 158.153850 47.0 838579493.838180 0.0 0.0 0.0 0.0 0.0 0.0 0.0 -3.27680 -3.27680 -3.27680 -3.27680 -3.27680 -3.27680
19.30 19.318660 0.0 38.233330 14.983330 0.0960 0.1020 1.0 2.0 200.0 27.692310 500.0 197.0 27.692310 10320.0 889095.250 158.230770 47.0 838580906.856050 0.0 0.0 0.0 0.0 0.0 0.0 0.0 -3.27680 -3.27680 -3.27680 -3.27680 -3.27680 -3.27680
19.29 19.310520 0.0 38.266670 14.976670 0.0960 0.1020 1.0 2.0 200.0 28.923080 500.0 197.0 28.923080 10280.0 889096.0 158.307690 47.0 838582319.873930 0.0 0.0 0.0 0.0 0.0 0.0 0.0 -3.27680 -3.27680 -3.27680 -3.27680 -3.27680 -3.27680
19.28 19.302380 0.0 38.30 14.970 0.0960 0.1020 1.0 2.0 200.0 30.153850 500.0 197.0 30.153850 10240.0 889096.750 158.384620 47.0 838583732.891810 0.0 0.0 0.0 0.0 0.0 0.0 0.0 -3.27680 -3.27680 -3.27680 -3.27680 -3.27680 -3.27680
19.27 19.289780 0.0 38.350 14.967330 0.0960 0.1020 1.0 2.083330 200.0 31.384620 500.0 197.0 31.384620 10200.0 889097.50 158.461540 47.0 838585145.909680 0.0 0.0 0.0 0.0 0.0 0.0 0.0 -3.27680 -3.27680 -3.27680 -3.27680 -3.27680 -3.27680
19.26 19.277180 0.0 38.40 14.964670 0.0960 0.1020 1.0 2.166670 200.0 32.615380 500.0 197.0 32.615380 10160.0 889098.250 158.538460 47.0 838586558.927560 0.0 0.0 0.0 0.0 0.0 0.0 0.0 -3.27680 -3.27680 -3.27680 -3.27680 -3.27680 -3.27680
19.25 19.269040 0.0 38.433330 14.9620 0.0960 0.1020 1.0 2.250 200.0 33.846150 500.0 197.0 33.846150 10120.0 889099.0 158.615380 47.0 838587971.945440 0.0 0.0 0.0 0.0 0.0 0.0 0.0 -3.27680 -3.27680 -3.27680 -3.27680 -3.27680 -3.27680
19.24 19.26090 0.0 38.466670 14.959330 0.0960 0.1020 1.0 2.333330 200.0 35.076920 500.0 197.0 35.076920 10077.250 889099.846150 158.692310 47.0 838589566.137360 0.0 0.0 0.0 0.0 0.0 0.0 0.0 -3.27680 -3.27680 -3.27680 -3.27680 -3.27680 -3.27680
19.23 19.252760 0.0 38.50 14.956670 0.0960 0.1020 1.0 2.416670 200.0 36.307690 500.0 197.0 36.307690 10034.50 889100.692310 158.769230 47.0 838591160.329280 0.0 0.0 0.0 0.0 0.0 0.0 0.0 -3.27680 -3.27680 -3.27680 -3.27680 -3.27680 -3.27680
19.22 19.240160 0.0 38.550 14.9540 0.0960 0.1020 1.0 2.50 200.0 37.538460 500.0 197.0 37.538460 9991.750 889101.538460 158.846150 47.0 838592754.521210 0.0 0.0 0.0 0.0 0.0 0.0 0.0 -3.27680 -3.27680 -3.27680 -3.27680 -3.27680 -3.27680
19.21 19.227560 0.0 38.60 14.951330 0.0960 0.1020 1.0 2.583330 200.0 38.769230 500.0 197.0 38.769230 9949.0 889102.384620 158.923080 47.0 838594348.713130 0.0 0.0 0.0 0.0 0.0 0.0 0.0 -3.27680 -3.27680 -3.27680 -3.27680 -3.27680 -3.27680
19.20 19.219160 0.0 38.633330 14.948670 0.0960 0.1020 1.0 2.666670 200.0 40.0 500.0 197.0 40.0 9906.250 889103.230770 159.0 47.0 838595942.905050 0.0 0.0 0.0 0.0 0.0 0.0 0.0 -3.27680 -3.27680 -3.27680 -3.27680 -3.27680 -3.27680
19.19 19.210750 0.0 38.666670 14.9460 0.0960 0.1020 1.0 2.750 200.0 40.0 500.0 197.0 40.0 9863.50 889104.076920 158.750 47.0 838597537.096970 0.0 0.0 0.0 0.0 0.0 0.0 0.0 -3.27680 -3.27680 -3.27680 -3.27680 -3.27680 -3.27680
19.18 19.202350 0.0 38.70 14.943330 0.0960 0.1020 1.0 2.833330 200.0 40.0 500.0 197.0 40.0 9820.750 889104.923080 158.50 47.0 838599131.28890 0.0 0.0 0.0 0.0 0.0 0.0 0.0 -3.27680 -3.27680 -3.27680 -3.27680 -3.27680 -3.27680
19.17 19.189360 0.0 38.750 14.940670 0.0960 0.1020 1.0 2.916670 200.0 40.0 500.0 197.0 40.0 9778.0 889105.769230 158.250 47.0 838600725.480820 0.0 0.0 0.0 0.0 0.0 0.0 0.0 -3.27680 -3.27680 -3.27680 -3.27680 -3.27680 -3.27680
19.16 19.176360 0.0 38.80 14.9380 0.0960 0.1020 1.0 3.0 200.0 40.0 500.0 197.0 40.0 9735.250 889106.615380 158.0 47.0 838602319.672740 0.0 0.0 0.0 0.0 0.0 0.0 0.0 -3.27680 -3.27680 -3.27680 -3.27680 -3.27680 -3.27680
19.15 19.167960 0.0 38.833330 14.935330 0.0960 0.1020 1.0 3.0 200.0 40.0 500.0 197.0 40.0 9692.50 889107.461540 157.750 47.0 838603913.864670 0.0 0.0 0.0 0.0 0.0 0.0 0.0 -3.27680 -3.27680 -3.27680 -3.27680 -3.27680 -3.27680
19.14 19.159560 0.0 38.866670 14.932670 0.0960 0.1020 1.0 3.0 200.0 40.0 500.0 197.0 40.0 9649.750 889108.307690 157.50 47.0 838605508.056590 0.0 0.0 0.0 0.0 0.0 0.0 0.0 -3.27680 -3.27680 -3.27680 -3.27680 -3.27680 -3.27680
19.13 19.151160 0.0 38.90 14.930 0.0960 0.1020 1.0 3.0 200.0 40.0 500.0 197.0 40.0 9607.0 889109.153850 157.250 47.0 838607102.248510 0.0 0.0 0.0 0.0 0.0 0.0 0.0 -3.27680 -3.27680 -3.27680 -3.27680 -3.27680 -3.27680
19.12 19.138560 0.0 38.950 14.945330 0.0960 0.1010 1.0 3.0 200.0 40.0 500.0 197.0 40.0 9570.384620 889110.0 157.0 47.0 838608696.440430 0.0 0.0 0.0 0.0 0.0 0.0 0.0 -3.27680 -3.27680 -3.27680 -3.27680 -3.27680 -3.27680
19.11 19.125960 0.0 39.0 14.960670 0.0960 0.10 1.0 3.0 200.0 40.0 500.0 197.0 40.0 9533.769230 889110.583330 156.750 47.0 838609795.47780 0.0 0.0 0.0 0.0 0.0 0.0 0.0 -3.27680 -3.27680 -3.27680 -3.27680 -3.27680 -3.27680
19.10 19.117820 0.0 39.033330 14.9760 0.0960 0.100670 1.0 3.0 200.0 40.0 500.0 197.0 40.0 9497.153850 889111.166670 156.50 47.0 838610894.515160 0.0 0.0 0.0 0.0 0.0 0.0 0.0 -3.27680 -3.27680 -3.27680 -3.27680 -3.27680 -3.27680
19.09 19.109680 0.0 39.066670 14.991330 0.0960 0.101330 1.0 3.0 200.0 40.0 500.0 197.0 40.0 9460.538460 889111.750 156.250 47.0 838611993.552520 0.0 0.0 0.0 0.0 0.0 0.0 0.0 -3.27680 -3.27680 -3.27680 -3.27680 -3.27680 -3.27680
