~VERSION INFORMATION SECTION
VERS. 2.0 : CWLS LAS-VERSION 2.0
WRAP. NO : One line per depth step
~WELL INFORMATION SECTION
# MNEM.UNIT VALUE/NAME DESCRIPTION
#-------- -------------- ---------------------
STRT.Metres 19 : Start
STOP.Metres -2.05 : Stop
STEP.Metres -0.01 : Step
NULL.  -999.25 :NULL VALUE
DATE. 2026-03-09 : DATE
~CURVE INFORMATION SECTION
DEPTH.Metres : 0 Depth
Depth. : 1 Depth
Tension. : 2 Tension
Time. : 3 Time
Speed. : 4 Speed
Voltage. : 5 Voltage
Current. : 6 Current
WET. : 7 WET
Sig. : 8 Sig
Vth. : 9 Vth
GR.CPS : 10 GR
Timebase.ms : 11 Timebase
HeadVoltage.V : 12 Head Voltage
API.API : 13 API
Conductivity.uS : 14 Conductivity
PT100.Ohms : 15 PT100
Vmon.mV : 16 Vmon
Status. : 17 Status
Temperature.C : 18 Temperature
Incline.Deg : 19 Incline
Azimuth.Deg : 20 Azimuth
RelativeBearing.Deg : 21 Relative Bearing
MagneticToolFace.Deg : 22 Magnetic Tool Face
GravityMagnitude.G : 23 Gravity Magnitude
MagnetometerMagnitude.H : 24 Magnetometer Magnitude
Temperature.C : 25 Temperature
GX. : 26 GX
GY. : 27 GY
GZ. : 28 GZ
HX. : 29 HX
HY. : 30 HY
HZ. : 31 HZ
~PARAMETER INFORMATION SECTION
~OTHER
#-------------------------------------------------
#Produced By: GeoVista Logger - Version 7.1.107.0
Verticality Sonde - 9605
Temperature and Conductivity Sonde - Inline - 8974
Natural Gamma Sonde - 9931
WLIS - 10021
#-------------------------------------------------
~ASCII LOG DATA
# ...
5.40 5.406050 0.0 188.80 4.9760 0.0960 0.1020 1.0 43.0 200.0 23.0 500.0 197.0 23.0 1762.250 890617.0 149.0 41.0 841450373.020970 0.0 0.0 0.0 0.0 0.0 0.0 0.0 -3.27680 -3.27680 -3.27680 -3.27680 -3.27680 -3.27680
5.39 5.397390 0.0 188.90 4.9840 0.0960 0.1020 1.0 43.0 200.0 27.50 500.0 197.0 27.50 1765.50 890617.0 149.250 41.0 841450373.020970 0.0 0.0 0.0 0.0 0.0 0.0 0.0 -3.27680 -3.27680 -3.27680 -3.27680 -3.27680 -3.27680
5.38 5.384790 0.0 189.050 4.9920 0.0960 0.1010 1.0 42.750 200.0 32.0 500.0 197.0 32.0 1768.750 890617.0 149.50 41.0 841450373.020970 0.0 0.0 0.0 0.0 0.0 0.0 0.0 -3.27680 -3.27680 -3.27680 -3.27680 -3.27680 -3.27680
5.37 5.372190 0.0 189.20 5.0 0.0960 0.1020 1.0 42.50 200.0 27.50 500.0 197.0 27.50 1772.0 890617.0 149.750 41.0 841450373.020970 0.0 0.0 0.0 0.0 0.0 0.0 0.0 -3.27680 -3.27680 -3.27680 -3.27680 -3.27680 -3.27680
5.36 5.363520 0.0 189.30 5.0 0.0960 0.1020 1.0 42.250 200.0 23.0 500.0 197.0 23.0 1764.50 890617.0 150.0 41.0 841450373.020970 0.0 0.0 0.0 0.0 0.0 0.0 0.0 -3.27680 -3.27680 -3.27680 -3.27680 -3.27680 -3.27680
5.35 5.355650 0.0 189.40 5.0 0.0960 0.1020 1.0 42.0 200.0 18.50 500.0 197.0 18.50 1757.0 890618.50 149.750 41.0 841453203.899570 0.0 0.0 0.0 0.0 0.0 0.0 0.0 -3.27680 -3.27680 -3.27680 -3.27680 -3.27680 -3.27680
5.34 5.346980 0.0 189.50 5.0 0.0960 0.1020 1.0 42.250 200.0 14.0 500.0 197.0 14.0 1749.50 890620.0 149.50 41.0 841456034.778180 0.0 0.0 0.0 0.0 0.0 0.0 0.0 -3.27680 -3.27680 -3.27680 -3.27680 -3.27680 -3.27680
5.33 5.334770 0.0 189.650 5.0 0.0960 0.1020 1.0 42.50 200.0 20.50 500.0 197.0 20.50 1742.0 890621.50 149.250 41.0 841458865.656780 0.0 0.0 0.0 0.0 0.0 0.0 0.0 -3.27680 -3.27680 -3.27680 -3.27680 -3.27680 -3.27680
5.32 5.322570 0.0 189.80 5.0 0.0960 0.1020 1.0 42.750 200.0 27.0 500.0 197.0 27.0 1743.250 890623.0 149.0 41.0 841461696.535390 0.0 0.0 0.0 0.0 0.0 0.0 0.0 -3.27680 -3.27680 -3.27680 -3.27680 -3.27680 -3.27680
5.31 5.31390 0.0 189.90 5.010 0.0960 0.1020 1.0 43.0 200.0 33.50 500.0 197.0 33.50 1744.50 890624.0 149.0 41.0 841463583.798380 0.0 0.0 0.0 0.0 0.0 0.0 0.0 -3.27680 -3.27680 -3.27680 -3.27680 -3.27680 -3.27680
5.30 5.306030 0.0 190.0 5.020 0.0960 0.1020 1.0 43.0 200.0 40.0 500.0 197.0 40.0 1745.750 890625.0 149.0 41.0 841465471.061360 0.0 0.0 0.0 0.0 0.0 0.0 0.0 -3.27680 -3.27680 -3.27680 -3.27680 -3.27680 -3.27680
5.29 5.297360 0.0 190.10 5.030 0.0960 0.1020 1.0 43.0 200.0 34.50 500.0 197.0 34.50 1747.0 890626.0 149.0 41.0 841467358.324350 0.0 0.0 0.0 0.0 0.0 0.0 0.0 -3.27680 -3.27680 -3.27680 -3.27680 -3.27680 -3.27680
5.28 5.285160 0.0 190.250 5.040 0.0960 0.1010 1.0 43.0 200.0 29.0 500.0 197.0 29.0 1748.0 890627.0 149.0 41.0 841469245.587330 0.0 0.0 0.0 0.0 0.0 0.0 0.0 -3.27680 -3.27680 -3.27680 -3.27680 -3.27680 -3.27680
5.27 5.272160 0.0 190.40 5.050 0.0960 0.1020 1.0 43.0 200.0 23.50 500.0 197.0 23.50 1749.0 890627.0 149.250 41.0 841469245.587330 0.0 0.0 0.0 0.0 0.0 0.0 0.0 -3.27680 -3.27680 -3.27680 -3.27680 -3.27680 -3.27680
5.26 5.264280 0.0 190.50 5.040 0.0960 0.1020 1.0 43.0 200.0 18.0 500.0 197.0 18.0 1750.0 890627.0 149.50 41.0 841469245.587330 0.0 0.0 0.0 0.0 0.0 0.0 0.0 -3.27680 -3.27680 -3.27680 -3.27680 -3.27680 -3.27680
5.25 5.256410 0.0 190.60 5.030 0.0960 0.1020 1.0 43.0 200.0 17.60 500.0 197.0 17.60 1751.0 890627.0 149.750 41.0 841469245.587330 0.0 0.0 0.0 0.0 0.0 0.0 0.0 -3.27680 -3.27680 -3.27680 -3.27680 -3.27680 -3.27680
5.24 5.247750 0.0 190.70 5.020 0.0960 0.1020 1.0 43.0 200.0 17.20 500.0 197.0 17.20 1752.0 890627.0 150.0 41.0 841469245.587330 0.0 0.0 0.0 0.0 0.0 0.0 0.0 -3.27680 -3.27680 -3.27680 -3.27680 -3.27680 -3.27680
5.23 5.235540 0.0 190.850 5.010 0.0960 0.1020 1.0 43.0 200.0 16.80 500.0 197.0 16.80 1750.50 890628.0 149.750 41.0 841471132.858790 0.0 0.0 0.0 0.0 0.0 0.0 0.0 -3.27680 -3.27680 -3.27680 -3.27680 -3.27680 -3.27680
5.22 5.223330 0.0 191.0 5.0 0.0960 0.1020 1.0 43.0 200.0 16.40 500.0 197.0 16.40 1749.0 890629.0 149.50 41.0 841473020.130240 0.0 0.0 0.0 0.0 0.0 0.0 0.0 -3.27680 -3.27680 -3.27680 -3.27680 -3.27680 -3.27680
5.21 5.214670 0.0 191.10 4.9920 0.0960 0.1020 1.0 43.0 200.0 16.0 500.0 197.0 16.0 1747.50 890630.0 149.250 41.0 841474907.401690 0.0 0.0 0.0 0.0 0.0 0.0 0.0 -3.27680 -3.27680 -3.27680 -3.27680 -3.27680 -3.27680
5.20 5.2060 0.0 191.20 4.9840 0.0960 0.1020 1.0 43.0 200.0 18.50 500.0 197.0 18.50 1746.0 890631.0 149.0 41.0 841476794.673140 0.0 0.0 0.0 0.0 0.0 0.0 0.0 -3.27680 -3.27680 -3.27680 -3.27680 -3.27680 -3.27680
5.19 5.198130 0.0 191.30 4.9760 0.0960 0.1020 1.0 43.0 200.0 21.0 500.0 197.0 21.0 1744.0 890631.50 149.20 41.0 841477738.312040 0.0 0.0 0.0 0.0 0.0 0.0 0.0 -3.27680 -3.27680 -3.27680 -3.27680 -3.27680 -3.27680
5.18 5.185130 0.0 191.450 4.9680 0.0960 0.1020 1.0 43.0 200.0 23.50 502.50 197.0 23.50 1742.0 890632.0 149.40 41.0 841478681.950940 0.0 0.0 0.0 0.0 0.0 0.0 0.0 -3.27680 -3.27680 -3.27680 -3.27680 -3.27680 -3.27680
5.17 5.172920 0.0 191.60 4.960 0.0960 0.1020 1.0 43.0 200.0 26.0 505.0 197.0 26.0 1740.0 890632.50 149.60 41.0 841479625.589840 0.0 0.0 0.0 0.0 0.0 0.0 0.0 -3.27680 -3.27680 -3.27680 -3.27680 -3.27680 -3.27680
5.16 5.164260 0.0 191.70 4.9680 0.0960 0.1020 1.0 43.0 200.0 27.0 507.50 197.0 27.0 1738.0 890633.0 149.80 41.0 841480569.228740 0.0 0.0 0.0 0.0 0.0 0.0 0.0 -3.27680 -3.27680 -3.27680 -3.27680 -3.27680 -3.27680
5.15 5.15560 0.0 191.80 4.9760 0.0960 0.1020 1.0 43.0 200.0 28.0 510.0 197.0 28.0 1743.750 890632.60 150.0 41.0 841479814.317620 0.0 0.0 0.0 0.0 0.0 0.0 0.0 -3.27680 -3.27680 -3.27680 -3.27680 -3.27680 -3.27680
5.14 5.147720 0.0 191.90 4.9840 0.0960 0.1020 1.0 43.0 200.0 29.0 507.50 197.0 29.0 1749.50 890632.20 149.750 41.0 841479059.40650 0.0 0.0 0.0 0.0 0.0 0.0 0.0 -3.27680 -3.27680 -3.27680 -3.27680 -3.27680 -3.27680
5.13 5.135120 0.0 192.050 4.9920 0.0960 0.1020 1.0 43.0 200.0 30.0 505.0 197.0 30.0 1755.250 890631.80 149.50 41.0 841478304.495380 0.0 0.0 0.0 0.0 0.0 0.0 0.0 -3.27680 -3.27680 -3.27680 -3.27680 -3.27680 -3.27680
5.12 5.122520 0.0 192.20 5.0 0.0960 0.1020 1.0 43.0 200.0 27.50 502.50 197.0 27.50 1761.0 890631.40 149.250 41.0 841477549.584260 0.0 0.0 0.0 0.0 0.0 0.0 0.0 -3.27680 -3.27680 -3.27680 -3.27680 -3.27680 -3.27680
5.11 5.114640 0.0 192.30 5.0 0.0960 0.1020 1.0 43.0 200.0 25.0 500.0 197.0 25.0 1759.250 890631.0 149.0 41.0 841476794.673140 0.0 0.0 0.0 0.0 0.0 0.0 0.0 -3.27680 -3.27680 -3.27680 -3.27680 -3.27680 -3.27680
5.10 5.105980 0.0 192.40 5.0 0.0960 0.1020 1.0 43.0 200.0 22.50 500.0 197.0 22.50 1757.50 890631.50 149.0 41.0 841477738.312040 0.0 0.0 0.0 0.0 0.0 0.0 0.0 -3.27680 -3.27680 -3.27680 -3.27680 -3.27680 -3.27680
5.09 5.09810 0.0 192.50 5.0 0.0960 0.1020 1.0 43.0 200.0 20.0 500.0 197.0 20.0 1755.750 890632.0 149.0 41.0 841478681.950940 0.0 0.0 0.0 0.0 0.0 0.0 0.0 -3.27680 -3.27680 -3.27680 -3.27680 -3.27680 -3.27680
5.08 5.08550 0.0 192.650 5.0 0.0960 0.1020 1.0 43.0 200.0 19.411760 500.0 197.0 19.411760 1754.0 890632.50 149.0 41.0 841479625.589840 0.0 0.0 0.0 0.0 0.0 0.0 0.0 -3.27680 -3.27680 -3.27680 -3.27680 -3.27680 -3.27680
5.07 5.07290 0.0 192.80 5.0 0.0960 0.1020 1.0 43.0 200.0 18.823530 500.0 197.0 18.823530 1753.0 890633.0 149.0 41.0 841480569.228740 0.0 0.0 0.0 0.0 0.0 0.0 0.0 -3.27680 -3.27680 -3.27680 -3.27680 -3.27680 -3.27680
5.06 5.065020 0.0 192.90 4.9820 0.0960 0.1020 1.0 43.0 200.0 18.235290 500.0 197.0 18.235290 1752.0 890633.750 149.250 41.0 841481984.691060 0.0 0.0 0.0 0.0 0.0 0.0 0.0 -3.27680 -3.27680 -3.27680 -3.27680 -3.27680 -3.27680
5.05 5.056360 0.0 193.0 4.9640 0.0960 0.1020 1.0 42.750 200.0 17.647060 500.0 197.0 17.647060 1751.0 890634.50 149.50 41.0 841483400.153380 0.0 0.0 0.0 0.0 0.0 0.0 0.0 -3.27680 -3.27680 -3.27680 -3.27680 -3.27680 -3.27680
5.04 5.04770 0.0 193.10 4.9460 0.0960 0.1020 1.0 42.50 200.0 16.735290 500.0 197.0 16.735290 1750.0 890635.250 149.750 41.0 841484815.61570 0.0 0.0 0.0 0.0 0.0 0.0 0.0 -3.27680 -3.27680 -3.27680 -3.27680 -3.27680 -3.27680
5.03 5.035490 0.0 193.250 4.9280 0.0960 0.1020 1.0 42.250 200.0 15.823530 500.0 197.0 15.823530 1755.750 890636.0 150.0 41.0 841486231.078020 0.0 0.0 0.0 0.0 0.0 0.0 0.0 -3.27680 -3.27680 -3.27680 -3.27680 -3.27680 -3.27680
