~VERSION INFORMATION SECTION
VERS. 2.0 : CWLS LAS-VERSION 2.0
WRAP. NO : One line per depth step
~WELL INFORMATION SECTION
# MNEM.UNIT VALUE/NAME DESCRIPTION
#-------- -------------- ---------------------
STRT.Metres 25 : Start
STOP.Metres -2.12 : Stop
STEP.Metres -0.01 : Step
NULL.  -999.25 :NULL VALUE
DATE. 2026-13-09 : DATE
~CURVE INFORMATION SECTION
DEPTH.Metres : 0 Depth
Depth. : 1 Depth
Tension. : 2 Tension
Time. : 3 Time
Speed. : 4 Speed
Voltage. : 5 Voltage
Current. : 6 Current
WET. : 7 WET
Sig. : 8 Sig
Vth. : 9 Vth
GR.CPS : 10 GR
Timebase.ms : 11 Timebase
HeadVoltage.V : 12 Head Voltage
API.API : 13 API
Conductivity.uS : 14 Conductivity
PT100.Ohms : 15 PT100
Vmon.mV : 16 Vmon
Status. : 17 Status
Temperature.C : 18 Temperature
Incline.Deg : 19 Incline
Azimuth.Deg : 20 Azimuth
RelativeBearing.Deg : 21 Relative Bearing
MagneticToolFace.Deg : 22 Magnetic Tool Face
GravityMagnitude.G : 23 Gravity Magnitude
MagnetometerMagnitude.H : 24 Magnetometer Magnitude
Temperature.C : 25 Temperature
GX. : 26 GX
GY. : 27 GY
GZ. : 28 GZ
HX. : 29 HX
HY. : 30 HY
HZ. : 31 HZ
~PARAMETER INFORMATION SECTION
~OTHER
#-------------------------------------------------
#Produced By: GeoVista Logger - Version 7.1.107.0
Verticality Sonde - 9605
Temperature and Conductivity Sonde - Inline - 8974
Natural Gamma Sonde - 9931
WLIS - 10021
#-------------------------------------------------
~ASCII LOG DATA
# ...
12.17 12.18830 0.0 66.533330 15.0440 0.0960 0.1020 1.0 39.923080 200.0 15.833330 500.0 197.0 15.833330 1913.50 889725.538460 157.583330 42.0 839768806.747190 0.0 0.0 0.0 0.0 0.0 0.0 0.0 -3.27680 -3.27680 -3.27680 -3.27680 -3.27680 -3.27680
12.16 12.179890 0.0 66.566670 15.031330 0.0960 0.1020 1.0 39.846150 200.0 15.0 500.0 197.0 15.0 1912.250 889726.692310 157.50 42.0 839770982.151980 0.0 0.0 0.0 0.0 0.0 0.0 0.0 -3.27680 -3.27680 -3.27680 -3.27680 -3.27680 -3.27680
12.15 12.171490 0.0 66.60 15.018670 0.0960 0.1020 1.0 39.769230 200.0 14.166670 500.0 197.0 14.166670 1911.0 889727.846150 157.416670 42.0 839773157.556770 0.0 0.0 0.0 0.0 0.0 0.0 0.0 -3.27680 -3.27680 -3.27680 -3.27680 -3.27680 -3.27680
12.14 12.159290 0.0 66.650 15.0060 0.0960 0.1020 1.0 39.692310 200.0 13.333330 500.0 197.0 13.333330 1911.461540 889729.0 157.333330 42.0 839775332.961560 0.0 0.0 0.0 0.0 0.0 0.0 0.0 -3.27680 -3.27680 -3.27680 -3.27680 -3.27680 -3.27680
12.13 12.147080 0.0 66.70 14.993330 0.0960 0.1020 1.0 39.615380 200.0 12.50 500.0 197.0 12.50 1911.923080 889730.333330 157.250 42.0 839777846.80640 0.0 0.0 0.0 0.0 0.0 0.0 0.0 -3.27680 -3.27680 -3.27680 -3.27680 -3.27680 -3.27680
12.12 12.138680 0.0 66.733330 14.980670 0.0960 0.1020 1.0 39.538460 200.0 11.666670 500.0 197.0 11.666670 1912.384620 889731.666670 157.166670 42.0 839780360.651230 0.0 0.0 0.0 0.0 0.0 0.0 0.0 -3.27680 -3.27680 -3.27680 -3.27680 -3.27680 -3.27680
12.11 12.130280 0.0 66.766670 14.9680 0.0960 0.1020 1.0 39.461540 200.0 10.833330 500.0 197.0 10.833330 1912.846150 889733.0 157.083330 42.0 839782874.496060 0.0 0.0 0.0 0.0 0.0 0.0 0.0 -3.27680 -3.27680 -3.27680 -3.27680 -3.27680 -3.27680
12.10 12.121870 0.0 66.80 14.955330 0.0960 0.1020 1.0 39.384620 200.0 10.0 500.0 197.0 10.0 1913.307690 889734.333330 157.0 42.0 839785388.340890 0.0 0.0 0.0 0.0 0.0 0.0 0.0 -3.27680 -3.27680 -3.27680 -3.27680 -3.27680 -3.27680
12.09 12.109270 0.0 66.850 14.942670 0.0960 0.1020 1.0 39.307690 200.0 9.846150 500.0 197.0 9.846150 1913.769230 889735.666670 157.076920 42.0 839787902.185720 0.0 0.0 0.0 0.0 0.0 0.0 0.0 -3.27680 -3.27680 -3.27680 -3.27680 -3.27680 -3.27680
12.08 12.096670 0.0 66.90 14.930 0.0960 0.1020 1.0 39.230770 200.0 9.692310 500.0 197.0 9.692310 1914.230770 889737.0 157.153850 42.0 839790416.030550 0.0 0.0 0.0 0.0 0.0 0.0 0.0 -3.27680 -3.27680 -3.27680 -3.27680 -3.27680 -3.27680
12.07 12.088530 0.0 66.933330 14.930 0.0960 0.1020 1.0 39.153850 200.0 9.538460 500.0 197.0 9.538460 1914.692310 889738.333330 157.230770 42.0 839792929.875380 0.0 0.0 0.0 0.0 0.0 0.0 0.0 -3.27680 -3.27680 -3.27680 -3.27680 -3.27680 -3.27680
12.06 12.080390 0.0 66.966670 14.930 0.0960 0.1020 1.0 39.076920 200.0 9.384620 500.0 197.0 9.384620 1915.153850 889739.666670 157.307690 42.0 839795443.720210 0.0 0.0 0.0 0.0 0.0 0.0 0.0 -3.27680 -3.27680 -3.27680 -3.27680 -3.27680 -3.27680
12.05 12.072260 0.0 67.0 14.930 0.0960 0.1020 1.0 39.0 200.0 9.230770 500.0 197.0 9.230770 1915.615380 889741.0 157.384620 42.0 839797957.565040 0.0 0.0 0.0 0.0 0.0 0.0 0.0 -3.27680 -3.27680 -3.27680 -3.27680 -3.27680 -3.27680
12.04 12.060050 0.0 67.050 14.930 0.0960 0.1020 1.0 39.083330 200.0 9.076920 500.0 197.0 9.076920 1916.076920 889742.333330 157.461540 42.0 839800471.409870 0.0 0.0 0.0 0.0 0.0 0.0 0.0 -3.27680 -3.27680 -3.27680 -3.27680 -3.27680 -3.27680
12.03 12.047840 0.0 67.10 14.930 0.0960 0.1020 1.0 39.166670 200.0 8.923080 500.0 197.0 8.923080 1916.538460 889743.666670 157.538460 42.0 839802985.25470 0.0 0.0 0.0 0.0 0.0 0.0 0.0 -3.27680 -3.27680 -3.27680 -3.27680 -3.27680 -3.27680
12.02 12.039440 0.0 67.133330 14.930 0.0960 0.1020 1.0 39.250 200.0 8.769230 500.0 197.0 8.769230 1917.0 889745.0 157.615380 42.0 839805499.099530 0.0 0.0 0.0 0.0 0.0 0.0 0.0 -3.27680 -3.27680 -3.27680 -3.27680 -3.27680 -3.27680
12.01 12.031040 0.0 67.166670 14.930 0.0960 0.1020 1.0 39.333330 200.0 8.615380 500.0 197.0 8.615380 1915.750 889746.153850 157.692310 42.0 839807674.580020 0.0 0.0 0.0 0.0 0.0 0.0 0.0 -3.27680 -3.27680 -3.27680 -3.27680 -3.27680 -3.27680
12.00 12.022640 0.0 67.20 14.930 0.0960 0.1020 1.0 39.416670 200.0 8.461540 500.0 197.0 8.461540 1914.50 889747.307690 157.769230 42.0 839809850.060520 0.0 0.0 0.0 0.0 0.0 0.0 0.0 -3.27680 -3.27680 -3.27680 -3.27680 -3.27680 -3.27680
11.99 12.010040 0.0 67.250 14.930 0.0960 0.1020 1.0 39.50 200.0 8.307690 500.0 197.0 8.307690 1913.250 889748.461540 157.846150 42.0 839812025.541010 0.0 0.0 0.0 0.0 0.0 0.0 0.0 -3.27680 -3.27680 -3.27680 -3.27680 -3.27680 -3.27680
11.98 11.997430 0.0 67.30 14.930 0.0960 0.1020 1.0 39.583330 200.0 8.153850 500.0 197.0 8.153850 1912.0 889749.615380 157.923080 42.0 839814201.02150 0.0 0.0 0.0 0.0 0.0 0.0 0.0 -3.27680 -3.27680 -3.27680 -3.27680 -3.27680 -3.27680
11.97 11.989030 0.0 67.333330 14.930 0.0960 0.1020 1.0 39.666670 200.0 8.0 500.0 197.0 8.0 1910.750 889750.769230 158.0 42.0 839816376.501990 0.0 0.0 0.0 0.0 0.0 0.0 0.0 -3.27680 -3.27680 -3.27680 -3.27680 -3.27680 -3.27680
11.96 11.980630 0.0 67.366670 14.930 0.0960 0.1020 1.0 39.750 200.0 8.50 500.0 197.0 8.50 1909.50 889751.923080 157.916670 42.0 839818551.982490 0.0 0.0 0.0 0.0 0.0 0.0 0.0 -3.27680 -3.27680 -3.27680 -3.27680 -3.27680 -3.27680
11.95 11.972230 0.0 67.40 14.930 0.0960 0.1020 1.0 39.833330 200.0 9.0 500.0 197.0 9.0 1908.250 889753.076920 157.833330 42.0 839820727.462980 0.0 0.0 0.0 0.0 0.0 0.0 0.0 -3.27680 -3.27680 -3.27680 -3.27680 -3.27680 -3.27680
11.94 11.959630 0.0 67.450 14.930 0.0960 0.1020 1.0 39.916670 200.0 9.50 500.769230 197.0 9.50 1907.0 889754.230770 157.750 42.0 839822902.943470 0.0 0.0 0.0 0.0 0.0 0.0 0.0 -3.27680 -3.27680 -3.27680 -3.27680 -3.27680 -3.27680
11.93 11.947030 0.0 67.50 14.930 0.0960 0.1020 1.0 40.0 200.0 10.0 501.538460 197.0 10.0 1905.750 889755.384620 157.666670 42.0 839825078.423960 0.0 0.0 0.0 0.0 0.0 0.0 0.0 -3.27680 -3.27680 -3.27680 -3.27680 -3.27680 -3.27680
11.92 11.938630 0.0 67.533330 14.939330 0.0960 0.1020 1.0 40.0 200.0 10.50 502.307690 197.0 10.50 1904.50 889756.538460 157.583330 42.0 839827253.904460 0.0 0.0 0.0 0.0 0.0 0.0 0.0 -3.27680 -3.27680 -3.27680 -3.27680 -3.27680 -3.27680
11.91 11.930230 0.0 67.566670 14.948670 0.0960 0.1020 1.0 40.0 200.0 11.0 503.076920 197.0 11.0 1903.250 889757.692310 157.50 42.0 839829429.384950 0.0 0.0 0.0 0.0 0.0 0.0 0.0 -3.27680 -3.27680 -3.27680 -3.27680 -3.27680 -3.27680
11.90 11.921830 0.0 67.60 14.9580 0.0960 0.1020 1.0 40.0 200.0 11.50 503.846150 197.0 11.50 1902.0 889758.846150 157.416670 42.0 839831604.865440 0.0 0.0 0.0 0.0 0.0 0.0 0.0 -3.27680 -3.27680 -3.27680 -3.27680 -3.27680 -3.27680
11.89 11.909220 0.0 67.650 14.967330 0.0960 0.1020 1.0 40.0 200.0 12.0 504.615380 197.0 12.0 1901.076920 889760.0 157.333330 42.0 839833780.345930 0.0 0.0 0.0 0.0 0.0 0.0 0.0 -3.27680 -3.27680 -3.27680 -3.27680 -3.27680 -3.27680
11.88 11.896620 0.0 67.70 14.976670 0.0960 0.1020 1.0 40.0 200.0 12.50 505.384620 197.0 12.50 1900.153850 889761.50 157.250 42.0 839836608.522960 0.0 0.0 0.0 0.0 0.0 0.0 0.0 -3.27680 -3.27680 -3.27680 -3.27680 -3.27680 -3.27680
11.87 11.888220 0.0 67.733330 14.9860 0.0960 0.1020 1.0 40.0 200.0 13.0 506.153850 197.0 13.0 1899.230770 889763.0 157.166670 42.0 839839436.699980 0.0 0.0 0.0 0.0 0.0 0.0 0.0 -3.27680 -3.27680 -3.27680 -3.27680 -3.27680 -3.27680
11.86 11.879820 0.0 67.766670 14.995330 0.0960 0.1020 1.0 40.0 200.0 13.50 506.923080 197.0 13.50 1898.307690 889764.50 157.083330 42.0 839842264.8770 0.0 0.0 0.0 0.0 0.0 0.0 0.0 -3.27680 -3.27680 -3.27680 -3.27680 -3.27680 -3.27680
11.85 11.871420 0.0 67.80 15.004670 0.0960 0.1020 1.0 40.0 200.0 14.0 507.692310 197.0 14.0 1897.384620 889766.0 157.0 42.0 839845093.054020 0.0 0.0 0.0 0.0 0.0 0.0 0.0 -3.27680 -3.27680 -3.27680 -3.27680 -3.27680 -3.27680
11.84 11.859210 0.0 67.850 15.0140 0.0960 0.1020 1.0 40.0 200.0 13.224740 508.461540 197.0 13.224740 1896.461540 889767.50 157.0 42.0 839847921.231040 0.0 0.0 0.0 0.0 0.0 0.0 0.0 -3.27680 -3.27680 -3.27680 -3.27680 -3.27680 -3.27680
11.83 11.8470 0.0 67.90 15.023330 0.0960 0.1020 1.0 40.0 200.0 12.449470 509.230770 197.0 12.449470 1895.538460 889769.0 157.0 42.0 839850749.408060 0.0 0.0 0.0 0.0 0.0 0.0 0.0 -3.27680 -3.27680 -3.27680 -3.27680 -3.27680 -3.27680
