~VERSION INFORMATION SECTION
VERS. 2.0 : CWLS LAS-VERSION 2.0
WRAP. NO : One line per depth step
~WELL INFORMATION SECTION
# MNEM.UNIT VALUE/NAME DESCRIPTION
#-------- -------------- ---------------------
STRT.Metres 2 : Start
STOP.Metres 22.45 : Stop
STEP.Metres 0.01 : Step
NULL.  -999.25 :NULL VALUE
DATE. 2026-02-09 : DATE
~CURVE INFORMATION SECTION
DEPTH.Metres : 0 Depth
Depth. : 1 Depth
Tension. : 2 Tension
Time. : 3 Time
Speed. : 4 Speed
Voltage. : 5 Voltage
Current. : 6 Current
WET. : 7 WET
Sig. : 8 Sig
Vth. : 9 Vth
GR.CPS : 10 GR
Timebase.ms : 11 Timebase
HeadVoltage.V : 12 Head Voltage
API.API : 13 API
Conductivity.uS : 14 Conductivity
PT100.Ohms : 15 PT100
Vmon.mV : 16 Vmon
Status. : 17 Status
Temperature.C : 18 Temperature
Incline.Deg : 19 Incline
Azimuth.Deg : 20 Azimuth
RelativeBearing.Deg : 21 Relative Bearing
MagneticToolFace.Deg : 22 Magnetic Tool Face
GravityMagnitude.G : 23 Gravity Magnitude
MagnetometerMagnitude.H : 24 Magnetometer Magnitude
Temperature.C : 25 Temperature
GX. : 26 GX
GY. : 27 GY
GZ. : 28 GZ
HX. : 29 HX
HY. : 30 HY
HZ. : 31 HZ
~PARAMETER INFORMATION SECTION
~OTHER
#-------------------------------------------------
#Produced By: GeoVista Logger - Version 7.1.107.0
Verticality Sonde - 6292
Temperature and Conductivity Sonde - Inline - 8974
Natural Gamma Sonde - 9931
WLIS - 10024
#-------------------------------------------------
~ASCII LOG DATA
# ...
19.37 19.370110 0.0 115.20 10.040 0.0960 0.1040 1.0 19.0 100.0 13.111110 500.0 196.0 13.111110 108.840160 109.494740 152.0 43.0 24.378620 0.20 295.5750 233.30 169.21250 1.79210 6.001630 21.83250 -0.003420 -0.004650 1.7920 0.246310 -0.046450 -0.546310
19.38 19.378380 0.0 115.250 10.050 0.0960 0.1040 1.0 18.888890 100.0 12.0 500.0 196.0 12.0 109.329150 109.494510 152.0 43.0 24.378030 0.20 295.750 233.10 169.1750 1.79210 5.998750 21.8350 -0.00340 -0.00470 1.7920 0.246850 -0.04630 -0.546750
19.39 19.386650 0.0 115.30 10.060 0.0960 0.1040 1.0 18.777780 100.0 12.950980 500.0 196.0 12.950980 109.818150 109.494090 151.8750 43.0 24.376970 0.20 295.9250 232.90 169.13750 1.79210 5.995880 21.83750 -0.003370 -0.004750 1.7920 0.247390 -0.046150 -0.547190
19.40 19.403190 0.0 115.40 10.0460 0.0960 0.1040 1.0 18.666670 100.0 13.901960 500.0 196.0 13.901960 110.307150 109.493680 151.750 43.0 24.37590 0.20 296.10 232.70 169.10 1.79210 5.9930 21.840 -0.003350 -0.00480 1.7920 0.247930 -0.0460 -0.547630
19.41 19.411460 0.0 115.450 10.0320 0.0960 0.1040 1.0 18.555560 100.0 14.852940 500.0 196.0 14.852940 110.796140 109.493270 151.6250 43.0 24.374830 0.20 295.588890 233.311110 169.20 1.792110 5.998330 21.840 -0.003320 -0.004850 1.7920 0.248460 -0.045850 -0.548060
19.42 19.419730 0.0 115.50 10.0180 0.0960 0.1040 1.0 18.444440 100.0 15.803920 500.0 196.0 15.803920 111.285140 109.492850 151.50 43.0 24.373760 0.20 295.077780 233.922220 169.30 1.792120 6.003670 21.840 -0.00330 -0.00490 1.7920 0.2490 -0.04570 -0.54850
19.43 19.428390 0.0 115.550 10.0040 0.0960 0.1040 1.0 18.333330 100.0 16.75490 500.0 196.0 16.75490 111.774140 109.492440 151.3750 43.0 24.37270 0.20 294.566670 234.533330 169.40 1.792130 6.0090 21.840 -0.003310 -0.004950 1.792010 0.248840 -0.04540 -0.548130
19.44 19.437060 0.0 115.60 9.990 0.0960 0.1040 1.0 18.222220 100.0 17.705880 500.0 196.0 17.705880 111.473410 109.492020 151.250 43.0 24.371630 0.20 294.055560 235.144440 169.50 1.792140 6.014330 21.840 -0.003320 -0.0050 1.792030 0.248680 -0.04510 -0.547750
19.45 19.452810 0.0 115.70 9.9760 0.0960 0.1020 1.0 18.111110 100.0 18.656860 500.0 196.0 18.656860 111.172670 109.491610 151.1250 43.0 24.370560 0.20 293.544440 235.755560 169.60 1.792160 6.019670 21.840 -0.003340 -0.005050 1.792040 0.248510 -0.04480 -0.547380
19.46 19.461080 0.0 115.750 9.9620 0.0960 0.1030 1.0 18.0 100.0 19.607840 500.0 196.0 19.607840 110.871940 109.491190 151.0 43.0 24.36950 0.20 293.033330 236.366670 169.70 1.792170 6.0250 21.840 -0.003350 -0.00510 1.792050 0.248350 -0.04450 -0.5470
19.47 19.469350 0.0 115.80 9.9480 0.0960 0.1040 1.0 18.1250 100.0 20.156860 500.0 196.0 20.156860 110.571210 109.490990 151.0 43.0 24.368980 0.20 292.522220 236.977780 169.80 1.792180 6.030330 21.840 -0.003360 -0.005150 1.792060 0.248190 -0.04420 -0.546630
19.48 19.478010 0.0 115.850 9.9340 0.0960 0.1040 1.0 18.250 100.0 20.705880 500.0 196.0 20.705880 110.270470 109.490790 151.0 43.0 24.368460 0.20 292.011110 237.588890 169.90 1.792190 6.035670 21.840 -0.003380 -0.00520 1.792080 0.248030 -0.04390 -0.546250
19.49 19.486680 0.0 115.90 9.920 0.0960 0.1040 1.0 18.3750 100.0 21.25490 501.250 196.0 21.25490 109.969740 109.490590 151.0 43.0 24.367940 0.20 291.50 238.20 170.0 1.79220 6.0410 21.840 -0.003390 -0.005250 1.792090 0.247860 -0.04360 -0.545880
19.50 19.494950 0.0 115.950 9.9290 0.0960 0.1040 1.0 18.50 100.0 21.803920 502.50 196.0 21.803920 109.669010 109.490390 151.0 43.0 24.367430 0.20 291.61250 238.08750 170.01250 1.792210 6.036750 21.83750 -0.00340 -0.00530 1.79210 0.24770 -0.04330 -0.54550
19.51 19.503210 0.0 116.0 9.9380 0.0960 0.1040 1.0 18.6250 100.0 22.352940 503.750 196.0 22.352940 109.368270 109.490190 151.0 43.0 24.366910 0.20 291.7250 237.9750 170.0250 1.792230 6.03250 21.8350 -0.003460 -0.005330 1.792110 0.248210 -0.043340 -0.5460
19.52 19.520540 0.0 116.10 9.9470 0.0960 0.1040 1.0 18.750 100.0 22.901960 505.0 196.0 22.901960 109.566320 109.489990 151.0 43.0 24.366390 0.20 291.83750 237.86250 170.03750 1.792240 6.028250 21.83250 -0.003510 -0.005370 1.792120 0.248720 -0.043390 -0.54650
19.53 19.528810 0.0 116.150 9.9560 0.0960 0.1040 1.0 18.8750 100.0 23.450980 506.250 196.0 23.450980 109.764360 109.489790 151.0 43.0 24.365870 0.20 291.950 237.750 170.050 1.792250 6.0240 21.830 -0.003570 -0.00540 1.792130 0.249230 -0.043430 -0.5470
19.54 19.537080 0.0 116.20 9.9650 0.0960 0.1040 1.0 19.0 100.0 24.0 507.50 196.0 24.0 109.96240 109.489590 151.0 43.0 24.365350 0.20 292.06250 237.63750 170.06250 1.792260 6.019750 21.82750 -0.003620 -0.005430 1.792140 0.249740 -0.043480 -0.54750
19.55 19.545350 0.0 116.250 9.9740 0.0960 0.1040 1.0 18.8750 100.0 23.333330 508.750 196.0 23.333330 110.160450 109.489390 151.0 43.0 24.364840 0.20 292.1750 237.5250 170.0750 1.792280 6.01550 21.8250 -0.003680 -0.005470 1.792160 0.250260 -0.043520 -0.5480
19.56 19.553620 0.0 116.30 9.9830 0.0960 0.1040 1.0 18.750 100.0 22.666670 510.0 196.0 22.666670 110.358490 109.489120 151.0 43.0 24.364160 0.20 292.28750 237.41250 170.08750 1.792290 6.011250 21.82250 -0.003730 -0.00550 1.792170 0.250770 -0.043570 -0.54850
19.57 19.570160 0.0 116.40 9.9920 0.0960 0.1040 1.0 18.6250 100.0 22.0 508.750 196.0 22.0 110.556540 109.488860 151.0 43.0 24.363480 0.20 292.40 237.30 170.10 1.79230 6.0070 21.820 -0.003790 -0.005530 1.792180 0.251280 -0.043610 -0.5490
19.58 19.578820 0.0 116.450 10.0010 0.0960 0.1030 1.0 18.50 100.0 21.333330 507.50 196.0 21.333330 110.754580 109.488590 151.0 43.0 24.36280 0.20 292.73750 236.950 170.08750 1.79230 6.01750 21.820 -0.003840 -0.005570 1.792190 0.251790 -0.043660 -0.54950
19.59 19.587490 0.0 116.50 10.010 0.0960 0.1020 1.0 18.3750 100.0 20.666670 506.250 196.0 20.666670 110.952620 109.488330 151.0 43.0 24.362120 0.20 293.0750 236.60 170.0750 1.79230 6.0280 21.820 -0.00390 -0.00560 1.79220 0.25230 -0.04370 -0.550
19.60 19.596150 0.0 116.550 10.0240 0.0960 0.1030 1.0 18.250 100.0 20.0 505.0 196.0 20.0 111.285140 109.488070 151.0 43.0 24.361440 0.20 293.41250 236.250 170.06250 1.79230 6.03850 21.820 -0.003940 -0.005650 1.79220 0.25330 -0.044090 -0.550330
19.61 19.604810 0.0 116.60 10.0380 0.0960 0.1040 1.0 18.1250 100.0 19.333330 503.750 196.0 19.333330 111.617660 109.48780 151.0 43.0 24.360760 0.20 293.750 235.90 170.050 1.79230 6.0490 21.820 -0.003970 -0.00570 1.79220 0.25430 -0.044470 -0.550650
19.62 19.621350 0.0 116.70 10.0520 0.0960 0.1040 1.0 18.0 100.0 18.666670 502.50 196.0 18.666670 111.950180 109.487540 151.0 43.0 24.360080 0.20 294.08750 235.550 170.03750 1.79230 6.05950 21.820 -0.004010 -0.005750 1.79220 0.25530 -0.044860 -0.550980
19.63 19.629620 0.0 116.750 10.0660 0.0960 0.1040 1.0 18.0 100.0 18.0 501.250 196.0 18.0 112.28270 109.487280 151.0 43.0 24.35940 0.20 294.4250 235.20 170.0250 1.79230 6.070 21.820 -0.004050 -0.00580 1.79220 0.25630 -0.045250 -0.55130
19.64 19.637890 0.0 116.80 10.080 0.0960 0.1040 1.0 18.0 100.0 19.50 500.0 196.0 19.50 112.615210 109.487050 151.1250 43.0 24.358820 0.20 294.76250 234.850 170.01250 1.79230 6.08050 21.820 -0.004090 -0.005850 1.79220 0.25730 -0.045640 -0.551630
19.65 19.646160 0.0 116.850 10.0940 0.0960 0.1040 1.0 18.0 100.0 21.0 500.0 196.0 21.0 112.947730 109.486820 151.250 43.0 24.358240 0.20 295.10 234.50 170.0 1.79230 6.0910 21.820 -0.004120 -0.00590 1.79220 0.25830 -0.046030 -0.551950
19.66 19.654430 0.0 116.90 10.1080 0.0960 0.1040 1.0 18.0 100.0 22.50 500.0 196.0 22.50 113.280250 109.48660 151.3750 43.0 24.357660 0.20 295.033330 234.544440 169.977780 1.79230 6.094890 21.820 -0.004160 -0.005950 1.79220 0.25930 -0.046410 -0.552280
19.67 19.670190 0.0 117.0 10.1220 0.0960 0.1040 1.0 18.0 100.0 24.0 500.0 196.0 24.0 113.612770 109.486370 151.50 43.0 24.357070 0.20 294.966670 234.588890 169.955560 1.79230 6.098780 21.820 -0.00420 -0.0060 1.79220 0.26030 -0.04680 -0.55260
19.68 19.678450 0.0 117.050 10.1360 0.0960 0.1040 1.0 18.0 100.0 25.50 500.0 196.0 25.50 113.945290 109.486150 151.6250 43.0 24.356490 0.20 294.90 234.633330 169.933330 1.79230 6.102670 21.820 -0.004190 -0.006010 1.79220 0.260540 -0.046830 -0.552330
