~VERSION INFORMATION SECTION
VERS. 2.0 : CWLS LAS-VERSION 2.0
WRAP. NO : One line per depth step
~WELL INFORMATION SECTION
# MNEM.UNIT VALUE/NAME DESCRIPTION
#-------- -------------- ---------------------
STRT.Metres 26 : Start
STOP.Metres -2.05 : Stop
STEP.Metres -0.01 : Step
NULL.  -999.25 :NULL VALUE
DATE. 2026-29-09 : DATE
~CURVE INFORMATION SECTION
DEPTH.Metres : 0 Depth
Depth. : 1 Depth
Tension. : 2 Tension
Time. : 3 Time
Speed. : 4 Speed
Voltage. : 5 Voltage
Current. : 6 Current
WET. : 7 WET
Sig. : 8 Sig
Vth. : 9 Vth
GR.CPS : 10 GR
Timebase.ms : 11 Timebase
HeadVoltage.V : 12 Head Voltage
API.API : 13 API
Conductivity.uS : 14 Conductivity
PT100.Ohms : 15 PT100
Vmon.mV : 16 Vmon
Status. : 17 Status
Temperature.C : 18 Temperature
Incline.Deg : 19 Incline
Azimuth.Deg : 20 Azimuth
RelativeBearing.Deg : 21 Relative Bearing
MagneticToolFace.Deg : 22 Magnetic Tool Face
GravityMagnitude.G : 23 Gravity Magnitude
MagnetometerMagnitude.H : 24 Magnetometer Magnitude
Temperature.C : 25 Temperature
GX. : 26 GX
GY. : 27 GY
GZ. : 28 GZ
HX. : 29 HX
HY. : 30 HY
HZ. : 31 HZ
~PARAMETER INFORMATION SECTION
~OTHER
#-------------------------------------------------
#Produced By: GeoVista Logger - Version 7.1.107.0
Verticality Sonde - 9605
Temperature and Conductivity Sonde - Inline - 8974
Natural Gamma Sonde - 9931
WLIS - 10021
#-------------------------------------------------
~ASCII LOG DATA
# ...
11.14 11.16180 0.0 158.20 15.026670 0.0960 0.1020 1.0 39.0 200.0 13.230770 500.0 197.0 13.230770 2173.692310 889776.750 161.0 43.0 839865361.649920 0.0 0.0 0.0 0.0 0.0 0.0 0.0 -3.27680 -3.27680 -3.27680 -3.27680 -3.27680 -3.27680
11.13 11.149590 0.0 158.250 15.023330 0.0960 0.1020 1.0 39.0 200.0 13.076920 500.0 197.0 13.076920 2172.461540 889777.50 161.0 43.0 839866775.747160 0.0 0.0 0.0 0.0 0.0 0.0 0.0 -3.27680 -3.27680 -3.27680 -3.27680 -3.27680 -3.27680
11.12 11.137380 0.0 158.30 15.020 0.0960 0.1020 1.0 39.0 200.0 12.923080 500.0 197.0 12.923080 2171.230770 889778.250 161.0 43.0 839868189.84440 0.0 0.0 0.0 0.0 0.0 0.0 0.0 -3.27680 -3.27680 -3.27680 -3.27680 -3.27680 -3.27680
11.11 11.128980 0.0 158.333330 15.016670 0.0960 0.1020 1.0 39.0 200.0 12.769230 500.0 197.0 12.769230 2170.0 889779.0 161.0 43.0 839869603.941640 0.0 0.0 0.0 0.0 0.0 0.0 0.0 -3.27680 -3.27680 -3.27680 -3.27680 -3.27680 -3.27680
11.10 11.120580 0.0 158.366670 15.013330 0.0960 0.1020 1.0 39.0 200.0 12.615380 500.0 197.0 12.615380 2169.166670 889780.153850 161.0 43.0 839871779.505160 0.0 0.0 0.0 0.0 0.0 0.0 0.0 -3.27680 -3.27680 -3.27680 -3.27680 -3.27680 -3.27680
11.09 11.112180 0.0 158.40 15.010 0.0960 0.1020 1.0 39.0 200.0 12.461540 500.0 197.0 12.461540 2168.333330 889781.307690 161.0 43.0 839873955.068690 0.0 0.0 0.0 0.0 0.0 0.0 0.0 -3.27680 -3.27680 -3.27680 -3.27680 -3.27680 -3.27680
11.08 11.099580 0.0 158.450 15.006670 0.0960 0.1020 1.0 39.0 200.0 12.307690 500.0 197.0 12.307690 2167.50 889782.461540 161.0 43.0 839876130.632210 0.0 0.0 0.0 0.0 0.0 0.0 0.0 -3.27680 -3.27680 -3.27680 -3.27680 -3.27680 -3.27680
11.07 11.086970 0.0 158.50 15.003330 0.0960 0.1020 1.0 39.0 200.0 12.153850 500.0 197.0 12.153850 2166.666670 889783.615380 161.0 43.0 839878306.195730 0.0 0.0 0.0 0.0 0.0 0.0 0.0 -3.27680 -3.27680 -3.27680 -3.27680 -3.27680 -3.27680
11.06 11.078840 0.0 158.533330 15.0 0.0960 0.1020 1.0 39.0 200.0 12.0 500.0 197.0 12.0 2165.833330 889784.769230 161.0 43.0 839880481.759250 0.0 0.0 0.0 0.0 0.0 0.0 0.0 -3.27680 -3.27680 -3.27680 -3.27680 -3.27680 -3.27680
11.05 11.07070 0.0 158.566670 14.996670 0.0960 0.1020 1.0 39.0 200.0 12.0 500.0 197.0 12.0 2165.0 889785.923080 161.0 43.0 839882657.322770 0.0 0.0 0.0 0.0 0.0 0.0 0.0 -3.27680 -3.27680 -3.27680 -3.27680 -3.27680 -3.27680
11.04 11.062560 0.0 158.60 14.993330 0.0960 0.1020 1.0 39.0 200.0 12.0 500.0 197.0 12.0 2164.166670 889787.076920 161.0 43.0 839884832.886290 0.0 0.0 0.0 0.0 0.0 0.0 0.0 -3.27680 -3.27680 -3.27680 -3.27680 -3.27680 -3.27680
11.03 11.049960 0.0 158.650 14.990 0.0960 0.1020 1.0 39.0 200.0 12.0 500.0 197.0 12.0 2163.333330 889788.230770 161.0 43.0 839887008.449810 0.0 0.0 0.0 0.0 0.0 0.0 0.0 -3.27680 -3.27680 -3.27680 -3.27680 -3.27680 -3.27680
11.02 11.037360 0.0 158.70 14.986670 0.0960 0.1020 1.0 39.0 200.0 12.0 500.0 197.0 12.0 2162.50 889789.384620 161.0 43.0 839889184.013330 0.0 0.0 0.0 0.0 0.0 0.0 0.0 -3.27680 -3.27680 -3.27680 -3.27680 -3.27680 -3.27680
11.01 11.029220 0.0 158.733330 14.983330 0.0960 0.1020 1.0 39.0 200.0 12.0 500.0 197.0 12.0 2161.666670 889790.538460 161.0 43.0 839891359.576850 0.0 0.0 0.0 0.0 0.0 0.0 0.0 -3.27680 -3.27680 -3.27680 -3.27680 -3.27680 -3.27680
11.00 11.021080 0.0 158.766670 14.980 0.0960 0.1020 1.0 39.0 200.0 12.0 500.0 197.0 12.0 2160.833330 889791.692310 161.0 43.0 839893535.140370 0.0 0.0 0.0 0.0 0.0 0.0 0.0 -3.27680 -3.27680 -3.27680 -3.27680 -3.27680 -3.27680
10.99 11.012940 0.0 158.80 14.976670 0.0960 0.1020 1.0 39.0 200.0 12.0 500.0 197.0 12.0 2160.0 889792.846150 161.0 43.0 839895710.703890 0.0 0.0 0.0 0.0 0.0 0.0 0.0 -3.27680 -3.27680 -3.27680 -3.27680 -3.27680 -3.27680
10.98 11.000340 0.0 158.850 14.973330 0.0960 0.1020 1.0 39.0 200.0 12.0 500.0 197.0 12.0 2158.692310 889794.0 161.0 43.0 839897886.267410 0.0 0.0 0.0 0.0 0.0 0.0 0.0 -3.27680 -3.27680 -3.27680 -3.27680 -3.27680 -3.27680
10.97 10.987740 0.0 158.90 14.970 0.0960 0.1020 1.0 39.0 200.0 12.0 500.0 197.0 12.0 2157.384620 889795.666670 161.0 43.0 839901028.809780 0.0 0.0 0.0 0.0 0.0 0.0 0.0 -3.27680 -3.27680 -3.27680 -3.27680 -3.27680 -3.27680
10.96 10.979340 0.0 158.933330 14.970 0.0960 0.1020 1.0 39.0 200.0 12.0 500.0 197.0 12.0 2156.076920 889797.333330 161.0 43.0 839904171.352150 0.0 0.0 0.0 0.0 0.0 0.0 0.0 -3.27680 -3.27680 -3.27680 -3.27680 -3.27680 -3.27680
10.95 10.970940 0.0 158.966670 14.970 0.0960 0.1020 1.0 39.0 200.0 12.0 500.0 197.0 12.0 2154.769230 889799.0 161.0 43.0 839907313.894520 0.0 0.0 0.0 0.0 0.0 0.0 0.0 -3.27680 -3.27680 -3.27680 -3.27680 -3.27680 -3.27680
10.94 10.962530 0.0 159.0 14.970 0.0960 0.1020 1.0 39.0 200.0 12.0 500.0 197.0 12.0 2153.461540 889800.666670 161.0 43.0 839910456.436890 0.0 0.0 0.0 0.0 0.0 0.0 0.0 -3.27680 -3.27680 -3.27680 -3.27680 -3.27680 -3.27680
10.93 10.949930 0.0 159.050 14.970 0.0960 0.1020 1.0 39.0 200.0 12.923080 500.0 197.0 12.923080 2152.153850 889802.333330 161.0 43.0 839913598.979260 0.0 0.0 0.0 0.0 0.0 0.0 0.0 -3.27680 -3.27680 -3.27680 -3.27680 -3.27680 -3.27680
10.92 10.937330 0.0 159.10 14.970 0.0960 0.1020 1.0 39.0 200.0 13.846150 500.0 197.0 13.846150 2150.846150 889804.0 161.0 43.0 839916741.521630 0.0 0.0 0.0 0.0 0.0 0.0 0.0 -3.27680 -3.27680 -3.27680 -3.27680 -3.27680 -3.27680
10.91 10.928930 0.0 159.133330 14.970 0.0960 0.1020 1.0 39.0 200.0 14.769230 500.0 197.0 14.769230 2149.538460 889805.666670 161.0 43.0 839919884.0640 0.0 0.0 0.0 0.0 0.0 0.0 0.0 -3.27680 -3.27680 -3.27680 -3.27680 -3.27680 -3.27680
10.90 10.920530 0.0 159.166670 14.970 0.0960 0.1020 1.0 39.0 200.0 15.692310 500.0 197.0 15.692310 2148.230770 889807.333330 161.0 43.0 839923026.606370 0.0 0.0 0.0 0.0 0.0 0.0 0.0 -3.27680 -3.27680 -3.27680 -3.27680 -3.27680 -3.27680
10.89 10.912130 0.0 159.20 14.970 0.0960 0.1020 1.0 39.0 200.0 16.615380 500.0 197.0 16.615380 2146.923080 889809.0 161.0 43.0 839926169.148740 0.0 0.0 0.0 0.0 0.0 0.0 0.0 -3.27680 -3.27680 -3.27680 -3.27680 -3.27680 -3.27680
10.88 10.899530 0.0 159.250 14.970 0.0960 0.1020 1.0 38.916670 200.0 17.538460 500.0 197.0 17.538460 2145.615380 889810.666670 161.0 43.0 839929311.691110 0.0 0.0 0.0 0.0 0.0 0.0 0.0 -3.27680 -3.27680 -3.27680 -3.27680 -3.27680 -3.27680
10.87 10.886930 0.0 159.30 14.970 0.0960 0.1020 1.0 38.833330 200.0 18.461540 500.0 197.0 18.461540 2144.307690 889812.333330 161.0 43.0 839932454.233480 0.0 0.0 0.0 0.0 0.0 0.0 0.0 -3.27680 -3.27680 -3.27680 -3.27680 -3.27680 -3.27680
10.86 10.878520 0.0 159.333330 14.970 0.0960 0.1020 1.0 38.750 200.0 19.384620 500.0 197.0 19.384620 2143.0 889814.0 161.0 43.0 839935596.775850 0.0 0.0 0.0 0.0 0.0 0.0 0.0 -3.27680 -3.27680 -3.27680 -3.27680 -3.27680 -3.27680
10.85 10.870120 0.0 159.366670 14.970 0.0960 0.1020 1.0 38.666670 200.0 20.307690 500.0 197.0 20.307690 2143.583330 889814.923080 161.0 43.0 839937337.292110 0.0 0.0 0.0 0.0 0.0 0.0 0.0 -3.27680 -3.27680 -3.27680 -3.27680 -3.27680 -3.27680
10.84 10.861720 0.0 159.40 14.970 0.0960 0.1020 1.0 38.583330 200.0 21.230770 500.0 197.0 21.230770 2144.166670 889815.846150 161.0 43.0 839939077.808370 0.0 0.0 0.0 0.0 0.0 0.0 0.0 -3.27680 -3.27680 -3.27680 -3.27680 -3.27680 -3.27680
10.83 10.849120 0.0 159.450 14.970 0.0960 0.1020 1.0 38.50 200.0 22.153850 500.0 197.0 22.153850 2144.750 889816.769230 161.0 43.0 839940818.324630 0.0 0.0 0.0 0.0 0.0 0.0 0.0 -3.27680 -3.27680 -3.27680 -3.27680 -3.27680 -3.27680
10.82 10.836520 0.0 159.50 14.970 0.0960 0.1020 1.0 38.416670 200.0 23.076920 500.0 197.0 23.076920 2145.333330 889817.692310 161.0 43.0 839942558.840890 0.0 0.0 0.0 0.0 0.0 0.0 0.0 -3.27680 -3.27680 -3.27680 -3.27680 -3.27680 -3.27680
10.81 10.828120 0.0 159.533330 14.973330 0.0960 0.1020 1.0 38.333330 200.0 24.0 500.0 197.0 24.0 2145.916670 889818.615380 161.0 43.0 839944299.357160 0.0 0.0 0.0 0.0 0.0 0.0 0.0 -3.27680 -3.27680 -3.27680 -3.27680 -3.27680 -3.27680
10.80 10.819720 0.0 159.566670 14.976670 0.0960 0.1020 1.0 38.250 200.0 23.0 500.0 197.0 23.0 2146.50 889819.538460 161.0 43.0 839946039.873420 0.0 0.0 0.0 0.0 0.0 0.0 0.0 -3.27680 -3.27680 -3.27680 -3.27680 -3.27680 -3.27680
10.79 10.811320 0.0 159.60 14.980 0.0960 0.1020 1.0 38.166670 200.0 22.0 500.0 197.0 22.0 2147.083330 889820.461540 161.0 43.0 839947780.389680 0.0 0.0 0.0 0.0 0.0 0.0 0.0 -3.27680 -3.27680 -3.27680 -3.27680 -3.27680 -3.27680
