~VERSION INFORMATION SECTION
VERS. 2.0 : CWLS LAS-VERSION 2.0
WRAP. NO : One line per depth step
~WELL INFORMATION SECTION
# MNEM.UNIT VALUE/NAME DESCRIPTION
#-------- -------------- ---------------------
STRT.Metres 26 : Start
STOP.Metres -2.05 : Stop
STEP.Metres -0.01 : Step
NULL.  -999.25 :NULL VALUE
DATE. 2026-48-09 : DATE
~CURVE INFORMATION SECTION
DEPTH.Metres : 0 Depth
Depth. : 1 Depth
Tension. : 2 Tension
Time. : 3 Time
Speed. : 4 Speed
Voltage. : 5 Voltage
Current. : 6 Current
WET. : 7 WET
Sig. : 8 Sig
Vth. : 9 Vth
GR.CPS : 10 GR
Timebase.ms : 11 Timebase
HeadVoltage.V : 12 Head Voltage
API.API : 13 API
Conductivity.uS : 14 Conductivity
PT100.Ohms : 15 PT100
Vmon.mV : 16 Vmon
Status. : 17 Status
Temperature.C : 18 Temperature
Incline.Deg : 19 Incline
Azimuth.Deg : 20 Azimuth
RelativeBearing.Deg : 21 Relative Bearing
MagneticToolFace.Deg : 22 Magnetic Tool Face
GravityMagnitude.G : 23 Gravity Magnitude
MagnetometerMagnitude.H : 24 Magnetometer Magnitude
Temperature.C : 25 Temperature
GX. : 26 GX
GY. : 27 GY
GZ. : 28 GZ
HX. : 29 HX
HY. : 30 HY
HZ. : 31 HZ
~PARAMETER INFORMATION SECTION
~OTHER
#-------------------------------------------------
#Produced By: GeoVista Logger - Version 7.1.107.0
Verticality Sonde - 9605
Temperature and Conductivity Sonde - Inline - 8974
Natural Gamma Sonde - 9931
WLIS - 10021
#-------------------------------------------------
~ASCII LOG DATA
# ...
22.96 22.977560 0.0 22.933330 15.0720 0.0960 0.1020 1.0 0.0 200.0 18.50 500.0 197.0 18.50 17811.666670 889047.250 133.416670 41.0 838490476.054790 0.0 0.0 0.0 0.0 0.0 0.0 0.0 -3.27680 -3.27680 -3.27680 -3.27680 -3.27680 -3.27680
22.95 22.969160 0.0 22.966670 15.0560 0.0960 0.1020 1.0 0.0 200.0 19.0 500.0 197.0 19.0 17805.833330 889047.50 133.50 41.0 838490947.035350 0.0 0.0 0.0 0.0 0.0 0.0 0.0 -3.27680 -3.27680 -3.27680 -3.27680 -3.27680 -3.27680
22.94 22.960760 0.0 23.0 15.040 0.0960 0.1020 1.0 0.0 200.0 19.50 500.0 197.0 19.50 17800.0 889047.750 133.583330 41.0 838491418.015910 0.0 0.0 0.0 0.0 0.0 0.0 0.0 -3.27680 -3.27680 -3.27680 -3.27680 -3.27680 -3.27680
22.93 22.948160 0.0 23.050 15.0240 0.0960 0.1020 1.0 0.0 200.0 20.0 500.0 197.0 20.0 17796.076920 889048.0 133.666670 41.0 838491888.996480 0.0 0.0 0.0 0.0 0.0 0.0 0.0 -3.27680 -3.27680 -3.27680 -3.27680 -3.27680 -3.27680
22.92 22.935550 0.0 23.10 15.0080 0.0960 0.1020 1.0 0.0 200.0 20.50 500.0 197.0 20.50 17792.153850 889048.50 133.750 41.0 838492830.962360 0.0 0.0 0.0 0.0 0.0 0.0 0.0 -3.27680 -3.27680 -3.27680 -3.27680 -3.27680 -3.27680
22.91 22.927420 0.0 23.133330 14.9920 0.0960 0.1020 1.0 0.0 200.0 21.0 500.0 197.0 21.0 17788.230770 889049.0 133.833330 41.0 838493772.928250 0.0 0.0 0.0 0.0 0.0 0.0 0.0 -3.27680 -3.27680 -3.27680 -3.27680 -3.27680 -3.27680
22.90 22.919280 0.0 23.166670 14.9760 0.0960 0.1020 1.0 0.0 200.0 21.50 500.0 197.0 21.50 17784.307690 889049.50 133.916670 41.0 838494714.894130 0.0 0.0 0.0 0.0 0.0 0.0 0.0 -3.27680 -3.27680 -3.27680 -3.27680 -3.27680 -3.27680
22.89 22.911140 0.0 23.20 14.960 0.0960 0.1020 1.0 0.0 200.0 22.0 500.0 197.0 22.0 17780.384620 889050.0 134.0 41.0 838495656.860020 0.0 0.0 0.0 0.0 0.0 0.0 0.0 -3.27680 -3.27680 -3.27680 -3.27680 -3.27680 -3.27680
22.88 22.898930 0.0 23.250 14.9440 0.0960 0.1020 1.0 0.0 200.0 22.0 500.0 197.0 22.0 17776.461540 889050.50 134.0 41.0 838496598.825910 0.0 0.0 0.0 0.0 0.0 0.0 0.0 -3.27680 -3.27680 -3.27680 -3.27680 -3.27680 -3.27680
22.87 22.886720 0.0 23.30 14.9280 0.0960 0.1020 1.0 0.0 200.0 22.0 500.0 197.0 22.0 17772.538460 889051.0 134.0 41.0 838497540.791790 0.0 0.0 0.0 0.0 0.0 0.0 0.0 -3.27680 -3.27680 -3.27680 -3.27680 -3.27680 -3.27680
22.86 22.878320 0.0 23.333330 14.9120 0.0960 0.1020 1.0 0.0 200.0 22.0 500.0 197.0 22.0 17768.615380 889051.50 134.0 41.0 838498482.757680 0.0 0.0 0.0 0.0 0.0 0.0 0.0 -3.27680 -3.27680 -3.27680 -3.27680 -3.27680 -3.27680
22.85 22.869920 0.0 23.366670 14.8960 0.0960 0.1020 1.0 0.0 200.0 22.0 500.0 197.0 22.0 17764.692310 889052.0 134.0 41.0 838499424.723560 0.0 0.0 0.0 0.0 0.0 0.0 0.0 -3.27680 -3.27680 -3.27680 -3.27680 -3.27680 -3.27680
22.84 22.861520 0.0 23.40 14.880 0.0960 0.1020 1.0 0.0 200.0 22.0 500.0 197.0 22.0 17760.769230 889052.50 134.0 41.0 838500366.689450 0.0 0.0 0.0 0.0 0.0 0.0 0.0 -3.27680 -3.27680 -3.27680 -3.27680 -3.27680 -3.27680
22.83 22.848920 0.0 23.450 14.8860 0.0960 0.1020 1.0 0.0 200.0 22.0 500.0 197.0 22.0 17756.846150 889053.0 134.0 41.0 838501308.655340 0.0 0.0 0.0 0.0 0.0 0.0 0.0 -3.27680 -3.27680 -3.27680 -3.27680 -3.27680 -3.27680
22.82 22.836320 0.0 23.50 14.8920 0.0960 0.1020 1.0 0.0 200.0 22.0 500.0 197.0 22.0 17752.923080 889053.50 134.0 41.0 838502250.621220 0.0 0.0 0.0 0.0 0.0 0.0 0.0 -3.27680 -3.27680 -3.27680 -3.27680 -3.27680 -3.27680
22.81 22.827920 0.0 23.533330 14.8980 0.0960 0.1020 1.0 0.0 200.0 22.0 500.0 197.0 22.0 17749.0 889054.0 134.0 41.0 838503192.587110 0.0 0.0 0.0 0.0 0.0 0.0 0.0 -3.27680 -3.27680 -3.27680 -3.27680 -3.27680 -3.27680
22.80 22.819510 0.0 23.566670 14.9040 0.0960 0.1020 1.0 0.0 200.0 22.0 500.0 197.0 22.0 17744.750 889054.538460 134.0 41.0 838504207.019320 0.0 0.0 0.0 0.0 0.0 0.0 0.0 -3.27680 -3.27680 -3.27680 -3.27680 -3.27680 -3.27680
22.79 22.811110 0.0 23.60 14.910 0.0960 0.1020 1.0 0.0 200.0 22.0 500.0 197.0 22.0 17740.50 889055.076920 134.0 41.0 838505221.451530 0.0 0.0 0.0 0.0 0.0 0.0 0.0 -3.27680 -3.27680 -3.27680 -3.27680 -3.27680 -3.27680
22.78 22.798910 0.0 23.650 14.9160 0.0960 0.1020 1.0 0.0 200.0 22.0 500.0 197.0 22.0 17736.250 889055.615380 134.0 41.0 838506235.883730 0.0 0.0 0.0 0.0 0.0 0.0 0.0 -3.27680 -3.27680 -3.27680 -3.27680 -3.27680 -3.27680
22.77 22.78670 0.0 23.70 14.9220 0.0960 0.1020 1.0 0.0 200.0 22.0 500.0 197.0 22.0 17732.0 889056.153850 134.0 41.0 838507250.315940 0.0 0.0 0.0 0.0 0.0 0.0 0.0 -3.27680 -3.27680 -3.27680 -3.27680 -3.27680 -3.27680
22.76 22.778560 0.0 23.733330 14.9280 0.0960 0.1020 1.0 0.0 200.0 22.0 500.0 197.0 22.0 17727.750 889056.692310 134.0 41.0 838508264.748150 0.0 0.0 0.0 0.0 0.0 0.0 0.0 -3.27680 -3.27680 -3.27680 -3.27680 -3.27680 -3.27680
22.75 22.770420 0.0 23.766670 14.9340 0.0960 0.1020 1.0 0.0 200.0 21.333330 500.0 197.0 21.333330 17723.50 889057.230770 134.0 41.0 838509279.180360 0.0 0.0 0.0 0.0 0.0 0.0 0.0 -3.27680 -3.27680 -3.27680 -3.27680 -3.27680 -3.27680
22.74 22.762280 0.0 23.80 14.940 0.0960 0.1020 1.0 0.0 200.0 20.666670 500.0 197.0 20.666670 17719.250 889057.769230 134.0 41.0 838510293.612560 0.0 0.0 0.0 0.0 0.0 0.0 0.0 -3.27680 -3.27680 -3.27680 -3.27680 -3.27680 -3.27680
22.73 22.749680 0.0 23.850 14.9460 0.0960 0.1020 1.0 0.0 200.0 20.0 500.769230 197.0 20.0 17715.0 889058.307690 134.0 41.0 838511308.044770 0.0 0.0 0.0 0.0 0.0 0.0 0.0 -3.27680 -3.27680 -3.27680 -3.27680 -3.27680 -3.27680
22.72 22.737080 0.0 23.90 14.9520 0.0960 0.1020 1.0 0.0 200.0 19.333330 501.538460 197.0 19.333330 17710.750 889058.846150 134.0 41.0 838512322.476980 0.0 0.0 0.0 0.0 0.0 0.0 0.0 -3.27680 -3.27680 -3.27680 -3.27680 -3.27680 -3.27680
22.71 22.728420 0.0 23.933330 14.9580 0.0960 0.1020 1.0 0.076920 200.0 18.666670 502.307690 197.0 18.666670 17706.50 889059.384620 134.0 41.0 838513336.909190 0.0 0.0 0.0 0.0 0.0 0.0 0.0 -3.27680 -3.27680 -3.27680 -3.27680 -3.27680 -3.27680
22.70 22.719750 0.0 23.966670 14.9640 0.0960 0.1020 1.0 0.153850 200.0 18.0 503.076920 197.0 18.0 17702.250 889059.923080 134.0 41.0 838514351.34140 0.0 0.0 0.0 0.0 0.0 0.0 0.0 -3.27680 -3.27680 -3.27680 -3.27680 -3.27680 -3.27680
22.69 22.711090 0.0 24.0 14.970 0.0960 0.1020 1.0 0.230770 200.0 17.333330 503.846150 197.0 17.333330 17698.0 889060.461540 134.0 41.0 838515365.77360 0.0 0.0 0.0 0.0 0.0 0.0 0.0 -3.27680 -3.27680 -3.27680 -3.27680 -3.27680 -3.27680
22.68 22.698490 0.0 24.050 14.970 0.0960 0.1020 1.0 0.307690 200.0 16.666670 504.615380 197.0 16.666670 17691.692310 889061.0 134.0 41.0 838516380.205810 0.0 0.0 0.0 0.0 0.0 0.0 0.0 -3.27680 -3.27680 -3.27680 -3.27680 -3.27680 -3.27680
22.67 22.685890 0.0 24.10 14.970 0.0960 0.1020 1.0 0.384620 200.0 16.0 505.384620 197.0 16.0 17685.384620 889061.416670 134.0 41.0 838517165.188410 0.0 0.0 0.0 0.0 0.0 0.0 0.0 -3.27680 -3.27680 -3.27680 -3.27680 -3.27680 -3.27680
22.66 22.677750 0.0 24.133330 14.970 0.0960 0.1020 1.0 0.461540 200.0 15.333330 506.153850 197.0 15.333330 17679.076920 889061.833330 134.0 41.0 838517950.1710 0.0 0.0 0.0 0.0 0.0 0.0 0.0 -3.27680 -3.27680 -3.27680 -3.27680 -3.27680 -3.27680
22.65 22.669610 0.0 24.166670 14.970 0.0960 0.1020 1.0 0.538460 200.0 14.666670 506.923080 197.0 14.666670 17672.769230 889062.250 134.0 41.0 838518735.15360 0.0 0.0 0.0 0.0 0.0 0.0 0.0 -3.27680 -3.27680 -3.27680 -3.27680 -3.27680 -3.27680
22.64 22.661470 0.0 24.20 14.970 0.0960 0.1020 1.0 0.615380 200.0 14.0 507.692310 197.0 14.0 17666.461540 889062.666670 134.0 41.0 838519520.136190 0.0 0.0 0.0 0.0 0.0 0.0 0.0 -3.27680 -3.27680 -3.27680 -3.27680 -3.27680 -3.27680
22.63 22.648870 0.0 24.250 14.970 0.0960 0.1020 1.0 0.692310 200.0 14.733030 508.461540 197.0 14.733030 17660.153850 889063.083330 134.0 41.0 838520305.118790 0.0 0.0 0.0 0.0 0.0 0.0 0.0 -3.27680 -3.27680 -3.27680 -3.27680 -3.27680 -3.27680
22.62 22.636270 0.0 24.30 14.970 0.0960 0.1020 1.0 0.769230 200.0 15.466060 509.230770 197.0 15.466060 17653.846150 889063.50 134.0 41.0 838521090.101380 0.0 0.0 0.0 0.0 0.0 0.0 0.0 -3.27680 -3.27680 -3.27680 -3.27680 -3.27680 -3.27680
22.61 22.627870 0.0 24.333330 14.970 0.0960 0.1020 1.0 0.846150 200.0 16.19910 510.0 197.0 16.19910 17647.538460 889063.916670 134.0 41.0 838521875.083980 0.0 0.0 0.0 0.0 0.0 0.0 0.0 -3.27680 -3.27680 -3.27680 -3.27680 -3.27680 -3.27680
