~VERSION INFORMATION SECTION
VERS. 2.0 : CWLS LAS-VERSION 2.0
WRAP. NO : One line per depth step
~WELL INFORMATION SECTION
# MNEM.UNIT VALUE/NAME DESCRIPTION
#-------- -------------- ---------------------
STRT.Metres 2 : Start
STOP.Metres 22.45 : Stop
STEP.Metres 0.01 : Step
NULL.  -999.25 :NULL VALUE
DATE. 2026-02-09 : DATE
~CURVE INFORMATION SECTION
DEPTH.Metres : 0 Depth
Depth. : 1 Depth
Tension. : 2 Tension
Time. : 3 Time
Speed. : 4 Speed
Voltage. : 5 Voltage
Current. : 6 Current
WET. : 7 WET
Sig. : 8 Sig
Vth. : 9 Vth
GR.CPS : 10 GR
Timebase.ms : 11 Timebase
HeadVoltage.V : 12 Head Voltage
API.API : 13 API
Conductivity.uS : 14 Conductivity
PT100.Ohms : 15 PT100
Vmon.mV : 16 Vmon
Status. : 17 Status
Temperature.C : 18 Temperature
Incline.Deg : 19 Incline
Azimuth.Deg : 20 Azimuth
RelativeBearing.Deg : 21 Relative Bearing
MagneticToolFace.Deg : 22 Magnetic Tool Face
GravityMagnitude.G : 23 Gravity Magnitude
MagnetometerMagnitude.H : 24 Magnetometer Magnitude
Temperature.C : 25 Temperature
GX. : 26 GX
GY. : 27 GY
GZ. : 28 GZ
HX. : 29 HX
HY. : 30 HY
HZ. : 31 HZ
~PARAMETER INFORMATION SECTION
~OTHER
#-------------------------------------------------
#Produced By: GeoVista Logger - Version 7.1.107.0
Verticality Sonde - 6292
Temperature and Conductivity Sonde - Inline - 8974
Natural Gamma Sonde - 9931
WLIS - 10024
#-------------------------------------------------
~ASCII LOG DATA
# ...
8.44 8.434350 0.0 49.70 9.9950 0.0960 0.1040 1.0 33.0 100.0 20.0 500.0 196.0 20.0 83.571260 109.548090 156.0 44.0 24.516050 0.10 10.566670 122.80 133.333330 1.79050 6.0550 21.320 -0.002850 0.003650 1.79040 0.177950 -0.18840 -0.547050
8.45 8.450890 0.0 49.80 10.0 0.0960 0.1040 1.0 33.0 100.0 21.250 500.0 196.0 21.250 83.519910 109.548150 156.0 44.0 24.516220 0.10 10.711110 122.70 133.388890 1.79050 6.054330 21.320 -0.002860 0.003610 1.79040 0.178040 -0.18840 -0.546990
8.46 8.459160 0.0 49.850 10.0050 0.0960 0.1040 1.0 33.0 100.0 22.50 500.0 196.0 22.50 83.468570 109.5480 156.0 44.0 24.515830 0.10 10.855560 122.60 133.444440 1.79050 6.053670 21.320 -0.002870 0.003570 1.79040 0.178130 -0.18840 -0.546930
8.47 8.467430 0.0 49.90 10.010 0.0960 0.1040 1.0 33.0 100.0 23.750 487.50 196.0 23.750 83.417220 109.547850 156.0 44.0 24.515450 0.10 11.0 122.50 133.50 1.79050 6.0530 21.320 -0.002890 0.003540 1.79040 0.178210 -0.18840 -0.546860
8.48 8.47570 0.0 49.950 10.0150 0.0960 0.1040 1.0 33.0 100.0 25.0 475.0 196.0 25.0 83.365880 109.54770 156.0 44.0 24.515060 0.10 10.26250 123.23750 133.48750 1.79050 6.052880 21.32250 -0.00290 0.00350 1.79040 0.17830 -0.18840 -0.54680
8.49 8.483970 0.0 50.0 10.020 0.0960 0.1040 1.0 33.0 100.0 26.250 462.50 196.0 26.250 83.314530 109.547550 156.0 44.0 24.514670 0.10 9.5250 123.9750 133.4750 1.79050 6.052750 21.3250 -0.002840 0.003410 1.79040 0.178290 -0.188430 -0.546790
8.50 8.50130 0.0 50.10 10.0250 0.0960 0.1040 1.0 33.0 100.0 27.50 450.0 196.0 27.50 83.620970 109.54740 156.0 44.0 24.514280 0.10 8.78750 124.71250 133.46250 1.79050 6.052630 21.32750 -0.002790 0.003320 1.79040 0.178280 -0.188470 -0.546780
8.51 8.509570 0.0 50.150 10.030 0.0960 0.1040 1.0 33.0 100.0 28.750 437.50 196.0 28.750 83.927410 109.547250 156.0 44.0 24.513890 0.10 8.050 125.450 133.450 1.79050 6.05250 21.330 -0.002730 0.003230 1.79040 0.178270 -0.18850 -0.546770
8.52 8.517840 0.0 50.20 10.0350 0.0960 0.1040 1.0 33.0 100.0 30.0 425.0 196.0 30.0 84.233850 109.54710 156.0 44.0 24.513510 0.10 7.31250 126.18750 133.43750 1.79050 6.052380 21.33250 -0.002680 0.003140 1.79040 0.178260 -0.188530 -0.546760
8.53 8.526110 0.0 50.250 10.040 0.0960 0.1040 1.0 33.0 100.0 30.222220 412.50 196.0 30.222220 84.540280 109.546950 156.0 44.0 24.513120 0.10 6.5750 126.9250 133.4250 1.79050 6.052250 21.3350 -0.002620 0.003060 1.79040 0.178240 -0.188570 -0.546740
8.54 8.534380 0.0 50.30 10.0450 0.0960 0.1040 1.0 33.0 100.0 30.444440 400.0 196.0 30.444440 84.846720 109.546870 156.0 44.0 24.512920 0.10 5.83750 127.66250 133.41250 1.79050 6.052130 21.33750 -0.002570 0.002970 1.79040 0.178230 -0.18860 -0.546730
8.55 8.550920 0.0 50.40 10.050 0.0960 0.1040 1.0 33.0 100.0 30.666670 362.50 196.0 30.666670 85.153160 109.54680 156.0 44.0 24.512730 0.10 5.10 128.40 133.40 1.79050 6.0520 21.340 -0.002510 0.002880 1.79040 0.178220 -0.188630 -0.546720
8.56 8.559580 0.0 50.450 10.0550 0.0960 0.1040 1.0 33.0 100.0 30.888890 325.0 196.0 30.888890 85.45960 109.546720 156.0 44.0 24.512530 0.10 49.28750 129.20 133.40 1.79050 6.0520 21.340 -0.002460 0.002790 1.79040 0.178210 -0.188670 -0.546710
8.57 8.568250 0.0 50.50 10.060 0.0960 0.1040 1.0 33.0 100.0 31.111110 287.50 196.0 31.111110 85.766030 109.546650 156.0 44.0 24.512340 0.10 93.4750 130.0 133.40 1.79050 6.0520 21.340 -0.00240 0.00270 1.79040 0.17820 -0.18870 -0.54670
8.58 8.576520 0.0 50.550 10.060 0.0960 0.1040 1.0 33.0 100.0 31.333330 250.0 196.0 31.333330 86.072470 109.546570 156.0 44.0 24.512150 0.10 137.66250 130.80 133.40 1.79050 6.0520 21.340 -0.002480 0.00260 1.79040 0.178460 -0.188490 -0.546680
8.59 8.584790 0.0 50.60 10.060 0.0960 0.1040 1.0 33.0 100.0 31.555560 212.50 196.0 31.555560 85.962450 109.54650 156.0 44.0 24.511950 0.10 181.850 131.60 133.40 1.79050 6.0520 21.340 -0.002550 0.00250 1.79040 0.178730 -0.188280 -0.546650
8.60 8.601320 0.0 50.70 10.060 0.0960 0.1040 1.0 33.0 100.0 31.777780 175.0 196.0 31.777780 85.852420 109.546420 156.0 44.0 24.511760 0.10 226.03750 132.40 133.40 1.79050 6.0520 21.340 -0.002630 0.00240 1.79040 0.178990 -0.188060 -0.546630
8.61 8.609590 0.0 50.750 10.060 0.0960 0.1040 1.0 33.111110 100.0 32.0 137.50 196.0 32.0 85.74240 109.546340 156.0 44.0 24.511560 0.10 270.2250 133.20 133.40 1.79050 6.0520 21.340 -0.00270 0.00230 1.79040 0.179250 -0.187850 -0.54660
8.62 8.617860 0.0 50.80 10.060 0.0960 0.1040 1.0 33.222220 100.0 30.50 100.0 196.0 30.50 85.632380 109.546340 155.8750 44.0 24.511560 0.10 314.41250 134.0 133.40 1.79050 6.0520 21.340 -0.002780 0.00220 1.79040 0.179510 -0.187640 -0.546580
8.63 8.626530 0.0 50.850 10.060 0.0960 0.1040 1.0 33.333330 100.0 29.0 144.444440 196.0 29.0 85.522350 109.546340 155.750 44.0 24.511560 0.10 358.60 134.80 133.40 1.79050 6.0520 21.340 -0.002850 0.00210 1.79040 0.179780 -0.187430 -0.546550
8.64 8.635190 0.0 50.90 10.060 0.0960 0.1040 1.0 33.444440 100.0 27.50 188.888890 196.0 27.50 85.412330 109.546340 155.6250 44.0 24.511560 0.10 357.433330 136.033330 133.466670 1.79050 6.051890 21.340 -0.002930 0.0020 1.79040 0.180040 -0.187210 -0.546530
8.65 8.651730 0.0 51.0 10.060 0.0960 0.1040 1.0 33.555560 100.0 26.0 233.333330 196.0 26.0 85.30230 109.546340 155.50 44.0 24.511560 0.10 356.266670 137.266670 133.533330 1.79050 6.051780 21.340 -0.0030 0.00190 1.79040 0.18030 -0.1870 -0.54650
8.66 8.660 0.0 51.050 10.060 0.0960 0.1040 1.0 33.666670 100.0 24.50 277.777780 196.0 24.50 85.192280 109.546340 155.3750 44.0 24.511560 0.10 355.10 138.50 133.60 1.79050 6.051670 21.340 -0.003130 0.002090 1.79040 0.180360 -0.186960 -0.546480
8.67 8.668270 0.0 51.10 10.060 0.0960 0.1040 1.0 33.777780 100.0 23.0 322.222220 196.0 23.0 84.942890 109.546340 155.250 44.0 24.511560 0.10 353.933330 139.733330 133.666670 1.79050 6.051560 21.340 -0.003250 0.002280 1.79040 0.180430 -0.186930 -0.546450
8.68 8.676540 0.0 51.150 10.060 0.0960 0.1040 1.0 33.888890 100.0 21.50 366.666670 196.0 21.50 84.69350 109.546340 155.1250 44.0 24.511560 0.10 352.766670 140.966670 133.733330 1.79050 6.051440 21.340 -0.003380 0.002460 1.79040 0.180490 -0.186890 -0.546430
8.69 8.684810 0.0 51.20 10.060 0.0960 0.1040 1.0 34.0 100.0 20.0 411.111110 196.0 20.0 84.444110 109.546340 155.0 44.0 24.511560 0.10 351.60 142.20 133.80 1.79050 6.051330 21.340 -0.00350 0.002650 1.79040 0.180550 -0.186850 -0.54640
8.70 8.701350 0.0 51.30 10.060 0.0960 0.1040 1.0 34.0 100.0 20.666670 455.555560 196.0 20.666670 84.194730 109.546340 155.111110 44.0 24.511560 0.10 350.433330 143.433330 133.866670 1.79050 6.051220 21.340 -0.003630 0.002840 1.79040 0.180610 -0.186810 -0.546380
8.71 8.710010 0.0 51.350 10.060 0.0960 0.1040 1.0 34.0 100.0 21.333330 500.0 196.0 21.333330 83.945340 109.546530 155.222220 44.0 24.512050 0.10 349.266670 144.666670 133.933330 1.79050 6.051110 21.340 -0.003750 0.003030 1.79040 0.180680 -0.186780 -0.546350
8.72 8.718680 0.0 51.40 10.060 0.0960 0.1040 1.0 34.0 100.0 22.0 500.0 196.0 22.0 83.695950 109.546720 155.333330 44.0 24.512530 0.10 348.10 145.90 134.0 1.79050 6.0510 21.340 -0.003880 0.003210 1.79040 0.180740 -0.186740 -0.546330
8.73 8.726950 0.0 51.450 10.060 0.0960 0.1040 1.0 34.0 100.0 22.666670 500.0 196.0 22.666670 83.446560 109.546910 155.444440 44.0 24.513020 0.11250 347.8250 146.1750 134.0 1.790510 6.050880 21.341250 -0.0040 0.00340 1.79040 0.18080 -0.18670 -0.54630
8.74 8.735220 0.0 51.50 10.060 0.0960 0.1040 1.0 34.0 100.0 23.333330 500.0 196.0 23.333330 83.197170 109.54710 155.555560 44.0 24.513510 0.1250 347.550 146.450 134.0 1.790530 6.050750 21.34250 -0.003930 0.003410 1.79040 0.180780 -0.186740 -0.546310
8.75 8.751760 0.0 51.60 10.060 0.0960 0.1040 1.0 34.0 100.0 24.0 500.0 196.0 24.0 83.112410 109.547290 155.666670 44.0 24.513990 0.13750 347.2750 146.7250 134.0 1.790540 6.050630 21.343750 -0.003870 0.003420 1.79040 0.180760 -0.186790 -0.546320
8.76 8.760030 0.0 51.650 10.060 0.0960 0.1040 1.0 34.0 100.0 24.666670 500.0 196.0 24.666670 83.027650 109.547480 155.777780 44.0 24.514480 0.150 347.0 147.0 134.0 1.790550 6.05050 21.3450 -0.00380 0.003430 1.79040 0.180730 -0.186830 -0.546330
8.77 8.76830 0.0 51.70 10.060 0.0960 0.1040 1.0 34.0 100.0 25.333330 500.0 196.0 25.333330 82.942890 109.547660 155.888890 44.0 24.514960 0.16250 346.7250 147.2750 134.0 1.790560 6.050380 21.346250 -0.003730 0.003440 1.79040 0.180710 -0.186880 -0.546340
