~VERSION INFORMATION SECTION
VERS. 2.0 : CWLS LAS-VERSION 2.0
WRAP. NO : One line per depth step
~WELL INFORMATION SECTION
# MNEM.UNIT VALUE/NAME DESCRIPTION
#-------- -------------- ---------------------
STRT.Metres 2 : Start
STOP.Metres 22.45 : Stop
STEP.Metres 0.01 : Step
NULL.  -999.25 :NULL VALUE
DATE. 2026-02-09 : DATE
~CURVE INFORMATION SECTION
DEPTH.Metres : 0 Depth
Depth. : 1 Depth
Tension. : 2 Tension
Time. : 3 Time
Speed. : 4 Speed
Voltage. : 5 Voltage
Current. : 6 Current
WET. : 7 WET
Sig. : 8 Sig
Vth. : 9 Vth
GR.CPS : 10 GR
Timebase.ms : 11 Timebase
HeadVoltage.V : 12 Head Voltage
API.API : 13 API
Conductivity.uS : 14 Conductivity
PT100.Ohms : 15 PT100
Vmon.mV : 16 Vmon
Status. : 17 Status
Temperature.C : 18 Temperature
Incline.Deg : 19 Incline
Azimuth.Deg : 20 Azimuth
RelativeBearing.Deg : 21 Relative Bearing
MagneticToolFace.Deg : 22 Magnetic Tool Face
GravityMagnitude.G : 23 Gravity Magnitude
MagnetometerMagnitude.H : 24 Magnetometer Magnitude
Temperature.C : 25 Temperature
GX. : 26 GX
GY. : 27 GY
GZ. : 28 GZ
HX. : 29 HX
HY. : 30 HY
HZ. : 31 HZ
~PARAMETER INFORMATION SECTION
~OTHER
#-------------------------------------------------
#Produced By: GeoVista Logger - Version 7.1.107.0
Verticality Sonde - 6292
Temperature and Conductivity Sonde - Inline - 8974
Natural Gamma Sonde - 9931
WLIS - 10024
#-------------------------------------------------
~ASCII LOG DATA
# ...
20.68 20.680670 0.0 123.050 10.0460 0.0960 0.1040 1.0 12.333330 100.0 33.750 500.0 196.0 33.750 135.83280 109.45640 150.0 43.0 24.279870 -999.25 -999.25 -999.25 -999.25 -999.25 -999.25 -999.25 -999.25 -999.25 -999.25 -999.25 -999.25 -999.25
20.69 20.688550 0.0 123.10 10.060 0.0960 0.1040 1.0 12.222220 100.0 36.50 500.0 196.0 36.50 136.316910 109.456130 150.0 43.0 24.279180 -999.25 -999.25 -999.25 -999.25 -999.25 -999.25 -999.25 -999.25 -999.25 -999.25 -999.25 -999.25 -999.25
20.70 20.696820 0.0 123.150 10.0460 0.0960 0.1040 1.0 12.111110 100.0 39.250 500.0 196.0 39.250 136.801020 109.455870 150.0 43.0 24.278490 -999.25 -999.25 -999.25 -999.25 -999.25 -999.25 -999.25 -999.25 -999.25 -999.25 -999.25 -999.25 -999.25
20.71 20.705080 0.0 123.20 10.0320 0.0960 0.1040 1.0 12.0 100.0 42.0 500.0 196.0 42.0 137.285130 109.45560 150.0 43.0 24.27780 -999.25 -999.25 -999.25 -999.25 -999.25 -999.25 -999.25 -999.25 -999.25 -999.25 -999.25 -999.25 -999.25
20.72 20.722410 0.0 123.30 10.0180 0.0960 0.1020 1.0 12.0 100.0 39.750 500.0 196.0 39.750 137.769230 109.455330 150.0 43.0 24.277110 -999.25 -999.25 -999.25 -999.25 -999.25 -999.25 -999.25 -999.25 -999.25 -999.25 -999.25 -999.25 -999.25
20.73 20.730680 0.0 123.350 10.0040 0.0960 0.1030 1.0 12.0 100.0 37.50 500.0 196.0 37.50 138.253340 109.454920 150.0 43.0 24.276050 -999.25 -999.25 -999.25 -999.25 -999.25 -999.25 -999.25 -999.25 -999.25 -999.25 -999.25 -999.25 -999.25
20.74 20.738950 0.0 123.40 9.990 0.0960 0.1040 1.0 12.0 100.0 35.250 500.0 196.0 35.250 138.737450 109.45450 150.0 43.0 24.274980 -999.25 -999.25 -999.25 -999.25 -999.25 -999.25 -999.25 -999.25 -999.25 -999.25 -999.25 -999.25 -999.25
20.75 20.747220 0.0 123.450 9.9760 0.0960 0.1040 1.0 12.0 100.0 33.0 500.0 196.0 33.0 139.221560 109.454090 150.0 43.0 24.273910 -999.25 -999.25 -999.25 -999.25 -999.25 -999.25 -999.25 -999.25 -999.25 -999.25 -999.25 -999.25 -999.25
20.76 20.755490 0.0 123.50 9.9620 0.0960 0.1040 1.0 12.0 100.0 30.750 500.0 196.0 30.750 139.705660 109.453670 150.0 43.0 24.272850 -999.25 -999.25 -999.25 -999.25 -999.25 -999.25 -999.25 -999.25 -999.25 -999.25 -999.25 -999.25 -999.25
20.77 20.772030 0.0 123.60 9.9480 0.0960 0.1040 1.0 12.0 100.0 28.50 500.0 196.0 28.50 139.966460 109.453260 150.0 43.0 24.271780 -999.25 -999.25 -999.25 -999.25 -999.25 -999.25 -999.25 -999.25 -999.25 -999.25 -999.25 -999.25 -999.25
20.78 20.780690 0.0 123.650 9.9340 0.0960 0.1040 1.0 12.0 100.0 26.250 500.0 196.0 26.250 140.227260 109.452840 150.0 43.0 24.270710 -999.25 -999.25 -999.25 -999.25 -999.25 -999.25 -999.25 -999.25 -999.25 -999.25 -999.25 -999.25 -999.25
20.79 20.789360 0.0 123.70 9.920 0.0960 0.1040 1.0 12.0 100.0 24.0 500.0 196.0 24.0 140.488060 109.452430 150.0 43.0 24.269640 -999.25 -999.25 -999.25 -999.25 -999.25 -999.25 -999.25 -999.25 -999.25 -999.25 -999.25 -999.25 -999.25
20.80 20.797630 0.0 123.750 9.9340 0.0960 0.1030 1.0 11.8750 100.0 24.222220 500.0 196.0 24.222220 140.748860 109.452020 150.0 43.0 24.268580 -999.25 -999.25 -999.25 -999.25 -999.25 -999.25 -999.25 -999.25 -999.25 -999.25 -999.25 -999.25 -999.25
20.81 20.80590 0.0 123.80 9.9480 0.0960 0.1020 1.0 11.750 100.0 24.444440 500.0 196.0 24.444440 141.009660 109.451680 150.0 43.0 24.26770 -999.25 -999.25 -999.25 -999.25 -999.25 -999.25 -999.25 -999.25 -999.25 -999.25 -999.25 -999.25 -999.25
20.82 20.822440 0.0 123.90 9.9620 0.0960 0.1040 1.0 11.6250 100.0 24.666670 500.0 196.0 24.666670 141.270460 109.451340 150.0 43.0 24.266830 -999.25 -999.25 -999.25 -999.25 -999.25 -999.25 -999.25 -999.25 -999.25 -999.25 -999.25 -999.25 -999.25
20.83 20.830710 0.0 123.950 9.9760 0.0960 0.1040 1.0 11.50 100.0 24.888890 500.0 196.0 24.888890 141.531260 109.4510 150.0 43.0 24.265960 -999.25 -999.25 -999.25 -999.25 -999.25 -999.25 -999.25 -999.25 -999.25 -999.25 -999.25 -999.25 -999.25
20.84 20.838980 0.0 124.0 9.990 0.0960 0.1040 1.0 11.3750 100.0 25.111110 500.0 196.0 25.111110 141.792050 109.450660 150.0 43.0 24.265080 -999.25 -999.25 -999.25 -999.25 -999.25 -999.25 -999.25 -999.25 -999.25 -999.25 -999.25 -999.25 -999.25
20.85 20.847250 0.0 124.050 10.0040 0.0960 0.1040 1.0 11.250 100.0 25.333330 500.0 196.0 25.333330 142.052850 109.450320 150.0 43.0 24.264210 -999.25 -999.25 -999.25 -999.25 -999.25 -999.25 -999.25 -999.25 -999.25 -999.25 -999.25 -999.25 -999.25
20.86 20.855520 0.0 124.10 10.0180 0.0960 0.1040 1.0 11.1250 100.0 25.555560 500.0 196.0 25.555560 142.287570 109.449980 150.0 43.0 24.263340 -999.25 -999.25 -999.25 -999.25 -999.25 -999.25 -999.25 -999.25 -999.25 -999.25 -999.25 -999.25 -999.25
20.87 20.872840 0.0 124.20 10.0320 0.0960 0.1040 1.0 11.0 100.0 25.777780 500.0 196.0 25.777780 142.522290 109.449640 150.0 43.0 24.262460 -999.25 -999.25 -999.25 -999.25 -999.25 -999.25 -999.25 -999.25 -999.25 -999.25 -999.25 -999.25 -999.25
20.88 20.881110 0.0 124.250 10.0460 0.0960 0.1040 1.0 11.0 100.0 26.0 500.0 196.0 26.0 142.757010 109.44930 150.0 43.0 24.261590 -999.25 -999.25 -999.25 -999.25 -999.25 -999.25 -999.25 -999.25 -999.25 -999.25 -999.25 -999.25 -999.25
20.89 20.889380 0.0 124.30 10.060 0.0960 0.1040 1.0 11.0 100.0 27.750 500.0 196.0 27.750 142.991730 109.448750 149.8750 43.0 24.260170 -999.25 -999.25 -999.25 -999.25 -999.25 -999.25 -999.25 -999.25 -999.25 -999.25 -999.25 -999.25 -999.25
20.90 20.897650 0.0 124.350 10.0550 0.0960 0.1040 1.0 11.0 100.0 29.50 500.0 196.0 29.50 143.226450 109.44820 149.750 43.0 24.258740 -999.25 -999.25 -999.25 -999.25 -999.25 -999.25 -999.25 -999.25 -999.25 -999.25 -999.25 -999.25 -999.25
20.91 20.905920 0.0 124.40 10.050 0.0960 0.1040 1.0 11.0 100.0 31.250 500.0 196.0 31.250 143.461170 109.447650 149.6250 43.0 24.257320 -999.25 -999.25 -999.25 -999.25 -999.25 -999.25 -999.25 -999.25 -999.25 -999.25 -999.25 -999.25 -999.25
20.92 20.922460 0.0 124.50 10.0450 0.0960 0.1040 1.0 11.0 100.0 33.0 500.0 196.0 33.0 143.695890 109.447090 149.50 43.0 24.25590 -999.25 -999.25 -999.25 -999.25 -999.25 -999.25 -999.25 -999.25 -999.25 -999.25 -999.25 -999.25 -999.25
20.93 20.930730 0.0 124.550 10.040 0.0960 0.1040 1.0 11.0 100.0 34.750 500.0 196.0 34.750 143.93060 109.446540 149.3750 43.0 24.254470 -999.25 -999.25 -999.25 -999.25 -999.25 -999.25 -999.25 -999.25 -999.25 -999.25 -999.25 -999.25 -999.25
20.94 20.9390 0.0 124.60 10.0350 0.0960 0.1040 1.0 11.0 100.0 36.50 500.0 196.0 36.50 144.275350 109.445990 149.250 43.0 24.253050 -999.25 -999.25 -999.25 -999.25 -999.25 -999.25 -999.25 -999.25 -999.25 -999.25 -999.25 -999.25 -999.25
20.95 20.947660 0.0 124.650 10.030 0.0960 0.1040 1.0 11.0 100.0 38.250 500.0 196.0 38.250 144.620090 -999.25 149.1250 43.0 -999.25 -999.25 -999.25 -999.25 -999.25 -999.25 -999.25 -999.25 -999.25 -999.25 -999.25 -999.25 -999.25 -999.25
20.96 20.956330 0.0 124.70 10.0250 0.0960 0.1040 1.0 11.0 100.0 40.0 500.0 196.0 40.0 144.964830 -999.25 149.0 43.0 -999.25 -999.25 -999.25 -999.25 -999.25 -999.25 -999.25 -999.25 -999.25 -999.25 -999.25 -999.25 -999.25 -999.25
20.97 20.972870 0.0 124.80 10.020 0.0960 0.1040 1.0 11.0 100.0 37.333330 500.0 196.0 37.333330 145.309580 -999.25 149.0 43.0 -999.25 -999.25 -999.25 -999.25 -999.25 -999.25 -999.25 -999.25 -999.25 -999.25 -999.25 -999.25 -999.25 -999.25
20.98 20.980740 0.0 124.850 10.0150 0.0960 0.1040 1.0 11.0 100.0 34.666670 500.0 196.0 34.666670 145.654320 -999.25 149.0 43.0 -999.25 -999.25 -999.25 -999.25 -999.25 -999.25 -999.25 -999.25 -999.25 -999.25 -999.25 -999.25 -999.25 -999.25
20.99 20.988620 0.0 124.90 10.010 0.0960 0.1040 1.0 11.0 100.0 32.0 500.0 196.0 32.0 145.999070 -999.25 149.0 43.0 -999.25 -999.25 -999.25 -999.25 -999.25 -999.25 -999.25 -999.25 -999.25 -999.25 -999.25 -999.25 -999.25 -999.25
21.00 20.997280 0.0 124.950 10.0050 0.0960 0.1040 1.0 11.0 100.0 29.333330 500.0 196.0 29.333330 146.343810 -999.25 149.0 43.0 -999.25 -999.25 -999.25 -999.25 -999.25 -999.25 -999.25 -999.25 -999.25 -999.25 -999.25 -999.25 -999.25 -999.25
21.01 21.005950 0.0 125.0 10.0 0.0960 0.1040 1.0 11.0 100.0 26.666670 500.0 196.0 26.666670 146.688550 -999.25 149.0 43.0 -999.25 -999.25 -999.25 -999.25 -999.25 -999.25 -999.25 -999.25 -999.25 -999.25 -999.25 -999.25 -999.25 -999.25
