~VERSION INFORMATION SECTION
VERS. 2.0 : CWLS LAS-VERSION 2.0
WRAP. NO : One line per depth step
~WELL INFORMATION SECTION
# MNEM.UNIT VALUE/NAME DESCRIPTION
#-------- -------------- ---------------------
STRT.Metres 23 : Start
STOP.Metres -2.05 : Stop
STEP.Metres -0.01 : Step
NULL.  -999.25 :NULL VALUE
DATE. 2026-45-09 : DATE
~CURVE INFORMATION SECTION
DEPTH.Metres : 0 Depth
Depth. : 1 Depth
Tension. : 2 Tension
Time. : 3 Time
Speed. : 4 Speed
Voltage. : 5 Voltage
Current. : 6 Current
WET. : 7 WET
Sig. : 8 Sig
Vth. : 9 Vth
GR.CPS : 10 GR
Timebase.ms : 11 Timebase
HeadVoltage.V : 12 Head Voltage
API.API : 13 API
Conductivity.uS : 14 Conductivity
PT100.Ohms : 15 PT100
Vmon.mV : 16 Vmon
Status. : 17 Status
Temperature.C : 18 Temperature
Incline.Deg : 19 Incline
Azimuth.Deg : 20 Azimuth
RelativeBearing.Deg : 21 Relative Bearing
MagneticToolFace.Deg : 22 Magnetic Tool Face
GravityMagnitude.G : 23 Gravity Magnitude
MagnetometerMagnitude.H : 24 Magnetometer Magnitude
Temperature.C : 25 Temperature
GX. : 26 GX
GY. : 27 GY
GZ. : 28 GZ
HX. : 29 HX
HY. : 30 HY
HZ. : 31 HZ
~PARAMETER INFORMATION SECTION
~OTHER
#-------------------------------------------------
#Produced By: GeoVista Logger - Version 7.1.107.0
Verticality Sonde - 9605
Temperature and Conductivity Sonde - Inline - 8974
Natural Gamma Sonde - 9931
WLIS - 10021
#-------------------------------------------------
~ASCII LOG DATA
# ...
16.11 16.125220 0.0 37.70 14.8920 0.0960 0.1020 1.0 14.583330 200.0 27.846150 500.0 197.0 27.846150 3615.461540 889413.692310 150.0 42.0 839180967.578470 0.0 0.0 0.0 0.0 0.0 0.0 0.0 -3.27680 -3.27680 -3.27680 -3.27680 -3.27680 -3.27680
16.10 16.116820 0.0 37.733330 14.8980 0.0960 0.1020 1.0 14.666670 200.0 28.0 500.0 197.0 28.0 3609.076920 889414.615380 150.0 42.0 839182707.305470 0.0 0.0 0.0 0.0 0.0 0.0 0.0 -3.27680 -3.27680 -3.27680 -3.27680 -3.27680 -3.27680
16.09 16.108420 0.0 37.766670 14.9040 0.0960 0.1020 1.0 14.750 200.0 27.333330 500.0 197.0 27.333330 3602.692310 889415.538460 150.083330 42.0 839184447.032480 0.0 0.0 0.0 0.0 0.0 0.0 0.0 -3.27680 -3.27680 -3.27680 -3.27680 -3.27680 -3.27680
16.08 16.100020 0.0 37.80 14.910 0.0960 0.1020 1.0 14.833330 200.0 26.666670 500.0 197.0 26.666670 3596.307690 889416.461540 150.166670 42.0 839186186.759490 0.0 0.0 0.0 0.0 0.0 0.0 0.0 -3.27680 -3.27680 -3.27680 -3.27680 -3.27680 -3.27680
16.07 16.091620 0.0 37.833330 14.9160 0.0960 0.1020 1.0 14.916670 200.0 26.0 500.0 197.0 26.0 3589.923080 889417.384620 150.250 42.0 839187926.48650 0.0 0.0 0.0 0.0 0.0 0.0 0.0 -3.27680 -3.27680 -3.27680 -3.27680 -3.27680 -3.27680
16.06 16.083210 0.0 37.866670 14.9220 0.0960 0.1020 1.0 15.0 200.0 25.333330 500.0 197.0 25.333330 3583.538460 889418.307690 150.333330 42.0 839189666.21350 0.0 0.0 0.0 0.0 0.0 0.0 0.0 -3.27680 -3.27680 -3.27680 -3.27680 -3.27680 -3.27680
16.05 16.074810 0.0 37.90 14.9280 0.0960 0.1020 1.0 15.076920 200.0 24.666670 500.0 197.0 24.666670 3577.153850 889419.230770 150.416670 42.0 839191405.940510 0.0 0.0 0.0 0.0 0.0 0.0 0.0 -3.27680 -3.27680 -3.27680 -3.27680 -3.27680 -3.27680
16.04 16.062210 0.0 37.950 14.9340 0.0960 0.1020 1.0 15.153850 200.0 24.0 500.0 197.0 24.0 3570.769230 889420.153850 150.50 42.0 839193145.667520 0.0 0.0 0.0 0.0 0.0 0.0 0.0 -3.27680 -3.27680 -3.27680 -3.27680 -3.27680 -3.27680
16.03 16.049610 0.0 38.0 14.940 0.0960 0.1020 1.0 15.230770 200.0 23.333330 500.0 197.0 23.333330 3564.384620 889421.076920 150.583330 42.0 839194885.394530 0.0 0.0 0.0 0.0 0.0 0.0 0.0 -3.27680 -3.27680 -3.27680 -3.27680 -3.27680 -3.27680
16.02 16.041210 0.0 38.033330 14.9460 0.0960 0.1020 1.0 15.307690 200.0 22.666670 500.0 197.0 22.666670 3558.0 889422.0 150.666670 42.0 839196625.121540 0.0 0.0 0.0 0.0 0.0 0.0 0.0 -3.27680 -3.27680 -3.27680 -3.27680 -3.27680 -3.27680
16.01 16.032810 0.0 38.066670 14.9520 0.0960 0.1020 1.0 15.384620 200.0 22.0 500.0 197.0 22.0 3549.833330 889422.538460 150.750 42.0 839197639.973120 0.0 0.0 0.0 0.0 0.0 0.0 0.0 -3.27680 -3.27680 -3.27680 -3.27680 -3.27680 -3.27680
16.00 16.024410 0.0 38.10 14.9580 0.0960 0.1020 1.0 15.461540 200.0 21.333330 500.0 197.0 21.333330 3541.666670 889423.076920 150.833330 42.0 839198654.82470 0.0 0.0 0.0 0.0 0.0 0.0 0.0 -3.27680 -3.27680 -3.27680 -3.27680 -3.27680 -3.27680
15.99 16.011810 0.0 38.150 14.9640 0.0960 0.1030 1.0 15.538460 200.0 20.666670 500.0 197.0 20.666670 3533.50 889423.615380 150.916670 42.0 839199669.676280 0.0 0.0 0.0 0.0 0.0 0.0 0.0 -3.27680 -3.27680 -3.27680 -3.27680 -3.27680 -3.27680
15.98 15.99920 0.0 38.20 14.970 0.0960 0.1040 1.0 15.615380 200.0 20.0 500.0 197.0 20.0 3525.333330 889424.153850 151.0 42.0 839200684.527860 0.0 0.0 0.0 0.0 0.0 0.0 0.0 -3.27680 -3.27680 -3.27680 -3.27680 -3.27680 -3.27680
15.97 15.99080 0.0 38.233330 14.976670 0.0960 0.103330 1.0 15.692310 200.0 19.846150 500.0 197.0 19.846150 3517.166670 889424.692310 151.0 42.0 839201699.379440 0.0 0.0 0.0 0.0 0.0 0.0 0.0 -3.27680 -3.27680 -3.27680 -3.27680 -3.27680 -3.27680
15.96 15.98240 0.0 38.266670 14.983330 0.0960 0.102670 1.0 15.769230 200.0 19.692310 500.0 197.0 19.692310 3509.0 889425.230770 151.0 42.0 839202714.231020 0.0 0.0 0.0 0.0 0.0 0.0 0.0 -3.27680 -3.27680 -3.27680 -3.27680 -3.27680 -3.27680
15.95 15.9740 0.0 38.30 14.990 0.0960 0.1020 1.0 15.846150 200.0 19.538460 500.0 197.0 19.538460 3500.833330 889425.769230 151.0 42.0 839203729.08260 0.0 0.0 0.0 0.0 0.0 0.0 0.0 -3.27680 -3.27680 -3.27680 -3.27680 -3.27680 -3.27680
15.94 15.961790 0.0 38.350 14.996670 0.0960 0.1020 1.0 15.923080 200.0 19.384620 500.0 197.0 19.384620 3492.666670 889426.307690 151.0 42.0 839204743.934180 0.0 0.0 0.0 0.0 0.0 0.0 0.0 -3.27680 -3.27680 -3.27680 -3.27680 -3.27680 -3.27680
15.93 15.949590 0.0 38.40 15.003330 0.0960 0.1020 1.0 16.0 200.0 19.230770 500.0 197.0 19.230770 3484.50 889426.846150 151.0 42.0 839205758.785760 0.0 0.0 0.0 0.0 0.0 0.0 0.0 -3.27680 -3.27680 -3.27680 -3.27680 -3.27680 -3.27680
15.92 15.941450 0.0 38.433330 15.010 0.0960 0.1020 1.0 16.166670 200.0 19.076920 500.0 197.0 19.076920 3476.333330 889427.384620 151.0 42.0 839206773.637340 0.0 0.0 0.0 0.0 0.0 0.0 0.0 -3.27680 -3.27680 -3.27680 -3.27680 -3.27680 -3.27680
15.91 15.933310 0.0 38.466670 15.016670 0.0960 0.1020 1.0 16.333330 200.0 18.923080 500.0 197.0 18.923080 3468.166670 889427.923080 151.0 42.0 839207788.488920 0.0 0.0 0.0 0.0 0.0 0.0 0.0 -3.27680 -3.27680 -3.27680 -3.27680 -3.27680 -3.27680
15.90 15.925170 0.0 38.50 15.023330 0.0960 0.1020 1.0 16.50 200.0 18.769230 500.0 197.0 18.769230 3460.0 889428.461540 151.0 42.0 839208803.34050 0.0 0.0 0.0 0.0 0.0 0.0 0.0 -3.27680 -3.27680 -3.27680 -3.27680 -3.27680 -3.27680
15.89 15.912570 0.0 38.550 15.030 0.0960 0.1020 1.0 16.666670 200.0 18.615380 500.0 197.0 18.615380 3455.416670 889429.0 151.0 42.0 839209818.192090 0.0 0.0 0.0 0.0 0.0 0.0 0.0 -3.27680 -3.27680 -3.27680 -3.27680 -3.27680 -3.27680
15.88 15.899970 0.0 38.60 15.036670 0.0960 0.1020 1.0 16.833330 200.0 18.461540 500.0 197.0 18.461540 3450.833330 889429.583330 151.0 42.0 839210917.623270 0.0 0.0 0.0 0.0 0.0 0.0 0.0 -3.27680 -3.27680 -3.27680 -3.27680 -3.27680 -3.27680
15.87 15.887370 0.0 38.650 15.043330 0.0960 0.1010 1.0 17.0 200.0 18.307690 500.0 197.0 18.307690 3446.250 889430.166670 151.0 42.0 839212017.054460 0.0 0.0 0.0 0.0 0.0 0.0 0.0 -3.27680 -3.27680 -3.27680 -3.27680 -3.27680 -3.27680
15.86 15.874760 0.0 38.70 15.050 0.0960 0.10 1.0 17.166670 200.0 18.153850 500.0 197.0 18.153850 3441.666670 889430.750 151.0 42.0 839213116.485650 0.0 0.0 0.0 0.0 0.0 0.0 0.0 -3.27680 -3.27680 -3.27680 -3.27680 -3.27680 -3.27680
15.85 15.866630 0.0 38.733330 15.056670 0.0960 0.100670 1.0 17.333330 200.0 18.0 500.0 197.0 18.0 3437.083330 889431.333330 151.0 42.0 839214215.916840 0.0 0.0 0.0 0.0 0.0 0.0 0.0 -3.27680 -3.27680 -3.27680 -3.27680 -3.27680 -3.27680
15.84 15.858490 0.0 38.766670 15.063330 0.0960 0.101330 1.0 17.50 200.0 17.0 500.0 197.0 17.0 3432.50 889431.916670 151.0 42.0 839215315.348020 0.0 0.0 0.0 0.0 0.0 0.0 0.0 -3.27680 -3.27680 -3.27680 -3.27680 -3.27680 -3.27680
15.83 15.850350 0.0 38.80 15.070 0.0960 0.1020 1.0 17.666670 200.0 16.0 500.0 197.0 16.0 3427.916670 889432.50 151.0 42.0 839216414.779210 0.0 0.0 0.0 0.0 0.0 0.0 0.0 -3.27680 -3.27680 -3.27680 -3.27680 -3.27680 -3.27680
15.82 15.837750 0.0 38.850 15.060670 0.0960 0.1020 1.0 17.833330 200.0 15.0 500.0 197.0 15.0 3423.333330 889433.083330 151.0 42.0 839217514.21040 0.0 0.0 0.0 0.0 0.0 0.0 0.0 -3.27680 -3.27680 -3.27680 -3.27680 -3.27680 -3.27680
15.81 15.825150 0.0 38.90 15.051330 0.0960 0.1020 1.0 18.0 200.0 14.0 500.0 197.0 14.0 3418.750 889433.666670 151.0 42.0 839218613.641590 0.0 0.0 0.0 0.0 0.0 0.0 0.0 -3.27680 -3.27680 -3.27680 -3.27680 -3.27680 -3.27680
15.80 15.817010 0.0 38.933330 15.0420 0.0960 0.1020 1.0 18.076920 200.0 13.0 500.0 197.0 13.0 3414.166670 889434.250 151.0 42.0 839219713.072780 0.0 0.0 0.0 0.0 0.0 0.0 0.0 -3.27680 -3.27680 -3.27680 -3.27680 -3.27680 -3.27680
15.79 15.808870 0.0 38.966670 15.032670 0.0960 0.1020 1.0 18.153850 200.0 12.0 500.0 197.0 12.0 3409.583330 889434.833330 151.0 42.0 839220812.503960 0.0 0.0 0.0 0.0 0.0 0.0 0.0 -3.27680 -3.27680 -3.27680 -3.27680 -3.27680 -3.27680
15.78 15.800730 0.0 39.0 15.023330 0.0960 0.1020 1.0 18.230770 200.0 11.0 500.0 197.0 11.0 3405.0 889435.416670 151.0 42.0 839221911.935150 0.0 0.0 0.0 0.0 0.0 0.0 0.0 -3.27680 -3.27680 -3.27680 -3.27680 -3.27680 -3.27680
15.77 15.788130 0.0 39.050 15.0140 0.0960 0.1020 1.0 18.307690 200.0 10.0 500.0 197.0 10.0 3398.769230 889436.0 151.0 42.0 839223011.366340 0.0 0.0 0.0 0.0 0.0 0.0 0.0 -3.27680 -3.27680 -3.27680 -3.27680 -3.27680 -3.27680
