~VERSION INFORMATION SECTION
VERS. 2.0 : CWLS LAS-VERSION 2.0
WRAP. NO : One line per depth step
~WELL INFORMATION SECTION
# MNEM.UNIT VALUE/NAME DESCRIPTION
#-------- -------------- ---------------------
STRT.Metres 26 : Start
STOP.Metres -2.05 : Stop
STEP.Metres -0.01 : Step
NULL.  -999.25 :NULL VALUE
DATE. 2026-40-09 : DATE
~CURVE INFORMATION SECTION
DEPTH.Metres : 0 Depth
Depth. : 1 Depth
Tension. : 2 Tension
Time. : 3 Time
Speed. : 4 Speed
Voltage. : 5 Voltage
Current. : 6 Current
WET. : 7 WET
Sig. : 8 Sig
Vth. : 9 Vth
GR.CPS : 10 GR
Timebase.ms : 11 Timebase
HeadVoltage.V : 12 Head Voltage
API.API : 13 API
Conductivity.uS : 14 Conductivity
PT100.Ohms : 15 PT100
Vmon.mV : 16 Vmon
Status. : 17 Status
Temperature.C : 18 Temperature
Incline.Deg : 19 Incline
Azimuth.Deg : 20 Azimuth
RelativeBearing.Deg : 21 Relative Bearing
MagneticToolFace.Deg : 22 Magnetic Tool Face
GravityMagnitude.G : 23 Gravity Magnitude
MagnetometerMagnitude.H : 24 Magnetometer Magnitude
Temperature.C : 25 Temperature
GX. : 26 GX
GY. : 27 GY
GZ. : 28 GZ
HX. : 29 HX
HY. : 30 HY
HZ. : 31 HZ
~PARAMETER INFORMATION SECTION
~OTHER
#-------------------------------------------------
#Produced By: GeoVista Logger - Version 7.1.107.0
Verticality Sonde - 9605
Temperature and Conductivity Sonde - Inline - 8974
Natural Gamma Sonde - 9931
WLIS - 10021
#-------------------------------------------------
~ASCII LOG DATA
# ...
7.52 7.538330 0.0 106.733330 15.016670 0.0960 0.101330 1.0 42.0 200.0 10.0 500.0 197.0 10.0 1891.769230 890348.666670 157.0 42.0 840944038.260740 0.0 0.0 0.0 0.0 0.0 0.0 0.0 -3.27680 -3.27680 -3.27680 -3.27680 -3.27680 -3.27680
7.51 7.529930 0.0 106.766670 15.013330 0.0960 0.100670 1.0 42.0 200.0 10.0 500.0 197.0 10.0 1890.692310 890350.50 157.0 42.0 840947497.199140 0.0 0.0 0.0 0.0 0.0 0.0 0.0 -3.27680 -3.27680 -3.27680 -3.27680 -3.27680 -3.27680
7.50 7.521530 0.0 106.80 15.010 0.0960 0.10 1.0 42.0 200.0 10.0 500.0 197.0 10.0 1889.615380 890352.333330 157.0 42.0 840950956.137540 0.0 0.0 0.0 0.0 0.0 0.0 0.0 -3.27680 -3.27680 -3.27680 -3.27680 -3.27680 -3.27680
7.49 7.509320 0.0 106.850 15.006670 0.0960 0.1010 1.0 42.0 200.0 10.153850 500.0 197.0 10.153850 1888.538460 890354.166670 157.0 42.0 840954415.075940 0.0 0.0 0.0 0.0 0.0 0.0 0.0 -3.27680 -3.27680 -3.27680 -3.27680 -3.27680 -3.27680
7.48 7.497120 0.0 106.90 15.003330 0.0960 0.1020 1.0 42.0 200.0 10.307690 500.0 197.0 10.307690 1887.461540 890356.0 157.0 42.0 840957874.014350 0.0 0.0 0.0 0.0 0.0 0.0 0.0 -3.27680 -3.27680 -3.27680 -3.27680 -3.27680 -3.27680
7.47 7.488720 0.0 106.933330 15.0 0.0960 0.1020 1.0 42.0 200.0 10.461540 500.0 197.0 10.461540 1886.384620 890357.833330 157.0 42.0 840961332.952750 0.0 0.0 0.0 0.0 0.0 0.0 0.0 -3.27680 -3.27680 -3.27680 -3.27680 -3.27680 -3.27680
7.46 7.480310 0.0 106.966670 14.996670 0.0960 0.1020 1.0 42.0 200.0 10.615380 500.0 197.0 10.615380 1885.307690 890359.666670 157.0 42.0 840964791.891150 0.0 0.0 0.0 0.0 0.0 0.0 0.0 -3.27680 -3.27680 -3.27680 -3.27680 -3.27680 -3.27680
7.45 7.471910 0.0 107.0 14.993330 0.0960 0.1020 1.0 42.0 200.0 10.769230 500.0 197.0 10.769230 1884.230770 890361.50 157.0 42.0 840968250.829560 0.0 0.0 0.0 0.0 0.0 0.0 0.0 -3.27680 -3.27680 -3.27680 -3.27680 -3.27680 -3.27680
7.44 7.459310 0.0 107.050 14.990 0.0960 0.1020 1.0 42.0 200.0 10.923080 500.0 197.0 10.923080 1883.153850 890363.333330 157.0 42.0 840971709.767960 0.0 0.0 0.0 0.0 0.0 0.0 0.0 -3.27680 -3.27680 -3.27680 -3.27680 -3.27680 -3.27680
7.43 7.446710 0.0 107.10 14.986670 0.0960 0.1020 1.0 42.0 200.0 11.076920 500.0 197.0 11.076920 1882.076920 890365.166670 157.0 42.0 840975168.706360 0.0 0.0 0.0 0.0 0.0 0.0 0.0 -3.27680 -3.27680 -3.27680 -3.27680 -3.27680 -3.27680
7.42 7.438310 0.0 107.133330 14.983330 0.0960 0.1020 1.0 42.0 200.0 11.230770 500.0 197.0 11.230770 1881.0 890367.0 157.0 42.0 840978627.644770 0.0 0.0 0.0 0.0 0.0 0.0 0.0 -3.27680 -3.27680 -3.27680 -3.27680 -3.27680 -3.27680
7.41 7.429910 0.0 107.166670 14.980 0.0960 0.1020 1.0 42.0 200.0 11.384620 500.0 197.0 11.384620 1880.750 890368.461540 157.0 42.0 840981385.183550 0.0 0.0 0.0 0.0 0.0 0.0 0.0 -3.27680 -3.27680 -3.27680 -3.27680 -3.27680 -3.27680
7.40 7.421510 0.0 107.20 14.976670 0.0960 0.1020 1.0 42.0 200.0 11.538460 500.0 197.0 11.538460 1880.50 890369.923080 157.0 42.0 840984142.722330 0.0 0.0 0.0 0.0 0.0 0.0 0.0 -3.27680 -3.27680 -3.27680 -3.27680 -3.27680 -3.27680
7.39 7.40930 0.0 107.250 14.973330 0.0960 0.1020 1.0 42.0 200.0 11.692310 500.0 197.0 11.692310 1880.250 890371.384620 157.0 42.0 840986900.261110 0.0 0.0 0.0 0.0 0.0 0.0 0.0 -3.27680 -3.27680 -3.27680 -3.27680 -3.27680 -3.27680
7.38 7.397090 0.0 107.30 14.970 0.0960 0.1020 1.0 42.0 200.0 11.846150 500.0 197.0 11.846150 1880.0 890372.846150 157.0 42.0 840989657.799890 0.0 0.0 0.0 0.0 0.0 0.0 0.0 -3.27680 -3.27680 -3.27680 -3.27680 -3.27680 -3.27680
7.37 7.388690 0.0 107.333330 14.970 0.0960 0.1020 1.0 42.0 200.0 12.0 500.0 197.0 12.0 1879.750 890374.307690 157.0 42.0 840992415.338670 0.0 0.0 0.0 0.0 0.0 0.0 0.0 -3.27680 -3.27680 -3.27680 -3.27680 -3.27680 -3.27680
7.36 7.380290 0.0 107.366670 14.970 0.0960 0.1020 1.0 42.0 200.0 11.50 500.0 197.0 11.50 1879.50 890375.769230 157.0 42.0 840995172.877450 0.0 0.0 0.0 0.0 0.0 0.0 0.0 -3.27680 -3.27680 -3.27680 -3.27680 -3.27680 -3.27680
7.35 7.371890 0.0 107.40 14.970 0.0960 0.1020 1.0 42.0 200.0 11.0 500.0 197.0 11.0 1879.250 890377.230770 157.0 42.0 840997930.416230 0.0 0.0 0.0 0.0 0.0 0.0 0.0 -3.27680 -3.27680 -3.27680 -3.27680 -3.27680 -3.27680
7.34 7.359680 0.0 107.450 14.970 0.0960 0.1010 1.0 42.0 200.0 10.50 500.0 197.0 10.50 1879.0 890378.692310 157.0 42.0 841000687.955010 0.0 0.0 0.0 0.0 0.0 0.0 0.0 -3.27680 -3.27680 -3.27680 -3.27680 -3.27680 -3.27680
7.33 7.347470 0.0 107.50 14.970 0.0960 0.10 1.0 42.0 200.0 10.0 500.0 197.0 10.0 1878.750 890380.153850 157.0 42.0 841003445.493790 0.0 0.0 0.0 0.0 0.0 0.0 0.0 -3.27680 -3.27680 -3.27680 -3.27680 -3.27680 -3.27680
7.32 7.339070 0.0 107.533330 14.970 0.0960 0.100670 1.0 42.0 200.0 9.50 500.0 197.0 9.50 1878.50 890381.615380 157.0 42.0 841006203.032570 0.0 0.0 0.0 0.0 0.0 0.0 0.0 -3.27680 -3.27680 -3.27680 -3.27680 -3.27680 -3.27680
7.31 7.330670 0.0 107.566670 14.970 0.0960 0.101330 1.0 42.0 200.0 9.0 500.0 197.0 9.0 1878.250 890383.076920 157.0 42.0 841008960.571360 0.0 0.0 0.0 0.0 0.0 0.0 0.0 -3.27680 -3.27680 -3.27680 -3.27680 -3.27680 -3.27680
7.30 7.322270 0.0 107.60 14.970 0.0960 0.1020 1.0 42.0 200.0 8.50 500.0 197.0 8.50 1878.0 890384.538460 157.0 42.0 841011718.110140 0.0 0.0 0.0 0.0 0.0 0.0 0.0 -3.27680 -3.27680 -3.27680 -3.27680 -3.27680 -3.27680
7.29 7.309670 0.0 107.650 14.970 0.0960 0.1010 1.0 42.0 200.0 8.0 500.0 197.0 8.0 1876.538460 890386.0 157.0 42.0 841014475.648920 0.0 0.0 0.0 0.0 0.0 0.0 0.0 -3.27680 -3.27680 -3.27680 -3.27680 -3.27680 -3.27680
7.28 7.297070 0.0 107.70 14.970 0.0960 0.10 1.0 42.0 200.0 7.50 500.0 197.0 7.50 1875.076920 890387.583330 157.0 42.0 841017463.046260 0.0 0.0 0.0 0.0 0.0 0.0 0.0 -3.27680 -3.27680 -3.27680 -3.27680 -3.27680 -3.27680
7.27 7.288670 0.0 107.733330 14.970 0.0960 0.100670 1.0 42.0 200.0 7.0 500.0 197.0 7.0 1873.615380 890389.166670 157.0 42.0 841020450.443610 0.0 0.0 0.0 0.0 0.0 0.0 0.0 -3.27680 -3.27680 -3.27680 -3.27680 -3.27680 -3.27680
7.26 7.280270 0.0 107.766670 14.970 0.0960 0.101330 1.0 42.0 200.0 6.50 500.0 197.0 6.50 1872.153850 890390.750 157.0 42.0 841023437.840960 0.0 0.0 0.0 0.0 0.0 0.0 0.0 -3.27680 -3.27680 -3.27680 -3.27680 -3.27680 -3.27680
7.25 7.271860 0.0 107.80 14.970 0.0960 0.1020 1.0 42.0 200.0 6.0 500.0 197.0 6.0 1870.692310 890392.333330 157.0 42.0 841026425.238310 0.0 0.0 0.0 0.0 0.0 0.0 0.0 -3.27680 -3.27680 -3.27680 -3.27680 -3.27680 -3.27680
7.24 7.259260 0.0 107.850 14.970 0.0960 0.1020 1.0 42.0 200.0 6.307690 500.0 197.0 6.307690 1869.230770 890393.916670 157.0 42.0 841029412.635660 0.0 0.0 0.0 0.0 0.0 0.0 0.0 -3.27680 -3.27680 -3.27680 -3.27680 -3.27680 -3.27680
7.23 7.246660 0.0 107.90 14.970 0.0960 0.1020 1.0 42.0 200.0 6.615380 500.0 197.0 6.615380 1867.769230 890395.50 157.0 42.0 841032400.0330 0.0 0.0 0.0 0.0 0.0 0.0 0.0 -3.27680 -3.27680 -3.27680 -3.27680 -3.27680 -3.27680
7.22 7.238260 0.0 107.933330 14.980 0.0960 0.1020 1.0 42.0 200.0 6.923080 500.0 197.0 6.923080 1866.307690 890397.083330 157.0 42.0 841035387.430350 0.0 0.0 0.0 0.0 0.0 0.0 0.0 -3.27680 -3.27680 -3.27680 -3.27680 -3.27680 -3.27680
7.21 7.229860 0.0 107.966670 14.990 0.0960 0.1020 1.0 42.0 200.0 7.230770 500.0 197.0 7.230770 1864.846150 890398.666670 157.0 42.0 841038374.82770 0.0 0.0 0.0 0.0 0.0 0.0 0.0 -3.27680 -3.27680 -3.27680 -3.27680 -3.27680 -3.27680
7.20 7.221460 0.0 108.0 15.0 0.0960 0.1020 1.0 42.0 200.0 7.538460 500.0 197.0 7.538460 1863.384620 890400.250 157.0 42.0 841041362.225050 0.0 0.0 0.0 0.0 0.0 0.0 0.0 -3.27680 -3.27680 -3.27680 -3.27680 -3.27680 -3.27680
7.19 7.208860 0.0 108.050 15.010 0.0960 0.1010 1.0 42.0 200.0 7.846150 500.0 197.0 7.846150 1861.923080 890401.833330 157.0 42.0 841044349.622390 0.0 0.0 0.0 0.0 0.0 0.0 0.0 -3.27680 -3.27680 -3.27680 -3.27680 -3.27680 -3.27680
7.18 7.196260 0.0 108.10 15.020 0.0960 0.10 1.0 42.0 200.0 8.153850 500.0 197.0 8.153850 1860.461540 890403.416670 157.0 42.0 841047337.019740 0.0 0.0 0.0 0.0 0.0 0.0 0.0 -3.27680 -3.27680 -3.27680 -3.27680 -3.27680 -3.27680
7.17 7.187850 0.0 108.133330 15.030 0.0960 0.10 1.0 42.0 200.0 8.461540 500.0 197.0 8.461540 1859.0 890405.0 157.0 42.0 841050324.417090 0.0 0.0 0.0 0.0 0.0 0.0 0.0 -3.27680 -3.27680 -3.27680 -3.27680 -3.27680 -3.27680
