~VERSION INFORMATION SECTION
VERS. 2.0 : CWLS LAS-VERSION 2.0
WRAP. NO : One line per depth step
~WELL INFORMATION SECTION
# MNEM.UNIT VALUE/NAME DESCRIPTION
#-------- -------------- ---------------------
STRT.Metres 26 : Start
STOP.Metres -2.05 : Stop
STEP.Metres -0.01 : Step
NULL.  -999.25 :NULL VALUE
DATE. 2026-40-09 : DATE
~CURVE INFORMATION SECTION
DEPTH.Metres : 0 Depth
Depth. : 1 Depth
Tension. : 2 Tension
Time. : 3 Time
Speed. : 4 Speed
Voltage. : 5 Voltage
Current. : 6 Current
WET. : 7 WET
Sig. : 8 Sig
Vth. : 9 Vth
GR.CPS : 10 GR
Timebase.ms : 11 Timebase
HeadVoltage.V : 12 Head Voltage
API.API : 13 API
Conductivity.uS : 14 Conductivity
PT100.Ohms : 15 PT100
Vmon.mV : 16 Vmon
Status. : 17 Status
Temperature.C : 18 Temperature
Incline.Deg : 19 Incline
Azimuth.Deg : 20 Azimuth
RelativeBearing.Deg : 21 Relative Bearing
MagneticToolFace.Deg : 22 Magnetic Tool Face
GravityMagnitude.G : 23 Gravity Magnitude
MagnetometerMagnitude.H : 24 Magnetometer Magnitude
Temperature.C : 25 Temperature
GX. : 26 GX
GY. : 27 GY
GZ. : 28 GZ
HX. : 29 HX
HY. : 30 HY
HZ. : 31 HZ
~PARAMETER INFORMATION SECTION
~OTHER
#-------------------------------------------------
#Produced By: GeoVista Logger - Version 7.1.107.0
Verticality Sonde - 9605
Temperature and Conductivity Sonde - Inline - 8974
Natural Gamma Sonde - 9931
WLIS - 10021
#-------------------------------------------------
~ASCII LOG DATA
# ...
0.81 0.816740 0.0 140.0 6.0 0.0960 0.1020 0.0 993.40 200.0 12.0 500.0 197.0 12.0 207.833330 890652.923080 92.50 42.0 841518170.07670 0.0 0.0 0.0 0.0 0.0 0.0 0.0 -3.27680 -3.27680 -3.27680 -3.27680 -3.27680 -3.27680
0.80 0.80650 0.0 140.10 6.0 0.0960 0.1020 0.0 993.60 200.0 16.40 502.0 197.0 16.40 204.0 890652.461540 83.750 42.0 841517299.002940 0.0 0.0 0.0 0.0 0.0 0.0 0.0 -3.27680 -3.27680 -3.27680 -3.27680 -3.27680 -3.27680
0.79 0.796260 0.0 140.20 6.0 0.0960 0.1020 0.0 993.80 200.0 20.80 504.0 197.0 20.80 202.692310 890652.0 75.0 42.0 841516427.929180 0.0 0.0 0.0 0.0 0.0 0.0 0.0 -3.27680 -3.27680 -3.27680 -3.27680 -3.27680 -3.27680
0.78 0.786810 0.0 140.30 6.0 0.0960 0.1020 0.0 994.0 200.0 25.20 506.0 197.0 25.20 201.384620 890651.50 66.250 42.0 841515484.272290 0.0 0.0 0.0 0.0 0.0 0.0 0.0 -3.27680 -3.27680 -3.27680 -3.27680 -3.27680 -3.27680
0.77 0.776570 0.0 140.40 5.991670 0.0960 0.1020 0.0 993.40 200.0 29.60 508.0 197.0 29.60 200.076920 890651.0 57.50 42.0 841514540.61540 0.0 0.0 0.0 0.0 0.0 0.0 0.0 -3.27680 -3.27680 -3.27680 -3.27680 -3.27680 -3.27680
0.76 0.767120 0.0 140.50 5.983330 0.0960 0.1020 0.0 992.80 200.0 34.0 510.0 197.0 34.0 198.769230 890650.50 48.750 42.0 841513596.958510 0.0 0.0 0.0 0.0 0.0 0.0 0.0 -3.27680 -3.27680 -3.27680 -3.27680 -3.27680 -3.27680
0.75 0.756880 0.0 140.60 5.9750 0.0960 0.1020 0.0 992.20 200.0 34.80 508.0 197.0 34.80 197.461540 890650.0 40.0 42.0 841512653.301620 0.0 0.0 0.0 0.0 0.0 0.0 0.0 -3.27680 -3.27680 -3.27680 -3.27680 -3.27680 -3.27680
0.74 0.746640 0.0 140.70 5.966670 0.0960 0.1020 0.0 991.60 200.0 35.60 506.0 197.0 35.60 196.153850 890649.50 39.142860 42.0 841511709.644730 0.0 0.0 0.0 0.0 0.0 0.0 0.0 -3.27680 -3.27680 -3.27680 -3.27680 -3.27680 -3.27680
0.73 0.737190 0.0 140.80 5.958330 0.0960 0.1020 0.0 991.0 200.0 36.40 504.0 197.0 36.40 194.846150 890649.0 38.285710 42.0 841510765.987840 0.0 0.0 0.0 0.0 0.0 0.0 0.0 -3.27680 -3.27680 -3.27680 -3.27680 -3.27680 -3.27680
0.72 0.726950 0.0 140.90 5.950 0.0960 0.1020 0.0 991.20 200.0 37.20 502.0 197.0 37.20 193.538460 890648.50 37.428570 42.0 841509822.330950 0.0 0.0 0.0 0.0 0.0 0.0 0.0 -3.27680 -3.27680 -3.27680 -3.27680 -3.27680 -3.27680
0.71 0.716710 0.0 141.0 5.958330 0.0960 0.1020 0.0 991.40 200.0 38.0 500.0 197.0 38.0 192.230770 890648.0 36.571430 42.0 841508878.674060 0.0 0.0 0.0 0.0 0.0 0.0 0.0 -3.27680 -3.27680 -3.27680 -3.27680 -3.27680 -3.27680
0.70 0.707260 0.0 141.10 5.966670 0.0960 0.1020 0.0 991.60 200.0 37.066670 500.0 197.0 37.066670 190.923080 890647.50 35.714290 42.0 841507935.017170 0.0 0.0 0.0 0.0 0.0 0.0 0.0 -3.27680 -3.27680 -3.27680 -3.27680 -3.27680 -3.27680
0.69 0.697020 0.0 141.20 5.9750 0.0960 0.1020 0.0 991.80 200.0 36.133330 500.0 197.0 36.133330 189.615380 890647.0 34.857140 42.0 841506991.360280 0.0 0.0 0.0 0.0 0.0 0.0 0.0 -3.27680 -3.27680 -3.27680 -3.27680 -3.27680 -3.27680
0.68 0.686780 0.0 141.30 5.983330 0.0960 0.1020 0.0 992.0 200.0 35.20 500.0 197.0 35.20 188.307690 890646.50 34.0 42.0 841506047.703390 0.0 0.0 0.0 0.0 0.0 0.0 0.0 -3.27680 -3.27680 -3.27680 -3.27680 -3.27680 -3.27680
0.67 0.676540 0.0 141.40 5.991670 0.0960 0.1020 0.0 992.0 200.0 34.266670 500.0 197.0 34.266670 187.0 890646.0 43.0 42.0 841505104.04650 0.0 0.0 0.0 0.0 0.0 0.0 0.0 -3.27680 -3.27680 -3.27680 -3.27680 -3.27680 -3.27680
0.66 0.667090 0.0 141.50 6.0 0.0960 0.1020 0.0 992.0 200.0 33.333330 500.0 197.0 33.333330 182.166670 890645.384620 52.0 42.0 841503942.631750 0.0 0.0 0.0 0.0 0.0 0.0 0.0 -3.27680 -3.27680 -3.27680 -3.27680 -3.27680 -3.27680
0.65 0.656850 0.0 141.60 6.0 0.0960 0.1020 0.0 992.0 200.0 31.466670 500.0 197.0 31.466670 177.333330 890644.769230 61.0 42.0 841502781.217010 0.0 0.0 0.0 0.0 0.0 0.0 0.0 -3.27680 -3.27680 -3.27680 -3.27680 -3.27680 -3.27680
0.64 0.646620 0.0 141.70 6.0 0.0960 0.1020 0.0 992.0 200.0 29.60 500.0 197.0 29.60 172.50 890644.153850 70.0 42.0 841501619.802260 0.0 0.0 0.0 0.0 0.0 0.0 0.0 -3.27680 -3.27680 -3.27680 -3.27680 -3.27680 -3.27680
0.63 0.637160 0.0 141.80 6.0 0.0960 0.1020 0.0 992.0 200.0 27.733330 500.0 197.0 27.733330 167.666670 890643.538460 79.0 42.0 841500458.387510 0.0 0.0 0.0 0.0 0.0 0.0 0.0 -3.27680 -3.27680 -3.27680 -3.27680 -3.27680 -3.27680
0.62 0.626930 0.0 141.90 6.0 0.0960 0.1020 0.0 992.20 200.0 25.866670 500.0 197.0 25.866670 162.833330 890642.923080 88.0 42.0 841499296.972760 0.0 0.0 0.0 0.0 0.0 0.0 0.0 -3.27680 -3.27680 -3.27680 -3.27680 -3.27680 -3.27680
0.61 0.616690 0.0 142.0 6.0 0.0960 0.1020 0.0 992.40 200.0 24.0 500.0 197.0 24.0 158.0 890642.307690 79.80 42.0 841498135.558020 0.0 0.0 0.0 0.0 0.0 0.0 0.0 -3.27680 -3.27680 -3.27680 -3.27680 -3.27680 -3.27680
0.60 0.606450 0.0 142.10 6.0 0.0960 0.1020 0.0 992.60 200.0 25.20 500.0 197.0 25.20 153.166670 890641.692310 71.60 42.0 841496974.143270 0.0 0.0 0.0 0.0 0.0 0.0 0.0 -3.27680 -3.27680 -3.27680 -3.27680 -3.27680 -3.27680
0.59 0.5970 0.0 142.20 6.0 0.0960 0.1020 0.0 992.80 200.0 26.40 500.0 197.0 26.40 148.333330 890641.076920 63.40 42.0 841495812.728520 0.0 0.0 0.0 0.0 0.0 0.0 0.0 -3.27680 -3.27680 -3.27680 -3.27680 -3.27680 -3.27680
0.58 0.586760 0.0 142.30 6.0 0.0960 0.1020 0.0 993.0 200.0 27.60 500.0 197.0 27.60 143.50 890640.461540 55.20 42.0 841494651.313770 0.0 0.0 0.0 0.0 0.0 0.0 0.0 -3.27680 -3.27680 -3.27680 -3.27680 -3.27680 -3.27680
0.57 0.576520 0.0 142.40 6.0 0.0960 0.1020 0.0 993.0 200.0 28.80 500.0 197.0 28.80 138.666670 890639.846150 47.0 42.0 841493489.899030 0.0 0.0 0.0 0.0 0.0 0.0 0.0 -3.27680 -3.27680 -3.27680 -3.27680 -3.27680 -3.27680
0.56 0.567070 0.0 142.50 6.0 0.0960 0.1020 0.0 993.0 200.0 30.0 500.0 197.0 30.0 133.833330 890639.230770 45.40 42.0 841492328.484280 0.0 0.0 0.0 0.0 0.0 0.0 0.0 -3.27680 -3.27680 -3.27680 -3.27680 -3.27680 -3.27680
0.55 0.556830 0.0 142.60 6.0 0.0960 0.1020 0.0 993.0 200.0 30.80 500.0 197.0 30.80 129.0 890638.615380 43.80 42.0 841491167.069530 0.0 0.0 0.0 0.0 0.0 0.0 0.0 -3.27680 -3.27680 -3.27680 -3.27680 -3.27680 -3.27680
0.54 0.547380 0.0 142.70 6.0 0.0960 0.1020 0.0 993.0 200.0 31.60 500.0 197.0 31.60 124.428570 890638.0 42.20 42.0 841490005.654780 0.0 0.0 0.0 0.0 0.0 0.0 0.0 -3.27680 -3.27680 -3.27680 -3.27680 -3.27680 -3.27680
0.53 0.537140 0.0 142.80 6.0 0.0960 0.1020 0.0 993.0 200.0 32.40 500.0 197.0 32.40 119.857140 890637.166670 40.60 42.0 841488432.921520 0.0 0.0 0.0 0.0 0.0 0.0 0.0 -3.27680 -3.27680 -3.27680 -3.27680 -3.27680 -3.27680
0.52 0.52690 0.0 142.90 6.0 0.0960 0.1020 0.0 993.0 200.0 33.20 500.0 197.0 33.20 115.285710 890636.333330 39.0 42.0 841486860.188250 0.0 0.0 0.0 0.0 0.0 0.0 0.0 -3.27680 -3.27680 -3.27680 -3.27680 -3.27680 -3.27680
0.51 0.516660 0.0 143.0 6.0 0.0960 0.1020 0.0 993.0 200.0 34.0 500.0 197.0 34.0 110.714290 890635.50 37.40 42.0 841485287.454990 0.0 0.0 0.0 0.0 0.0 0.0 0.0 -3.27680 -3.27680 -3.27680 -3.27680 -3.27680 -3.27680
0.50 0.506420 0.0 143.10 6.0 0.0960 0.1020 0.0 993.0 200.0 33.20 500.0 197.0 33.20 106.142860 890634.666670 35.80 42.0 841483714.721730 0.0 0.0 0.0 0.0 0.0 0.0 0.0 -3.27680 -3.27680 -3.27680 -3.27680 -3.27680 -3.27680
0.49 0.496180 0.0 143.20 6.0 0.0960 0.1020 0.0 993.0 200.0 32.40 500.0 197.0 32.40 101.571430 890633.833330 34.20 42.0 841482141.988460 0.0 0.0 0.0 0.0 0.0 0.0 0.0 -3.27680 -3.27680 -3.27680 -3.27680 -3.27680 -3.27680
0.48 0.486730 0.0 143.30 6.0 0.0960 0.1020 0.0 993.0 200.0 31.60 500.0 197.0 31.60 97.0 890633.0 32.60 42.0 841480569.25520 0.0 0.0 0.0 0.0 0.0 0.0 0.0 -3.27680 -3.27680 -3.27680 -3.27680 -3.27680 -3.27680
0.47 0.476490 0.0 143.40 6.006670 0.0960 0.1020 0.0 993.0 200.0 30.80 500.0 197.0 30.80 111.666670 890632.166670 31.0 42.0 841478996.521930 0.0 0.0 0.0 0.0 0.0 0.0 0.0 -3.27680 -3.27680 -3.27680 -3.27680 -3.27680 -3.27680
0.46 0.466260 0.0 143.50 6.013330 0.0960 0.1020 0.0 993.0 200.0 30.0 500.0 197.0 30.0 126.333330 890631.333330 24.80 42.0 841477423.788670 0.0 0.0 0.0 0.0 0.0 0.0 0.0 -3.27680 -3.27680 -3.27680 -3.27680 -3.27680 -3.27680
0.45 0.456810 0.0 143.60 6.020 0.0960 0.1020 0.0 993.0 200.0 29.20 500.0 197.0 29.20 141.0 890630.50 18.60 42.0 841475851.05540 0.0 0.0 0.0 0.0 0.0 0.0 0.0 -3.27680 -3.27680 -3.27680 -3.27680 -3.27680 -3.27680
