~VERSION INFORMATION SECTION
VERS. 2.0 : CWLS LAS-VERSION 2.0
WRAP. NO : One line per depth step
~WELL INFORMATION SECTION
# MNEM.UNIT VALUE/NAME DESCRIPTION
#-------- -------------- ---------------------
STRT.Metres 26 : Start
STOP.Metres -2.04 : Stop
STEP.Metres -0.01 : Step
NULL.  -999.25 :NULL VALUE
DATE. 2026-36-09 : DATE
~CURVE INFORMATION SECTION
DEPTH.Metres : 0 Depth
Depth. : 1 Depth
Tension. : 2 Tension
Time. : 3 Time
Speed. : 4 Speed
Voltage. : 5 Voltage
Current. : 6 Current
WET. : 7 WET
Sig. : 8 Sig
Vth. : 9 Vth
GR.CPS : 10 GR
Timebase.ms : 11 Timebase
HeadVoltage.V : 12 Head Voltage
API.API : 13 API
Conductivity.uS : 14 Conductivity
PT100.Ohms : 15 PT100
Vmon.mV : 16 Vmon
Status. : 17 Status
Temperature.C : 18 Temperature
Incline.Deg : 19 Incline
Azimuth.Deg : 20 Azimuth
RelativeBearing.Deg : 21 Relative Bearing
MagneticToolFace.Deg : 22 Magnetic Tool Face
GravityMagnitude.G : 23 Gravity Magnitude
MagnetometerMagnitude.H : 24 Magnetometer Magnitude
Temperature.C : 25 Temperature
GX. : 26 GX
GY. : 27 GY
GZ. : 28 GZ
HX. : 29 HX
HY. : 30 HY
HZ. : 31 HZ
~PARAMETER INFORMATION SECTION
~OTHER
#-------------------------------------------------
#Produced By: GeoVista Logger - Version 7.1.107.0
Verticality Sonde - 9605
Temperature and Conductivity Sonde - Inline - 8974
Natural Gamma Sonde - 9931
WLIS - 10021
#-------------------------------------------------
~ASCII LOG DATA
# ...
24.65 24.670630 0.0 38.10 14.970 0.0960 0.1020 1.0 0.0 200.0 48.166670 500.0 197.0 48.166670 -999.25 -999.25 141.50 -999.25 -999.25 -999.25 -999.25 -999.25 -999.25 -999.25 -999.25 -999.25 -999.25 -999.25 -999.25 -999.25 -999.25 -999.25
24.64 24.658020 0.0 38.150 14.970 0.0960 0.1020 1.0 0.0 200.0 47.333330 500.0 197.0 47.333330 -999.25 -999.25 141.416670 -999.25 -999.25 -999.25 -999.25 -999.25 -999.25 -999.25 -999.25 -999.25 -999.25 -999.25 -999.25 -999.25 -999.25 -999.25
24.63 24.645420 0.0 38.20 14.970 0.0960 0.1020 1.0 0.0 200.0 46.50 500.0 197.0 46.50 -999.25 -999.25 141.333330 -999.25 -999.25 -999.25 -999.25 -999.25 -999.25 -999.25 -999.25 -999.25 -999.25 -999.25 -999.25 -999.25 -999.25 -999.25
24.62 24.637020 0.0 38.233330 14.970 0.0960 0.1020 1.0 0.0 200.0 45.666670 500.0 197.0 45.666670 5953.041030 -999.25 141.250 14.333330 -999.25 -999.25 -999.25 -999.25 -999.25 -999.25 -999.25 -999.25 -999.25 -999.25 -999.25 -999.25 -999.25 -999.25
24.61 24.628620 0.0 38.266670 14.970 0.0960 0.1020 1.0 0.0 200.0 44.833330 500.0 197.0 44.833330 11906.082050 -999.25 141.166670 28.666670 -999.25 -999.25 -999.25 -999.25 -999.25 -999.25 -999.25 -999.25 -999.25 -999.25 -999.25 -999.25 -999.25 -999.25
24.60 24.620220 0.0 38.30 14.970 0.0960 0.1020 1.0 0.0 200.0 44.0 500.0 197.0 44.0 17859.123080 -999.25 141.083330 43.0 -999.25 -999.25 -999.25 -999.25 -999.25 -999.25 -999.25 -999.25 -999.25 -999.25 -999.25 -999.25 -999.25 -999.25
24.59 24.608010 0.0 38.350 14.970 0.0960 0.1010 1.0 0.0 200.0 44.0 500.0 197.0 44.0 17856.331620 -999.25 141.0 43.0 -999.25 -999.25 -999.25 -999.25 -999.25 -999.25 -999.25 -999.25 -999.25 -999.25 -999.25 -999.25 -999.25 -999.25
24.58 24.59580 0.0 38.40 14.970 0.0960 0.10 1.0 0.0 200.0 44.0 500.0 197.0 44.0 17853.540170 -999.25 140.916670 43.0 -999.25 -999.25 -999.25 -999.25 -999.25 -999.25 -999.25 -999.25 -999.25 -999.25 -999.25 -999.25 -999.25 -999.25
24.57 24.58740 0.0 38.433330 14.970 0.0960 0.100670 1.0 0.0 200.0 44.0 500.0 197.0 44.0 17850.748720 -999.25 140.833330 43.0 -999.25 -999.25 -999.25 -999.25 -999.25 -999.25 -999.25 -999.25 -999.25 -999.25 -999.25 -999.25 -999.25 -999.25
24.56 24.5790 0.0 38.466670 14.970 0.0960 0.101330 1.0 0.0 200.0 44.0 500.0 197.0 44.0 17847.957260 -999.25 140.750 43.0 -999.25 -999.25 -999.25 -999.25 -999.25 -999.25 -999.25 -999.25 -999.25 -999.25 -999.25 -999.25 -999.25 -999.25
24.55 24.57060 0.0 38.50 14.970 0.0960 0.1020 1.0 0.0 200.0 44.0 500.0 197.0 44.0 17845.165810 -999.25 140.666670 43.0 -999.25 -999.25 -999.25 -999.25 -999.25 -999.25 -999.25 -999.25 -999.25 -999.25 -999.25 -999.25 -999.25 -999.25
24.54 24.5580 0.0 38.550 14.970 0.0960 0.1020 1.0 0.083330 200.0 44.0 500.0 197.0 44.0 17842.374360 -999.25 140.583330 43.0 -999.25 -999.25 -999.25 -999.25 -999.25 -999.25 -999.25 -999.25 -999.25 -999.25 -999.25 -999.25 -999.25 -999.25
24.53 24.54540 0.0 38.60 14.970 0.0960 0.1020 1.0 0.166670 200.0 44.0 500.0 197.0 44.0 17839.582910 -999.25 140.50 43.0 -999.25 -999.25 -999.25 -999.25 -999.25 -999.25 -999.25 -999.25 -999.25 -999.25 -999.25 -999.25 -999.25 -999.25
24.52 24.5370 0.0 38.633330 14.973330 0.0960 0.1020 1.0 0.250 200.0 44.0 500.0 197.0 44.0 17836.791450 -999.25 140.416670 43.0 -999.25 -999.25 -999.25 -999.25 -999.25 -999.25 -999.25 -999.25 -999.25 -999.25 -999.25 -999.25 -999.25 -999.25
24.51 24.52860 0.0 38.666670 14.976670 0.0960 0.1020 1.0 0.333330 200.0 44.0 500.0 197.0 44.0 17834.0 -999.25 140.333330 43.0 -999.25 -999.25 -999.25 -999.25 -999.25 -999.25 -999.25 -999.25 -999.25 -999.25 -999.25 -999.25 -999.25 -999.25
24.50 24.52020 0.0 38.70 14.980 0.0960 0.1020 1.0 0.416670 200.0 44.0 500.0 197.0 44.0 17854.583330 -999.25 140.250 43.0 -999.25 -999.25 -999.25 -999.25 -999.25 -999.25 -999.25 -999.25 -999.25 -999.25 -999.25 -999.25 -999.25 -999.25
24.49 24.507990 0.0 38.750 14.983330 0.0960 0.1020 1.0 0.50 200.0 44.0 500.0 197.0 44.0 17875.166670 296297.882050 140.166670 43.0 279400374.431050 -999.25 -999.25 -999.25 -999.25 -999.25 -999.25 -999.25 -999.25 -999.25 -999.25 -999.25 -999.25 -999.25
24.48 24.495780 0.0 38.80 14.986670 0.0960 0.1020 1.0 0.583330 200.0 44.0 500.0 197.0 44.0 17895.750 592595.76410 140.083330 43.0 558800748.862110 -999.25 -999.25 -999.25 -999.25 -999.25 -999.25 -999.25 -999.25 -999.25 -999.25 -999.25 -999.25 -999.25
24.47 24.487380 0.0 38.833330 14.990 0.0960 0.1020 1.0 0.666670 200.0 44.0 500.0 197.0 44.0 17916.333330 888893.646150 140.0 43.0 838201123.293160 -999.25 -999.25 -999.25 -999.25 -999.25 -999.25 -999.25 -999.25 -999.25 -999.25 -999.25 -999.25 -999.25
24.46 24.478980 0.0 38.866670 14.993330 0.0960 0.1020 1.0 0.750 200.0 41.833330 500.0 197.0 41.833330 17936.916670 888898.907690 140.083330 43.0 838211034.159650 -999.25 -999.25 -999.25 -999.25 -999.25 -999.25 -999.25 -999.25 -999.25 -999.25 -999.25 -999.25 -999.25
24.45 24.470580 0.0 38.90 14.996670 0.0960 0.1020 1.0 0.833330 200.0 39.666670 500.0 197.0 39.666670 17957.50 888904.169230 140.166670 43.0 838220945.026130 -999.25 -999.25 -999.25 -999.25 -999.25 -999.25 -999.25 -999.25 -999.25 -999.25 -999.25 -999.25 -999.25
24.44 24.458370 0.0 38.950 15.0 0.0960 0.1020 1.0 0.916670 200.0 37.50 500.0 197.0 37.50 17978.083330 888909.430770 140.250 43.0 838230855.892620 -999.25 -999.25 -999.25 -999.25 -999.25 -999.25 -999.25 -999.25 -999.25 -999.25 -999.25 -999.25 -999.25
24.43 24.446160 0.0 39.0 15.003330 0.0960 0.1020 1.0 1.0 200.0 35.333330 500.0 197.0 35.333330 17998.666670 888914.692310 140.333330 43.0 838240766.75910 -999.25 -999.25 -999.25 -999.25 -999.25 -999.25 -999.25 -999.25 -999.25 -999.25 -999.25 -999.25 -999.25
24.42 24.437760 0.0 39.033330 15.006670 0.0960 0.1020 1.0 1.0 200.0 33.166670 500.0 197.0 33.166670 18019.250 888919.953850 140.416670 43.0 838250677.625590 -999.25 -999.25 -999.25 -999.25 -999.25 -999.25 -999.25 -999.25 -999.25 -999.25 -999.25 -999.25 -999.25
24.41 24.429360 0.0 39.066670 15.010 0.0960 0.1020 1.0 1.0 200.0 31.0 500.0 197.0 31.0 18039.833330 888925.215380 140.50 43.0 838260588.492070 -999.25 -999.25 -999.25 -999.25 -999.25 -999.25 -999.25 -999.25 -999.25 -999.25 -999.25 -999.25 -999.25
24.40 24.420960 0.0 39.10 15.013330 0.0960 0.1020 1.0 1.0 200.0 28.833330 500.0 197.0 28.833330 18060.416670 888930.476920 140.583330 43.0 838270499.358560 -999.25 -999.25 -999.25 -999.25 -999.25 -999.25 -999.25 -999.25 -999.25 -999.25 -999.25 -999.25 -999.25
24.39 24.408750 0.0 39.150 15.016670 0.0960 0.1010 1.0 1.0 200.0 26.666670 500.0 197.0 26.666670 18081.0 888935.738460 140.666670 43.0 838280410.225040 -999.25 -999.25 -999.25 -999.25 -999.25 -999.25 -999.25 -999.25 -999.25 -999.25 -999.25 -999.25 -999.25
24.38 24.396540 0.0 39.20 15.020 0.0960 0.10 1.0 1.0 200.0 24.50 500.0 197.0 24.50 18106.166670 888941.0 140.750 43.0 838290321.091530 -999.25 -999.25 -999.25 -999.25 -999.25 -999.25 -999.25 -999.25 -999.25 -999.25 -999.25 -999.25 -999.25
24.37 24.388140 0.0 39.233330 15.0140 0.0960 0.100670 1.0 1.0 200.0 22.333330 500.0 197.0 22.333330 18131.333330 888940.833330 140.833330 43.0 838290007.142050 -999.25 -999.25 -999.25 -999.25 -999.25 -999.25 -999.25 -999.25 -999.25 -999.25 -999.25 -999.25 -999.25
24.36 24.379740 0.0 39.266670 15.0080 0.0960 0.101330 1.0 1.0 200.0 20.166670 500.0 197.0 20.166670 18156.50 888940.666670 140.916670 43.0 838289693.192570 -999.25 -999.25 -999.25 -999.25 -999.25 -999.25 -999.25 -999.25 -999.25 -999.25 -999.25 -999.25 -999.25
24.35 24.371340 0.0 39.30 15.0020 0.0960 0.1020 1.0 1.0 200.0 18.0 500.0 197.0 18.0 18181.666670 888940.50 141.0 43.0 838289379.24310 -999.25 -999.25 -999.25 -999.25 -999.25 -999.25 -999.25 -999.25 -999.25 -999.25 -999.25 -999.25 -999.25
24.34 24.358740 0.0 39.350 14.9960 0.0960 0.1020 1.0 1.0 200.0 18.153850 500.0 197.0 18.153850 18206.833330 888940.333330 141.0 43.0 838289065.293620 -999.25 -999.25 -999.25 -999.25 -999.25 -999.25 -999.25 -999.25 -999.25 -999.25 -999.25 -999.25 -999.25
24.33 24.346140 0.0 39.40 14.990 0.0960 0.1020 1.0 1.0 200.0 18.307690 500.0 197.0 18.307690 18232.0 888940.166670 141.0 43.0 838288751.344150 -999.25 -999.25 -999.25 -999.25 -999.25 -999.25 -999.25 -999.25 -999.25 -999.25 -999.25 -999.25 -999.25
