~VERSION INFORMATION SECTION
VERS. 2.0 : CWLS LAS-VERSION 2.0
WRAP. NO : One line per depth step
~WELL INFORMATION SECTION
# MNEM.UNIT VALUE/NAME DESCRIPTION
#-------- -------------- ---------------------
STRT.Metres 26 : Start
STOP.Metres -2.05 : Stop
STEP.Metres -0.01 : Step
NULL.  -999.25 :NULL VALUE
DATE. 2026-23-09 : DATE
~CURVE INFORMATION SECTION
DEPTH.Metres : 0 Depth
Depth. : 1 Depth
Tension. : 2 Tension
Time. : 3 Time
Speed. : 4 Speed
Voltage. : 5 Voltage
Current. : 6 Current
WET. : 7 WET
Sig. : 8 Sig
Vth. : 9 Vth
GR.CPS : 10 GR
Timebase.ms : 11 Timebase
HeadVoltage.V : 12 Head Voltage
API.API : 13 API
Conductivity.uS : 14 Conductivity
PT100.Ohms : 15 PT100
Vmon.mV : 16 Vmon
Status. : 17 Status
Temperature.C : 18 Temperature
Incline.Deg : 19 Incline
Azimuth.Deg : 20 Azimuth
RelativeBearing.Deg : 21 Relative Bearing
MagneticToolFace.Deg : 22 Magnetic Tool Face
GravityMagnitude.G : 23 Gravity Magnitude
MagnetometerMagnitude.H : 24 Magnetometer Magnitude
Temperature.C : 25 Temperature
GX. : 26 GX
GY. : 27 GY
GZ. : 28 GZ
HX. : 29 HX
HY. : 30 HY
HZ. : 31 HZ
~PARAMETER INFORMATION SECTION
~OTHER
#-------------------------------------------------
#Produced By: GeoVista Logger - Version 7.1.107.0
Verticality Sonde - 9605
Temperature and Conductivity Sonde - Inline - 8974
Natural Gamma Sonde - 9931
WLIS - 10021
#-------------------------------------------------
~ASCII LOG DATA
# ...
12.79 12.809970 0.0 64.266670 15.006670 0.0960 0.1020 1.0 38.923080 200.0 25.538460 500.0 197.0 25.538460 2253.384620 889634.333330 159.0 43.0 839596861.093230 0.0 0.0 0.0 0.0 0.0 0.0 0.0 -3.27680 -3.27680 -3.27680 -3.27680 -3.27680 -3.27680
12.78 12.801570 0.0 64.30 15.003330 0.0960 0.1020 1.0 39.0 200.0 24.923080 500.0 197.0 24.923080 2251.538460 889635.250 159.0 43.0 839598589.158820 0.0 0.0 0.0 0.0 0.0 0.0 0.0 -3.27680 -3.27680 -3.27680 -3.27680 -3.27680 -3.27680
12.77 12.788970 0.0 64.350 15.0 0.0960 0.1020 1.0 39.0 200.0 24.307690 500.0 197.0 24.307690 2249.692310 889636.166670 159.0 43.0 839600317.224410 0.0 0.0 0.0 0.0 0.0 0.0 0.0 -3.27680 -3.27680 -3.27680 -3.27680 -3.27680 -3.27680
12.76 12.776370 0.0 64.40 14.996670 0.0960 0.1020 1.0 39.0 200.0 23.692310 500.0 197.0 23.692310 2247.846150 889637.083330 159.0 43.0 839602045.290 0.0 0.0 0.0 0.0 0.0 0.0 0.0 -3.27680 -3.27680 -3.27680 -3.27680 -3.27680 -3.27680
12.75 12.768230 0.0 64.433330 14.993330 0.0960 0.102670 1.0 39.0 200.0 23.076920 500.0 197.0 23.076920 2246.0 889638.0 159.0 43.0 839603773.355580 0.0 0.0 0.0 0.0 0.0 0.0 0.0 -3.27680 -3.27680 -3.27680 -3.27680 -3.27680 -3.27680
12.74 12.760090 0.0 64.466670 14.990 0.0960 0.103330 1.0 39.0 200.0 22.461540 500.0 197.0 22.461540 2244.583330 889638.923080 159.0 43.0 839605513.528010 0.0 0.0 0.0 0.0 0.0 0.0 0.0 -3.27680 -3.27680 -3.27680 -3.27680 -3.27680 -3.27680
12.73 12.751950 0.0 64.50 14.986670 0.0960 0.1040 1.0 39.0 200.0 21.846150 500.0 197.0 21.846150 2243.166670 889639.846150 159.0 43.0 839607253.700440 0.0 0.0 0.0 0.0 0.0 0.0 0.0 -3.27680 -3.27680 -3.27680 -3.27680 -3.27680 -3.27680
12.72 12.739350 0.0 64.550 14.983330 0.0960 0.1030 1.0 39.0 200.0 21.230770 500.0 197.0 21.230770 2241.750 889640.769230 159.0 43.0 839608993.872870 0.0 0.0 0.0 0.0 0.0 0.0 0.0 -3.27680 -3.27680 -3.27680 -3.27680 -3.27680 -3.27680
12.71 12.726750 0.0 64.60 14.980 0.0960 0.1020 1.0 39.0 200.0 20.615380 500.0 197.0 20.615380 2240.333330 889641.692310 159.0 43.0 839610734.04530 0.0 0.0 0.0 0.0 0.0 0.0 0.0 -3.27680 -3.27680 -3.27680 -3.27680 -3.27680 -3.27680
12.70 12.718610 0.0 64.633330 14.976670 0.0960 0.1020 1.0 39.0 200.0 20.0 500.0 197.0 20.0 2238.916670 889642.615380 159.0 43.0 839612474.217730 0.0 0.0 0.0 0.0 0.0 0.0 0.0 -3.27680 -3.27680 -3.27680 -3.27680 -3.27680 -3.27680
12.69 12.710470 0.0 64.666670 14.973330 0.0960 0.1020 1.0 39.0 200.0 20.833330 500.0 197.0 20.833330 2237.50 889643.538460 159.0 43.0 839614214.390150 0.0 0.0 0.0 0.0 0.0 0.0 0.0 -3.27680 -3.27680 -3.27680 -3.27680 -3.27680 -3.27680
12.68 12.702330 0.0 64.70 14.970 0.0960 0.1020 1.0 39.0 200.0 21.666670 500.0 197.0 21.666670 2236.083330 889644.461540 159.0 43.0 839615954.562580 0.0 0.0 0.0 0.0 0.0 0.0 0.0 -3.27680 -3.27680 -3.27680 -3.27680 -3.27680 -3.27680
12.67 12.689730 0.0 64.750 14.970 0.0960 0.1020 1.0 39.0 200.0 22.50 500.0 197.0 22.50 2234.666670 889645.384620 159.0 43.0 839617694.735010 0.0 0.0 0.0 0.0 0.0 0.0 0.0 -3.27680 -3.27680 -3.27680 -3.27680 -3.27680 -3.27680
12.66 12.677130 0.0 64.80 14.970 0.0960 0.1020 1.0 39.0 200.0 23.333330 500.0 197.0 23.333330 2233.250 889646.307690 159.0 43.0 839619434.907440 0.0 0.0 0.0 0.0 0.0 0.0 0.0 -3.27680 -3.27680 -3.27680 -3.27680 -3.27680 -3.27680
12.65 12.668730 0.0 64.833330 14.970 0.0960 0.1020 1.0 39.0 200.0 24.166670 500.0 197.0 24.166670 2231.833330 889647.230770 159.0 43.0 839621175.079870 0.0 0.0 0.0 0.0 0.0 0.0 0.0 -3.27680 -3.27680 -3.27680 -3.27680 -3.27680 -3.27680
12.64 12.660330 0.0 64.866670 14.970 0.0960 0.1020 1.0 39.0 200.0 25.0 500.0 197.0 25.0 2230.416670 889648.153850 159.0 43.0 839622915.25230 0.0 0.0 0.0 0.0 0.0 0.0 0.0 -3.27680 -3.27680 -3.27680 -3.27680 -3.27680 -3.27680
12.63 12.651930 0.0 64.90 14.970 0.0960 0.1020 1.0 39.0 200.0 25.833330 500.0 197.0 25.833330 2229.0 889649.076920 159.0 43.0 839624655.424730 0.0 0.0 0.0 0.0 0.0 0.0 0.0 -3.27680 -3.27680 -3.27680 -3.27680 -3.27680 -3.27680
12.62 12.639720 0.0 64.950 14.970 0.0960 0.1020 1.0 39.0 200.0 26.666670 500.0 197.0 26.666670 2228.923080 889650.0 159.0 43.0 839626395.597160 0.0 0.0 0.0 0.0 0.0 0.0 0.0 -3.27680 -3.27680 -3.27680 -3.27680 -3.27680 -3.27680
12.61 12.627510 0.0 65.0 14.970 0.0960 0.1020 1.0 39.0 200.0 27.50 500.0 197.0 27.50 2228.846150 889650.666670 159.0 43.0 839627652.402460 0.0 0.0 0.0 0.0 0.0 0.0 0.0 -3.27680 -3.27680 -3.27680 -3.27680 -3.27680 -3.27680
12.60 12.619110 0.0 65.033330 14.970 0.0960 0.1020 1.0 39.0 200.0 28.333330 500.0 197.0 28.333330 2228.769230 889651.333330 159.0 43.0 839628909.207770 0.0 0.0 0.0 0.0 0.0 0.0 0.0 -3.27680 -3.27680 -3.27680 -3.27680 -3.27680 -3.27680
12.59 12.610710 0.0 65.066670 14.970 0.0960 0.1020 1.0 39.0 200.0 29.166670 500.0 197.0 29.166670 2228.692310 889652.0 159.0 43.0 839630166.013080 0.0 0.0 0.0 0.0 0.0 0.0 0.0 -3.27680 -3.27680 -3.27680 -3.27680 -3.27680 -3.27680
12.58 12.602310 0.0 65.10 14.970 0.0960 0.1020 1.0 39.0 200.0 30.0 500.0 197.0 30.0 2228.615380 889652.666670 159.0 43.0 839631422.818390 0.0 0.0 0.0 0.0 0.0 0.0 0.0 -3.27680 -3.27680 -3.27680 -3.27680 -3.27680 -3.27680
12.57 12.589710 0.0 65.150 14.970 0.0960 0.1020 1.0 39.0 200.0 28.769230 500.0 197.0 28.769230 2228.538460 889653.333330 159.0 43.0 839632679.623690 0.0 0.0 0.0 0.0 0.0 0.0 0.0 -3.27680 -3.27680 -3.27680 -3.27680 -3.27680 -3.27680
12.56 12.57710 0.0 65.20 14.970 0.0960 0.1020 1.0 39.0 200.0 27.538460 500.0 197.0 27.538460 2228.461540 889654.0 159.0 43.0 839633936.4290 0.0 0.0 0.0 0.0 0.0 0.0 0.0 -3.27680 -3.27680 -3.27680 -3.27680 -3.27680 -3.27680
12.55 12.56870 0.0 65.233330 14.970 0.0960 0.1020 1.0 39.0 200.0 26.307690 500.0 197.0 26.307690 2228.384620 889654.666670 159.0 43.0 839635193.234310 0.0 0.0 0.0 0.0 0.0 0.0 0.0 -3.27680 -3.27680 -3.27680 -3.27680 -3.27680 -3.27680
12.54 12.56030 0.0 65.266670 14.970 0.0960 0.1020 1.0 39.0 200.0 25.076920 500.0 197.0 25.076920 2228.307690 889655.333330 159.0 43.0 839636450.039620 0.0 0.0 0.0 0.0 0.0 0.0 0.0 -3.27680 -3.27680 -3.27680 -3.27680 -3.27680 -3.27680
12.53 12.55190 0.0 65.30 14.970 0.0960 0.1020 1.0 39.0 200.0 23.846150 500.0 197.0 23.846150 2228.230770 889656.0 159.0 43.0 839637706.844920 0.0 0.0 0.0 0.0 0.0 0.0 0.0 -3.27680 -3.27680 -3.27680 -3.27680 -3.27680 -3.27680
12.52 12.539690 0.0 65.350 14.967330 0.0960 0.1020 1.0 39.0 200.0 22.615380 500.0 197.0 22.615380 2228.153850 889656.666670 159.0 43.0 839638963.650230 0.0 0.0 0.0 0.0 0.0 0.0 0.0 -3.27680 -3.27680 -3.27680 -3.27680 -3.27680 -3.27680
12.51 12.527490 0.0 65.40 14.964670 0.0960 0.1020 1.0 39.0 200.0 21.384620 500.0 197.0 21.384620 2228.076920 889657.333330 159.0 43.0 839640220.455540 0.0 0.0 0.0 0.0 0.0 0.0 0.0 -3.27680 -3.27680 -3.27680 -3.27680 -3.27680 -3.27680
12.50 12.519090 0.0 65.433330 14.9620 0.0960 0.1020 1.0 39.0 200.0 20.153850 500.0 197.0 20.153850 2228.0 889658.0 159.0 43.0 839641477.260850 0.0 0.0 0.0 0.0 0.0 0.0 0.0 -3.27680 -3.27680 -3.27680 -3.27680 -3.27680 -3.27680
12.49 12.510680 0.0 65.466670 14.959330 0.0960 0.1020 1.0 39.0 200.0 18.923080 500.0 197.0 18.923080 2228.083330 889659.0 159.0 43.0 839643362.491030 0.0 0.0 0.0 0.0 0.0 0.0 0.0 -3.27680 -3.27680 -3.27680 -3.27680 -3.27680 -3.27680
12.48 12.502280 0.0 65.50 14.956670 0.0960 0.1020 1.0 39.0 200.0 17.692310 500.0 197.0 17.692310 2228.166670 889660.0 159.0 43.0 839645247.721210 0.0 0.0 0.0 0.0 0.0 0.0 0.0 -3.27680 -3.27680 -3.27680 -3.27680 -3.27680 -3.27680
12.47 12.489680 0.0 65.550 14.9540 0.0960 0.1020 1.0 39.0 200.0 16.461540 500.0 197.0 16.461540 2228.250 889661.0 159.0 43.0 839647132.95140 0.0 0.0 0.0 0.0 0.0 0.0 0.0 -3.27680 -3.27680 -3.27680 -3.27680 -3.27680 -3.27680
12.46 12.477080 0.0 65.60 14.951330 0.0960 0.1020 1.0 39.0 200.0 15.230770 500.0 197.0 15.230770 2228.333330 889662.0 159.0 43.0 839649018.181580 0.0 0.0 0.0 0.0 0.0 0.0 0.0 -3.27680 -3.27680 -3.27680 -3.27680 -3.27680 -3.27680
12.45 12.468680 0.0 65.633330 14.948670 0.0960 0.1020 1.0 39.0 200.0 14.0 500.0 197.0 14.0 2228.416670 889663.0 159.0 43.0 839650903.411770 0.0 0.0 0.0 0.0 0.0 0.0 0.0 -3.27680 -3.27680 -3.27680 -3.27680 -3.27680 -3.27680
