~VERSION INFORMATION SECTION
VERS. 2.0 : CWLS LAS-VERSION 2.0
WRAP. NO : One line per depth step
~WELL INFORMATION SECTION
# MNEM.UNIT VALUE/NAME DESCRIPTION
#-------- -------------- ---------------------
STRT.Metres 26 : Start
STOP.Metres -2.05 : Stop
STEP.Metres -0.01 : Step
NULL.  -999.25 :NULL VALUE
DATE. 2026-23-09 : DATE
~CURVE INFORMATION SECTION
DEPTH.Metres : 0 Depth
Depth. : 1 Depth
Tension. : 2 Tension
Time. : 3 Time
Speed. : 4 Speed
Voltage. : 5 Voltage
Current. : 6 Current
WET. : 7 WET
Sig. : 8 Sig
Vth. : 9 Vth
GR.CPS : 10 GR
Timebase.ms : 11 Timebase
HeadVoltage.V : 12 Head Voltage
API.API : 13 API
Conductivity.uS : 14 Conductivity
PT100.Ohms : 15 PT100
Vmon.mV : 16 Vmon
Status. : 17 Status
Temperature.C : 18 Temperature
Incline.Deg : 19 Incline
Azimuth.Deg : 20 Azimuth
RelativeBearing.Deg : 21 Relative Bearing
MagneticToolFace.Deg : 22 Magnetic Tool Face
GravityMagnitude.G : 23 Gravity Magnitude
MagnetometerMagnitude.H : 24 Magnetometer Magnitude
Temperature.C : 25 Temperature
GX. : 26 GX
GY. : 27 GY
GZ. : 28 GZ
HX. : 29 HX
HY. : 30 HY
HZ. : 31 HZ
~PARAMETER INFORMATION SECTION
~OTHER
#-------------------------------------------------
#Produced By: GeoVista Logger - Version 7.1.107.0
Verticality Sonde - 9605
Temperature and Conductivity Sonde - Inline - 8974
Natural Gamma Sonde - 9931
WLIS - 10021
#-------------------------------------------------
~ASCII LOG DATA
# ...
24.64 24.660390 0.0 8.60 14.970 0.0960 0.1020 1.0 0.0 200.0 38.0 500.0 197.0 38.0 -999.25 -999.25 151.916670 -999.25 -999.25 -999.25 -999.25 -999.25 -999.25 -999.25 -999.25 -999.25 -999.25 -999.25 -999.25 -999.25 -999.25 -999.25
24.63 24.647790 0.0 8.650 14.970 0.0960 0.1020 1.0 0.0 200.0 39.384620 500.0 197.0 39.384620 9317.50 -999.25 152.0 23.50 -999.25 -999.25 -999.25 -999.25 -999.25 -999.25 -999.25 -999.25 -999.25 -999.25 -999.25 -999.25 -999.25 -999.25
24.62 24.635180 0.0 8.70 14.970 0.0960 0.1020 1.0 0.0 200.0 40.769230 500.0 197.0 40.769230 18635.0 -999.25 151.916670 47.0 -999.25 -999.25 -999.25 -999.25 -999.25 -999.25 -999.25 -999.25 -999.25 -999.25 -999.25 -999.25 -999.25 -999.25
24.61 24.627050 0.0 8.733330 14.970 0.0960 0.1020 1.0 0.0 200.0 42.153850 500.0 197.0 42.153850 18640.571430 -999.25 151.833330 47.0 -999.25 -999.25 -999.25 -999.25 -999.25 -999.25 -999.25 -999.25 -999.25 -999.25 -999.25 -999.25 -999.25 -999.25
24.60 24.618910 0.0 8.766670 14.970 0.0960 0.1020 1.0 0.0 200.0 43.538460 500.0 197.0 43.538460 18646.142860 -999.25 151.750 47.0 -999.25 -999.25 -999.25 -999.25 -999.25 -999.25 -999.25 -999.25 -999.25 -999.25 -999.25 -999.25 -999.25 -999.25
24.59 24.610770 0.0 8.80 14.970 0.0960 0.1020 1.0 0.0 200.0 44.923080 500.0 197.0 44.923080 18651.714290 -999.25 151.666670 47.0 -999.25 -999.25 -999.25 -999.25 -999.25 -999.25 -999.25 -999.25 -999.25 -999.25 -999.25 -999.25 -999.25 -999.25
24.58 24.598170 0.0 8.850 14.970 0.0960 0.1020 1.0 0.0 200.0 46.307690 500.0 197.0 46.307690 18657.285710 -999.25 151.583330 47.0 -999.25 -999.25 -999.25 -999.25 -999.25 -999.25 -999.25 -999.25 -999.25 -999.25 -999.25 -999.25 -999.25 -999.25
24.57 24.585570 0.0 8.90 14.970 0.0960 0.1020 1.0 0.0 200.0 47.692310 500.0 197.0 47.692310 18662.857140 -999.25 151.50 47.0 -999.25 -999.25 -999.25 -999.25 -999.25 -999.25 -999.25 -999.25 -999.25 -999.25 -999.25 -999.25 -999.25 -999.25
24.56 24.577160 0.0 8.933330 14.976670 0.0960 0.1020 1.0 0.0 200.0 49.076920 500.0 197.0 49.076920 18668.428570 -999.25 151.416670 47.0 -999.25 -999.25 -999.25 -999.25 -999.25 -999.25 -999.25 -999.25 -999.25 -999.25 -999.25 -999.25 -999.25 -999.25
24.55 24.568760 0.0 8.966670 14.983330 0.0960 0.1020 1.0 0.0 200.0 50.461540 500.0 196.923080 50.461540 18674.0 -999.25 151.333330 47.0 -999.25 -999.25 -999.25 -999.25 -999.25 -999.25 -999.25 -999.25 -999.25 -999.25 -999.25 -999.25 -999.25 -999.25
24.54 24.560360 0.0 9.0 14.990 0.0960 0.1020 1.0 0.0 200.0 51.846150 500.0 196.846150 51.846150 18677.750 -999.25 151.250 47.0 -999.25 -999.25 -999.25 -999.25 -999.25 -999.25 -999.25 -999.25 -999.25 -999.25 -999.25 -999.25 -999.25 -999.25
24.53 24.547760 0.0 9.050 14.996670 0.0960 0.1020 1.0 0.0 200.0 53.230770 500.0 196.769230 53.230770 18681.50 -999.25 151.166670 47.0 -999.25 -999.25 -999.25 -999.25 -999.25 -999.25 -999.25 -999.25 -999.25 -999.25 -999.25 -999.25 -999.25 -999.25
24.52 24.535160 0.0 9.10 15.003330 0.0960 0.1020 1.0 0.0 200.0 54.615380 500.0 196.692310 54.615380 18685.250 -999.25 151.083330 47.0 -999.25 -999.25 -999.25 -999.25 -999.25 -999.25 -999.25 -999.25 -999.25 -999.25 -999.25 -999.25 -999.25 -999.25
24.51 24.527020 0.0 9.133330 15.010 0.0960 0.1020 1.0 0.0 200.0 56.0 500.0 196.615380 56.0 18689.0 -999.25 151.0 47.0 -999.25 -999.25 -999.25 -999.25 -999.25 -999.25 -999.25 -999.25 -999.25 -999.25 -999.25 -999.25 -999.25 -999.25
24.50 24.518880 0.0 9.166670 15.016670 0.0960 0.1020 1.0 0.0 200.0 54.833330 500.0 196.538460 54.833330 18692.750 444407.50 151.083330 47.0 419026495.910960 -999.25 -999.25 -999.25 -999.25 -999.25 -999.25 -999.25 -999.25 -999.25 -999.25 -999.25 -999.25 -999.25
24.49 24.510740 0.0 9.20 15.023330 0.0960 0.1020 1.0 0.0 200.0 53.666670 500.0 196.461540 53.666670 18696.50 888815.0 151.166670 47.0 838052991.821910 -999.25 -999.25 -999.25 -999.25 -999.25 -999.25 -999.25 -999.25 -999.25 -999.25 -999.25 -999.25 -999.25
24.48 24.498540 0.0 9.250 15.030 0.0960 0.1020 1.0 0.0 200.0 52.50 500.0 196.384620 52.50 18700.250 888815.0 151.250 47.0 838052991.821850 -999.25 -999.25 -999.25 -999.25 -999.25 -999.25 -999.25 -999.25 -999.25 -999.25 -999.25 -999.25 -999.25
24.47 24.486330 0.0 9.30 15.036670 0.0960 0.1020 1.0 0.0 200.0 51.333330 500.0 196.307690 51.333330 18704.0 888815.0 151.333330 47.0 838052991.821790 -999.25 -999.25 -999.25 -999.25 -999.25 -999.25 -999.25 -999.25 -999.25 -999.25 -999.25 -999.25 -999.25
24.46 24.477930 0.0 9.333330 15.043330 0.0960 0.1020 1.0 0.076920 200.0 50.166670 500.0 196.230770 50.166670 18707.750 888815.0 151.416670 47.0 838052991.821730 -999.25 -999.25 -999.25 -999.25 -999.25 -999.25 -999.25 -999.25 -999.25 -999.25 -999.25 -999.25 -999.25
24.45 24.469530 0.0 9.366670 15.050 0.0960 0.1020 1.0 0.153850 200.0 49.0 500.0 196.153850 49.0 18711.50 888815.0 151.50 47.0 838052991.821670 -999.25 -999.25 -999.25 -999.25 -999.25 -999.25 -999.25 -999.25 -999.25 -999.25 -999.25 -999.25 -999.25
24.44 24.461130 0.0 9.40 15.056670 0.0960 0.1020 1.0 0.230770 200.0 47.833330 500.0 196.076920 47.833330 18715.250 888815.0 151.583330 47.0 838052991.821610 -999.25 -999.25 -999.25 -999.25 -999.25 -999.25 -999.25 -999.25 -999.25 -999.25 -999.25 -999.25 -999.25
24.43 24.448920 0.0 9.450 15.063330 0.0960 0.1020 1.0 0.307690 200.0 46.666670 500.0 196.0 46.666670 18719.0 888815.0 151.666670 47.0 838052991.821550 -999.25 -999.25 -999.25 -999.25 -999.25 -999.25 -999.25 -999.25 -999.25 -999.25 -999.25 -999.25 -999.25
24.42 24.436710 0.0 9.50 15.070 0.0960 0.1020 1.0 0.384620 200.0 45.50 500.0 196.083330 45.50 18724.083330 888815.0 151.750 47.0 838052991.821490 -999.25 -999.25 -999.25 -999.25 -999.25 -999.25 -999.25 -999.25 -999.25 -999.25 -999.25 -999.25 -999.25
24.41 24.428310 0.0 9.533330 15.0540 0.0960 0.1020 1.0 0.461540 200.0 44.333330 500.0 196.166670 44.333330 18729.166670 888815.166670 151.833330 47.0 838053305.727230 -999.25 -999.25 -999.25 -999.25 -999.25 -999.25 -999.25 -999.25 -999.25 -999.25 -999.25 -999.25 -999.25
24.40 24.419910 0.0 9.566670 15.0380 0.0960 0.1020 1.0 0.538460 200.0 43.166670 500.0 196.250 43.166670 18734.250 888815.333330 151.916670 47.0 838053619.632960 -999.25 -999.25 -999.25 -999.25 -999.25 -999.25 -999.25 -999.25 -999.25 -999.25 -999.25 -999.25 -999.25
24.39 24.411510 0.0 9.60 15.0220 0.0960 0.1020 1.0 0.615380 200.0 42.0 500.0 196.333330 42.0 18739.333330 888815.50 152.0 47.0 838053933.53870 -999.25 -999.25 -999.25 -999.25 -999.25 -999.25 -999.25 -999.25 -999.25 -999.25 -999.25 -999.25 -999.25
24.38 24.398910 0.0 9.650 15.0060 0.0960 0.1020 1.0 0.692310 200.0 40.615380 500.0 196.416670 40.615380 18744.416670 888815.666670 151.923080 47.0 838054247.444440 -999.25 -999.25 -999.25 -999.25 -999.25 -999.25 -999.25 -999.25 -999.25 -999.25 -999.25 -999.25 -999.25
24.37 24.38630 0.0 9.70 14.990 0.0960 0.1020 1.0 0.769230 200.0 39.230770 500.0 196.50 39.230770 18749.50 888815.833330 151.846150 47.0 838054561.350170 -999.25 -999.25 -999.25 -999.25 -999.25 -999.25 -999.25 -999.25 -999.25 -999.25 -999.25 -999.25 -999.25
24.36 24.378170 0.0 9.733330 14.9740 0.0960 0.1020 1.0 0.846150 200.0 37.846150 500.0 196.583330 37.846150 18754.583330 888816.0 151.769230 47.0 838054875.255910 -999.25 -999.25 -999.25 -999.25 -999.25 -999.25 -999.25 -999.25 -999.25 -999.25 -999.25 -999.25 -999.25
24.35 24.370030 0.0 9.766670 14.9580 0.0960 0.1020 1.0 0.923080 200.0 36.461540 500.0 196.666670 36.461540 18759.666670 888816.166670 151.692310 47.0 838055189.161640 -999.25 -999.25 -999.25 -999.25 -999.25 -999.25 -999.25 -999.25 -999.25 -999.25 -999.25 -999.25 -999.25
24.34 24.361890 0.0 9.80 14.9420 0.0960 0.1020 1.0 1.0 200.0 35.076920 500.0 196.750 35.076920 18764.750 888816.333330 151.615380 47.0 838055503.067380 -999.25 -999.25 -999.25 -999.25 -999.25 -999.25 -999.25 -999.25 -999.25 -999.25 -999.25 -999.25 -999.25
24.33 24.349290 0.0 9.850 14.9260 0.0960 0.1020 1.0 1.0 200.0 33.692310 500.0 196.833330 33.692310 18769.833330 888816.50 151.538460 47.0 838055816.973120 -999.25 -999.25 -999.25 -999.25 -999.25 -999.25 -999.25 -999.25 -999.25 -999.25 -999.25 -999.25 -999.25
