~VERSION INFORMATION SECTION
VERS. 2.0 : CWLS LAS-VERSION 2.0
WRAP. NO : One line per depth step
~WELL INFORMATION SECTION
# MNEM.UNIT VALUE/NAME DESCRIPTION
#-------- -------------- ---------------------
STRT.Metres 26 : Start
STOP.Metres -2.05 : Stop
STEP.Metres -0.01 : Step
NULL.  -999.25 :NULL VALUE
DATE. 2026-23-09 : DATE
~CURVE INFORMATION SECTION
DEPTH.Metres : 0 Depth
Depth. : 1 Depth
Tension. : 2 Tension
Time. : 3 Time
Speed. : 4 Speed
Voltage. : 5 Voltage
Current. : 6 Current
WET. : 7 WET
Sig. : 8 Sig
Vth. : 9 Vth
GR.CPS : 10 GR
Timebase.ms : 11 Timebase
HeadVoltage.V : 12 Head Voltage
API.API : 13 API
Conductivity.uS : 14 Conductivity
PT100.Ohms : 15 PT100
Vmon.mV : 16 Vmon
Status. : 17 Status
Temperature.C : 18 Temperature
Incline.Deg : 19 Incline
Azimuth.Deg : 20 Azimuth
RelativeBearing.Deg : 21 Relative Bearing
MagneticToolFace.Deg : 22 Magnetic Tool Face
GravityMagnitude.G : 23 Gravity Magnitude
MagnetometerMagnitude.H : 24 Magnetometer Magnitude
Temperature.C : 25 Temperature
GX. : 26 GX
GY. : 27 GY
GZ. : 28 GZ
HX. : 29 HX
HY. : 30 HY
HZ. : 31 HZ
~PARAMETER INFORMATION SECTION
~OTHER
#-------------------------------------------------
#Produced By: GeoVista Logger - Version 7.1.107.0
Verticality Sonde - 9605
Temperature and Conductivity Sonde - Inline - 8974
Natural Gamma Sonde - 9931
WLIS - 10021
#-------------------------------------------------
~ASCII LOG DATA
# ...
11.02 11.040110 0.0 71.350 14.8860 0.0960 0.1020 1.0 41.0 200.0 15.538460 500.0 197.0 15.538460 2083.384620 889805.666670 159.538460 43.0 839919883.989930 0.0 0.0 0.0 0.0 0.0 0.0 0.0 -3.27680 -3.27680 -3.27680 -3.27680 -3.27680 -3.27680
11.01 11.027910 0.0 71.40 14.8920 0.0960 0.1020 1.0 41.0 200.0 16.461540 500.0 197.0 16.461540 2079.692310 889806.833330 159.461540 43.0 839922083.762180 0.0 0.0 0.0 0.0 0.0 0.0 0.0 -3.27680 -3.27680 -3.27680 -3.27680 -3.27680 -3.27680
11.00 11.01950 0.0 71.433330 14.8980 0.0960 0.1020 1.0 41.0 200.0 17.384620 500.0 197.0 17.384620 2076.0 889808.0 159.384620 43.0 839924283.534430 0.0 0.0 0.0 0.0 0.0 0.0 0.0 -3.27680 -3.27680 -3.27680 -3.27680 -3.27680 -3.27680
10.99 11.01110 0.0 71.466670 14.9040 0.0960 0.1020 1.0 41.0 200.0 18.307690 500.0 197.0 18.307690 2076.0 889809.076920 159.307690 43.0 839926314.125340 0.0 0.0 0.0 0.0 0.0 0.0 0.0 -3.27680 -3.27680 -3.27680 -3.27680 -3.27680 -3.27680
10.98 11.00270 0.0 71.50 14.910 0.0960 0.1020 1.0 41.0 200.0 19.230770 500.0 197.0 19.230770 2076.0 889810.153850 159.230770 43.0 839928344.716250 0.0 0.0 0.0 0.0 0.0 0.0 0.0 -3.27680 -3.27680 -3.27680 -3.27680 -3.27680 -3.27680
10.97 10.99010 0.0 71.550 14.9160 0.0960 0.1020 1.0 41.0 200.0 20.153850 500.0 197.0 20.153850 2076.0 889811.230770 159.153850 43.0 839930375.307160 0.0 0.0 0.0 0.0 0.0 0.0 0.0 -3.27680 -3.27680 -3.27680 -3.27680 -3.27680 -3.27680
10.96 10.97750 0.0 71.60 14.9220 0.0960 0.1020 1.0 41.0 200.0 21.076920 500.0 197.0 21.076920 2076.0 889812.307690 159.076920 43.0 839932405.898070 0.0 0.0 0.0 0.0 0.0 0.0 0.0 -3.27680 -3.27680 -3.27680 -3.27680 -3.27680 -3.27680
10.95 10.96910 0.0 71.633330 14.9280 0.0960 0.1020 1.0 41.0 200.0 22.0 500.0 197.0 22.0 2076.0 889813.384620 159.0 43.0 839934436.488980 0.0 0.0 0.0 0.0 0.0 0.0 0.0 -3.27680 -3.27680 -3.27680 -3.27680 -3.27680 -3.27680
10.94 10.96070 0.0 71.666670 14.9340 0.0960 0.1020 1.0 41.0 200.0 22.166670 500.0 197.0 22.166670 2076.0 889814.461540 159.0 43.0 839936467.079890 0.0 0.0 0.0 0.0 0.0 0.0 0.0 -3.27680 -3.27680 -3.27680 -3.27680 -3.27680 -3.27680
10.93 10.95230 0.0 71.70 14.940 0.0960 0.1020 1.0 41.0 200.0 22.333330 500.0 197.0 22.333330 2076.0 889815.538460 159.0 43.0 839938497.67080 0.0 0.0 0.0 0.0 0.0 0.0 0.0 -3.27680 -3.27680 -3.27680 -3.27680 -3.27680 -3.27680
10.92 10.939690 0.0 71.750 14.9460 0.0960 0.1020 1.0 41.0 200.0 22.50 500.0 197.0 22.50 2076.0 889816.615380 159.0 43.0 839940528.261710 0.0 0.0 0.0 0.0 0.0 0.0 0.0 -3.27680 -3.27680 -3.27680 -3.27680 -3.27680 -3.27680
10.91 10.927090 0.0 71.80 14.9520 0.0960 0.1020 1.0 41.0 200.0 22.666670 500.0 197.0 22.666670 2076.0 889817.692310 159.0 43.0 839942558.852620 0.0 0.0 0.0 0.0 0.0 0.0 0.0 -3.27680 -3.27680 -3.27680 -3.27680 -3.27680 -3.27680
10.90 10.918690 0.0 71.833330 14.9580 0.0960 0.1020 1.0 41.0 200.0 22.833330 500.0 197.0 22.833330 2076.0 889818.769230 159.0 43.0 839944589.443530 0.0 0.0 0.0 0.0 0.0 0.0 0.0 -3.27680 -3.27680 -3.27680 -3.27680 -3.27680 -3.27680
10.89 10.910290 0.0 71.866670 14.9640 0.0960 0.1020 1.0 41.0 200.0 23.0 500.0 197.0 23.0 2076.0 889819.846150 159.0 43.0 839946620.034440 0.0 0.0 0.0 0.0 0.0 0.0 0.0 -3.27680 -3.27680 -3.27680 -3.27680 -3.27680 -3.27680
10.88 10.901890 0.0 71.90 14.970 0.0960 0.1020 1.0 41.0 200.0 23.166670 500.0 197.0 23.166670 2076.0 889820.923080 159.0 43.0 839948650.625350 0.0 0.0 0.0 0.0 0.0 0.0 0.0 -3.27680 -3.27680 -3.27680 -3.27680 -3.27680 -3.27680
10.87 10.889290 0.0 71.950 14.980 0.0960 0.1020 1.0 41.0 200.0 23.333330 500.0 197.0 23.333330 2075.153850 889822.0 159.0 43.0 839950681.216260 0.0 0.0 0.0 0.0 0.0 0.0 0.0 -3.27680 -3.27680 -3.27680 -3.27680 -3.27680 -3.27680
10.86 10.876690 0.0 72.0 14.990 0.0960 0.1020 1.0 41.0 200.0 23.50 500.0 197.0 23.50 2074.307690 889823.750 159.0 43.0 839953980.99130 0.0 0.0 0.0 0.0 0.0 0.0 0.0 -3.27680 -3.27680 -3.27680 -3.27680 -3.27680 -3.27680
10.85 10.868290 0.0 72.033330 15.0 0.0960 0.1020 1.0 41.0 200.0 23.666670 500.0 197.0 23.666670 2073.461540 889825.50 159.0 43.0 839957280.766340 0.0 0.0 0.0 0.0 0.0 0.0 0.0 -3.27680 -3.27680 -3.27680 -3.27680 -3.27680 -3.27680
10.84 10.859880 0.0 72.066670 15.010 0.0960 0.1020 1.0 41.0 200.0 23.833330 500.0 197.0 23.833330 2072.615380 889827.250 159.0 43.0 839960580.541390 0.0 0.0 0.0 0.0 0.0 0.0 0.0 -3.27680 -3.27680 -3.27680 -3.27680 -3.27680 -3.27680
10.83 10.851480 0.0 72.10 15.020 0.0960 0.1020 1.0 41.0 200.0 24.0 500.0 197.0 24.0 2071.769230 889829.0 159.0 43.0 839963880.316430 0.0 0.0 0.0 0.0 0.0 0.0 0.0 -3.27680 -3.27680 -3.27680 -3.27680 -3.27680 -3.27680
10.82 10.838880 0.0 72.150 15.030 0.0960 0.1020 1.0 41.0 200.0 23.538460 500.0 197.0 23.538460 2070.923080 889830.750 159.0 43.0 839967180.091470 0.0 0.0 0.0 0.0 0.0 0.0 0.0 -3.27680 -3.27680 -3.27680 -3.27680 -3.27680 -3.27680
10.81 10.826280 0.0 72.20 15.040 0.0960 0.1020 1.0 41.0 200.0 23.076920 500.0 197.0 23.076920 2070.076920 889832.50 159.0 43.0 839970479.866510 0.0 0.0 0.0 0.0 0.0 0.0 0.0 -3.27680 -3.27680 -3.27680 -3.27680 -3.27680 -3.27680
10.80 10.818140 0.0 72.233330 15.050 0.0960 0.1020 1.0 41.0 200.0 22.615380 500.0 197.0 22.615380 2069.230770 889834.250 159.0 43.0 839973779.641560 0.0 0.0 0.0 0.0 0.0 0.0 0.0 -3.27680 -3.27680 -3.27680 -3.27680 -3.27680 -3.27680
10.79 10.810 0.0 72.266670 15.060 0.0960 0.1020 1.0 41.0 200.0 22.153850 500.0 197.0 22.153850 2068.384620 889836.0 159.0 43.0 839977079.41660 0.0 0.0 0.0 0.0 0.0 0.0 0.0 -3.27680 -3.27680 -3.27680 -3.27680 -3.27680 -3.27680
10.78 10.801870 0.0 72.30 15.070 0.0960 0.1020 1.0 41.0 200.0 21.692310 500.0 197.0 21.692310 2067.538460 889837.750 159.0 43.0 839980379.191640 0.0 0.0 0.0 0.0 0.0 0.0 0.0 -3.27680 -3.27680 -3.27680 -3.27680 -3.27680 -3.27680
10.77 10.789260 0.0 72.350 15.080 0.0960 0.1020 1.0 41.0 200.0 21.230770 500.0 197.0 21.230770 2066.692310 889839.50 159.0 43.0 839983678.966690 0.0 0.0 0.0 0.0 0.0 0.0 0.0 -3.27680 -3.27680 -3.27680 -3.27680 -3.27680 -3.27680
10.76 10.776660 0.0 72.40 15.090 0.0960 0.1020 1.0 41.0 200.0 20.769230 500.0 197.0 20.769230 2065.846150 889841.250 159.0 43.0 839986978.741730 0.0 0.0 0.0 0.0 0.0 0.0 0.0 -3.27680 -3.27680 -3.27680 -3.27680 -3.27680 -3.27680
10.75 10.768520 0.0 72.433330 15.10 0.0960 0.1020 1.0 41.0 200.0 20.307690 500.0 197.0 20.307690 2065.0 889843.0 159.0 43.0 839990278.516770 0.0 0.0 0.0 0.0 0.0 0.0 0.0 -3.27680 -3.27680 -3.27680 -3.27680 -3.27680 -3.27680
10.74 10.760390 0.0 72.466670 15.110 0.0960 0.1020 1.0 41.0 200.0 19.846150 500.0 197.0 19.846150 2067.750 889843.846150 159.0 43.0 839991874.041050 0.0 0.0 0.0 0.0 0.0 0.0 0.0 -3.27680 -3.27680 -3.27680 -3.27680 -3.27680 -3.27680
10.73 10.752250 0.0 72.50 15.120 0.0960 0.1020 1.0 41.0 200.0 19.384620 500.0 197.0 19.384620 2070.50 889844.692310 159.0 43.0 839993469.565330 0.0 0.0 0.0 0.0 0.0 0.0 0.0 -3.27680 -3.27680 -3.27680 -3.27680 -3.27680 -3.27680
10.72 10.739650 0.0 72.550 15.1040 0.0960 0.1020 1.0 41.0 200.0 18.923080 500.0 197.0 18.923080 2073.250 889845.538460 159.0 43.0 839995065.089610 0.0 0.0 0.0 0.0 0.0 0.0 0.0 -3.27680 -3.27680 -3.27680 -3.27680 -3.27680 -3.27680
10.71 10.727040 0.0 72.60 15.0880 0.0960 0.1020 1.0 41.0 200.0 18.461540 500.0 197.0 18.461540 2076.0 889846.384620 159.0 43.0 839996660.613890 0.0 0.0 0.0 0.0 0.0 0.0 0.0 -3.27680 -3.27680 -3.27680 -3.27680 -3.27680 -3.27680
10.70 10.718640 0.0 72.633330 15.0720 0.0960 0.1020 1.0 41.0 200.0 18.0 500.0 197.0 18.0 2078.750 889847.230770 159.0 43.0 839998256.138170 0.0 0.0 0.0 0.0 0.0 0.0 0.0 -3.27680 -3.27680 -3.27680 -3.27680 -3.27680 -3.27680
10.69 10.710240 0.0 72.666670 15.0560 0.0960 0.1020 1.0 41.0 200.0 16.50 500.0 197.0 16.50 2081.50 889848.076920 159.0 43.0 839999851.662440 0.0 0.0 0.0 0.0 0.0 0.0 0.0 -3.27680 -3.27680 -3.27680 -3.27680 -3.27680 -3.27680
10.68 10.701840 0.0 72.70 15.040 0.0960 0.1020 1.0 41.0 200.0 15.0 500.0 197.0 15.0 2084.250 889848.923080 159.0 43.0 840001447.186720 0.0 0.0 0.0 0.0 0.0 0.0 0.0 -3.27680 -3.27680 -3.27680 -3.27680 -3.27680 -3.27680
10.67 10.689630 0.0 72.750 15.0240 0.0960 0.1020 1.0 41.0 200.0 13.50 500.0 197.0 13.50 2087.0 889849.769230 159.0 43.0 840003042.7110 0.0 0.0 0.0 0.0 0.0 0.0 0.0 -3.27680 -3.27680 -3.27680 -3.27680 -3.27680 -3.27680
