~VERSION INFORMATION SECTION
VERS. 2.0 : CWLS LAS-VERSION 2.0
WRAP. NO : One line per depth step
~WELL INFORMATION SECTION
# MNEM.UNIT VALUE/NAME DESCRIPTION
#-------- -------------- ---------------------
STRT.Metres 26 : Start
STOP.Metres -2.05 : Stop
STEP.Metres -0.01 : Step
NULL.  -999.25 :NULL VALUE
DATE. 2026-23-09 : DATE
~CURVE INFORMATION SECTION
DEPTH.Metres : 0 Depth
Depth. : 1 Depth
Tension. : 2 Tension
Time. : 3 Time
Speed. : 4 Speed
Voltage. : 5 Voltage
Current. : 6 Current
WET. : 7 WET
Sig. : 8 Sig
Vth. : 9 Vth
GR.CPS : 10 GR
Timebase.ms : 11 Timebase
HeadVoltage.V : 12 Head Voltage
API.API : 13 API
Conductivity.uS : 14 Conductivity
PT100.Ohms : 15 PT100
Vmon.mV : 16 Vmon
Status. : 17 Status
Temperature.C : 18 Temperature
Incline.Deg : 19 Incline
Azimuth.Deg : 20 Azimuth
RelativeBearing.Deg : 21 Relative Bearing
MagneticToolFace.Deg : 22 Magnetic Tool Face
GravityMagnitude.G : 23 Gravity Magnitude
MagnetometerMagnitude.H : 24 Magnetometer Magnitude
Temperature.C : 25 Temperature
GX. : 26 GX
GY. : 27 GY
GZ. : 28 GZ
HX. : 29 HX
HY. : 30 HY
HZ. : 31 HZ
~PARAMETER INFORMATION SECTION
~OTHER
#-------------------------------------------------
#Produced By: GeoVista Logger - Version 7.1.107.0
Verticality Sonde - 9605
Temperature and Conductivity Sonde - Inline - 8974
Natural Gamma Sonde - 9931
WLIS - 10021
#-------------------------------------------------
~ASCII LOG DATA
# ...
9.25 9.268680 0.0 78.433330 14.970 0.0960 0.1020 1.0 42.0 200.0 10.769230 462.50 197.0 10.769230 1933.0 890058.0 159.615380 43.0 840395733.143730 0.0 0.0 0.0 0.0 0.0 0.0 0.0 -3.27680 -3.27680 -3.27680 -3.27680 -3.27680 -3.27680
9.24 9.260280 0.0 78.466670 14.970 0.0960 0.1020 1.0 42.0 200.0 10.615380 455.0 197.0 10.615380 1932.166670 890059.923080 159.692310 43.0 840399360.238810 0.0 0.0 0.0 0.0 0.0 0.0 0.0 -3.27680 -3.27680 -3.27680 -3.27680 -3.27680 -3.27680
9.23 9.251880 0.0 78.50 14.970 0.0960 0.1020 1.0 42.0 200.0 10.461540 447.50 197.0 10.461540 1931.333330 890061.846150 159.769230 43.0 840402987.333890 0.0 0.0 0.0 0.0 0.0 0.0 0.0 -3.27680 -3.27680 -3.27680 -3.27680 -3.27680 -3.27680
9.22 9.239280 0.0 78.550 14.976670 0.0960 0.1020 1.0 42.0 200.0 10.307690 440.0 197.0 10.307690 1930.50 890063.769230 159.846150 43.0 840406614.428970 0.0 0.0 0.0 0.0 0.0 0.0 0.0 -3.27680 -3.27680 -3.27680 -3.27680 -3.27680 -3.27680
9.21 9.226680 0.0 78.60 14.983330 0.0960 0.1020 1.0 42.0 200.0 10.153850 432.50 197.0 10.153850 1929.666670 890065.692310 159.923080 43.0 840410241.524050 0.0 0.0 0.0 0.0 0.0 0.0 0.0 -3.27680 -3.27680 -3.27680 -3.27680 -3.27680 -3.27680
9.20 9.218270 0.0 78.633330 14.990 0.0960 0.1020 1.0 42.0 200.0 10.0 425.0 197.0 10.0 1928.833330 890067.615380 160.0 43.0 840413868.619130 0.0 0.0 0.0 0.0 0.0 0.0 0.0 -3.27680 -3.27680 -3.27680 -3.27680 -3.27680 -3.27680
9.19 9.209870 0.0 78.666670 14.996670 0.0960 0.1020 1.0 42.0 200.0 9.776420 417.50 197.0 9.776420 1928.0 890069.538460 159.916670 43.0 840417495.714210 0.0 0.0 0.0 0.0 0.0 0.0 0.0 -3.27680 -3.27680 -3.27680 -3.27680 -3.27680 -3.27680
9.18 9.201470 0.0 78.70 15.003330 0.0960 0.1020 1.0 42.0 200.0 9.552850 410.0 197.0 9.552850 1927.166670 890071.461540 159.833330 43.0 840421122.80930 0.0 0.0 0.0 0.0 0.0 0.0 0.0 -3.27680 -3.27680 -3.27680 -3.27680 -3.27680 -3.27680
9.17 9.189260 0.0 78.750 15.010 0.0960 0.1020 1.0 42.0 200.0 9.329270 385.384620 197.0 9.329270 1926.333330 890073.384620 159.750 43.0 840424749.904380 0.0 0.0 0.0 0.0 0.0 0.0 0.0 -3.27680 -3.27680 -3.27680 -3.27680 -3.27680 -3.27680
9.16 9.177060 0.0 78.80 15.016670 0.0960 0.1020 1.0 42.0 200.0 9.105690 360.769230 197.0 9.105690 1925.50 890075.307690 159.666670 43.0 840428376.999460 0.0 0.0 0.0 0.0 0.0 0.0 0.0 -3.27680 -3.27680 -3.27680 -3.27680 -3.27680 -3.27680
9.15 9.168660 0.0 78.833330 15.023330 0.0960 0.1020 1.0 41.923080 200.0 8.882110 336.153850 197.0 8.882110 1924.666670 890077.230770 159.583330 43.0 840432004.094540 0.0 0.0 0.0 0.0 0.0 0.0 0.0 -3.27680 -3.27680 -3.27680 -3.27680 -3.27680 -3.27680
9.14 9.160250 0.0 78.866670 15.030 0.0960 0.1020 1.0 41.846150 200.0 8.658540 311.538460 197.0 8.658540 1923.833330 890079.153850 159.50 43.0 840435631.189620 0.0 0.0 0.0 0.0 0.0 0.0 0.0 -3.27680 -3.27680 -3.27680 -3.27680 -3.27680 -3.27680
9.13 9.151850 0.0 78.90 15.036670 0.0960 0.1020 1.0 41.769230 200.0 8.434960 286.923080 197.0 8.434960 1923.0 890081.076920 159.416670 43.0 840439258.28470 0.0 0.0 0.0 0.0 0.0 0.0 0.0 -3.27680 -3.27680 -3.27680 -3.27680 -3.27680 -3.27680
9.12 9.139250 0.0 78.950 15.043330 0.0960 0.1020 1.0 41.692310 200.0 8.211380 262.307690 197.0 8.211380 1923.769230 890083.0 159.333330 43.0 840442885.379780 0.0 0.0 0.0 0.0 0.0 0.0 0.0 -3.27680 -3.27680 -3.27680 -3.27680 -3.27680 -3.27680
9.11 9.126650 0.0 79.0 15.050 0.0960 0.1020 1.0 41.615380 200.0 7.98780 237.692310 197.0 7.98780 1924.538460 890084.750 159.250 43.0 840446186.121490 0.0 0.0 0.0 0.0 0.0 0.0 0.0 -3.27680 -3.27680 -3.27680 -3.27680 -3.27680 -3.27680
9.10 9.118510 0.0 79.033330 15.056670 0.0960 0.1020 1.0 41.538460 200.0 7.764230 213.076920 197.0 7.764230 1925.307690 890086.50 159.166670 43.0 840449486.86320 0.0 0.0 0.0 0.0 0.0 0.0 0.0 -3.27680 -3.27680 -3.27680 -3.27680 -3.27680 -3.27680
9.09 9.110370 0.0 79.066670 15.063330 0.0960 0.1020 1.0 41.461540 200.0 7.540650 188.461540 197.0 7.540650 1926.076920 890088.250 159.083330 43.0 840452787.604910 0.0 0.0 0.0 0.0 0.0 0.0 0.0 -3.27680 -3.27680 -3.27680 -3.27680 -3.27680 -3.27680
9.08 9.102240 0.0 79.10 15.070 0.0960 0.1020 1.0 41.384620 200.0 7.317070 163.846150 197.0 7.317070 1926.846150 890090.0 159.0 43.0 840456088.346620 0.0 0.0 0.0 0.0 0.0 0.0 0.0 -3.27680 -3.27680 -3.27680 -3.27680 -3.27680 -3.27680
9.07 9.089630 0.0 79.150 15.060670 0.0960 0.1020 1.0 41.307690 200.0 6.754220 139.230770 197.0 6.754220 1927.615380 890091.750 159.076920 43.0 840459389.088330 0.0 0.0 0.0 0.0 0.0 0.0 0.0 -3.27680 -3.27680 -3.27680 -3.27680 -3.27680 -3.27680
9.06 9.077030 0.0 79.20 15.051330 0.0960 0.1020 1.0 41.230770 200.0 6.191370 114.615380 197.0 6.191370 1928.384620 890093.50 159.153850 43.0 840462689.830040 0.0 0.0 0.0 0.0 0.0 0.0 0.0 -3.27680 -3.27680 -3.27680 -3.27680 -3.27680 -3.27680
9.05 9.068630 0.0 79.233330 15.0420 0.0960 0.1020 1.0 41.153850 200.0 5.628520 90.0 197.0 5.628520 1929.153850 890095.250 159.230770 43.0 840465990.571750 0.0 0.0 0.0 0.0 0.0 0.0 0.0 -3.27680 -3.27680 -3.27680 -3.27680 -3.27680 -3.27680
9.04 9.060230 0.0 79.266670 15.032670 0.0960 0.1020 1.0 41.076920 200.0 5.065670 124.166670 197.0 5.065670 1929.923080 890097.0 159.307690 43.0 840469291.313450 0.0 0.0 0.0 0.0 0.0 0.0 0.0 -3.27680 -3.27680 -3.27680 -3.27680 -3.27680 -3.27680
9.03 9.051830 0.0 79.30 15.023330 0.0960 0.1020 1.0 41.0 200.0 4.502810 158.333330 197.0 4.502810 1930.692310 890098.750 159.384620 43.0 840472592.055160 0.0 0.0 0.0 0.0 0.0 0.0 0.0 -3.27680 -3.27680 -3.27680 -3.27680 -3.27680 -3.27680
9.02 9.039620 0.0 79.350 15.0140 0.0960 0.1020 1.0 41.083330 200.0 3.939960 192.50 197.0 3.939960 1931.461540 890100.50 159.461540 43.0 840475892.796870 0.0 0.0 0.0 0.0 0.0 0.0 0.0 -3.27680 -3.27680 -3.27680 -3.27680 -3.27680 -3.27680
9.01 9.027410 0.0 79.40 15.004670 0.0960 0.1020 1.0 41.166670 200.0 3.377110 226.666670 197.0 3.377110 1932.230770 890102.250 159.538460 43.0 840479193.538580 0.0 0.0 0.0 0.0 0.0 0.0 0.0 -3.27680 -3.27680 -3.27680 -3.27680 -3.27680 -3.27680
9.00 9.019010 0.0 79.433330 14.995330 0.0960 0.1020 1.0 41.250 200.0 2.814260 260.833330 197.0 2.814260 1933.0 890104.0 159.615380 43.0 840482494.280290 0.0 0.0 0.0 0.0 0.0 0.0 0.0 -3.27680 -3.27680 -3.27680 -3.27680 -3.27680 -3.27680
8.99 9.010610 0.0 79.466670 14.9860 0.0960 0.1020 1.0 41.333330 200.0 2.251410 295.0 197.0 2.251410 1933.166670 890105.692310 159.692310 43.0 840485686.283340 0.0 0.0 0.0 0.0 0.0 0.0 0.0 -3.27680 -3.27680 -3.27680 -3.27680 -3.27680 -3.27680
8.98 9.002210 0.0 79.50 14.976670 0.0960 0.1020 1.0 41.416670 200.0 1.688560 329.166670 197.0 1.688560 1933.333330 890107.384620 159.769230 43.0 840488878.28640 0.0 0.0 0.0 0.0 0.0 0.0 0.0 -3.27680 -3.27680 -3.27680 -3.27680 -3.27680 -3.27680
8.97 8.989610 0.0 79.550 14.967330 0.0960 0.1020 1.0 41.50 200.0 1.12570 363.333330 197.0 1.12570 1933.50 890109.076920 159.846150 43.0 840492070.289450 0.0 0.0 0.0 0.0 0.0 0.0 0.0 -3.27680 -3.27680 -3.27680 -3.27680 -3.27680 -3.27680
8.96 8.977010 0.0 79.60 14.9580 0.0960 0.1020 1.0 41.583330 200.0 0.562850 397.50 197.0 0.562850 1933.666670 890110.769230 159.923080 43.0 840495262.29250 0.0 0.0 0.0 0.0 0.0 0.0 0.0 -3.27680 -3.27680 -3.27680 -3.27680 -3.27680 -3.27680
8.95 8.968870 0.0 79.633330 14.948670 0.0960 0.1020 1.0 41.666670 200.0 0.0 431.666670 197.0 0.0 1933.833330 890112.461540 160.0 43.0 840498454.295550 0.0 0.0 0.0 0.0 0.0 0.0 0.0 -3.27680 -3.27680 -3.27680 -3.27680 -3.27680 -3.27680
8.94 8.960730 0.0 79.666670 14.939330 0.0960 0.1020 1.0 41.750 200.0 0.333330 465.833330 197.0 0.333330 1934.0 890114.153850 160.0 43.0 840501646.298610 0.0 0.0 0.0 0.0 0.0 0.0 0.0 -3.27680 -3.27680 -3.27680 -3.27680 -3.27680 -3.27680
8.93 8.952590 0.0 79.70 14.930 0.0960 0.1020 1.0 41.833330 200.0 0.666670 500.0 197.0 0.666670 1934.166670 890115.846150 160.0 43.0 840504838.301660 0.0 0.0 0.0 0.0 0.0 0.0 0.0 -3.27680 -3.27680 -3.27680 -3.27680 -3.27680 -3.27680
8.92 8.939990 0.0 79.750 14.932670 0.0960 0.1020 1.0 41.916670 200.0 1.0 500.769230 197.0 1.0 1934.333330 890117.538460 160.0 43.0 840508030.304710 0.0 0.0 0.0 0.0 0.0 0.0 0.0 -3.27680 -3.27680 -3.27680 -3.27680 -3.27680 -3.27680
