~VERSION INFORMATION SECTION
VERS. 2.0 : CWLS LAS-VERSION 2.0
WRAP. NO : One line per depth step
~WELL INFORMATION SECTION
# MNEM.UNIT VALUE/NAME DESCRIPTION
#-------- -------------- ---------------------
STRT.Metres 26 : Start
STOP.Metres -2.05 : Stop
STEP.Metres -0.01 : Step
NULL.  -999.25 :NULL VALUE
DATE. 2026-48-09 : DATE
~CURVE INFORMATION SECTION
DEPTH.Metres : 0 Depth
Depth. : 1 Depth
Tension. : 2 Tension
Time. : 3 Time
Speed. : 4 Speed
Voltage. : 5 Voltage
Current. : 6 Current
WET. : 7 WET
Sig. : 8 Sig
Vth. : 9 Vth
GR.CPS : 10 GR
Timebase.ms : 11 Timebase
HeadVoltage.V : 12 Head Voltage
API.API : 13 API
Conductivity.uS : 14 Conductivity
PT100.Ohms : 15 PT100
Vmon.mV : 16 Vmon
Status. : 17 Status
Temperature.C : 18 Temperature
Incline.Deg : 19 Incline
Azimuth.Deg : 20 Azimuth
RelativeBearing.Deg : 21 Relative Bearing
MagneticToolFace.Deg : 22 Magnetic Tool Face
GravityMagnitude.G : 23 Gravity Magnitude
MagnetometerMagnitude.H : 24 Magnetometer Magnitude
Temperature.C : 25 Temperature
GX. : 26 GX
GY. : 27 GY
GZ. : 28 GZ
HX. : 29 HX
HY. : 30 HY
HZ. : 31 HZ
~PARAMETER INFORMATION SECTION
~OTHER
#-------------------------------------------------
#Produced By: GeoVista Logger - Version 7.1.107.0
Verticality Sonde - 9605
Temperature and Conductivity Sonde - Inline - 8974
Natural Gamma Sonde - 9931
WLIS - 10021
#-------------------------------------------------
~ASCII LOG DATA
# ...
21.18 21.197330 0.0 30.050 14.939330 0.0960 0.1020 1.0 0.0 200.0 15.333330 504.615380 197.0 15.333330 16317.384620 889099.0 134.666670 41.0 838587971.945440 0.0 0.0 0.0 0.0 0.0 0.0 0.0 -3.27680 -3.27680 -3.27680 -3.27680 -3.27680 -3.27680
21.17 21.184730 0.0 30.10 14.948670 0.0960 0.1020 1.0 0.0 200.0 15.0 505.384620 197.0 15.0 16301.769230 889099.166670 134.750 41.0 838588285.951350 0.0 0.0 0.0 0.0 0.0 0.0 0.0 -3.27680 -3.27680 -3.27680 -3.27680 -3.27680 -3.27680
21.16 21.176590 0.0 30.133330 14.9580 0.0960 0.1020 1.0 0.0 200.0 14.666670 506.153850 197.0 14.666670 16286.153850 889099.333330 134.833330 41.0 838588599.957260 0.0 0.0 0.0 0.0 0.0 0.0 0.0 -3.27680 -3.27680 -3.27680 -3.27680 -3.27680 -3.27680
21.15 21.168450 0.0 30.166670 14.967330 0.0960 0.1020 1.0 0.0 200.0 14.333330 506.923080 197.0 14.333330 16270.538460 889099.50 134.916670 41.0 838588913.963170 0.0 0.0 0.0 0.0 0.0 0.0 0.0 -3.27680 -3.27680 -3.27680 -3.27680 -3.27680 -3.27680
21.14 21.160310 0.0 30.20 14.976670 0.0960 0.1020 1.0 0.0 200.0 14.0 507.692310 197.0 14.0 16254.923080 889099.666670 135.0 41.0 838589227.969090 0.0 0.0 0.0 0.0 0.0 0.0 0.0 -3.27680 -3.27680 -3.27680 -3.27680 -3.27680 -3.27680
21.13 21.152180 0.0 30.233330 14.9860 0.0960 0.102670 1.0 0.0 200.0 14.280540 508.461540 197.0 14.280540 16239.307690 889099.833330 134.923080 41.0 838589541.9750 0.0 0.0 0.0 0.0 0.0 0.0 0.0 -3.27680 -3.27680 -3.27680 -3.27680 -3.27680 -3.27680
21.12 21.144040 0.0 30.266670 14.995330 0.0960 0.103330 1.0 0.0 200.0 14.561090 509.230770 197.0 14.561090 16223.692310 889100.0 134.846150 41.0 838589855.980910 0.0 0.0 0.0 0.0 0.0 0.0 0.0 -3.27680 -3.27680 -3.27680 -3.27680 -3.27680 -3.27680
21.11 21.13590 0.0 30.30 15.004670 0.0960 0.1040 1.0 0.0 200.0 14.841630 510.0 197.0 14.841630 16208.076920 889100.166670 134.769230 41.0 838590169.986830 0.0 0.0 0.0 0.0 0.0 0.0 0.0 -3.27680 -3.27680 -3.27680 -3.27680 -3.27680 -3.27680
21.10 21.12290 0.0 30.350 15.0140 0.0960 0.1030 1.0 0.0 200.0 15.122170 509.166670 197.0 15.122170 16192.461540 889100.333330 134.692310 41.0 838590483.992740 0.0 0.0 0.0 0.0 0.0 0.0 0.0 -3.27680 -3.27680 -3.27680 -3.27680 -3.27680 -3.27680
21.09 21.109910 0.0 30.40 15.023330 0.0960 0.1020 1.0 0.0 200.0 15.402710 508.333330 197.0 15.402710 16176.846150 889100.50 134.615380 41.0 838590797.998650 0.0 0.0 0.0 0.0 0.0 0.0 0.0 -3.27680 -3.27680 -3.27680 -3.27680 -3.27680 -3.27680
21.08 21.097310 0.0 30.450 15.032670 0.0960 0.1020 1.0 0.0 200.0 15.683260 507.50 197.0 15.683260 16161.230770 889100.666670 134.538460 41.0 838591112.004560 0.0 0.0 0.0 0.0 0.0 0.0 0.0 -3.27680 -3.27680 -3.27680 -3.27680 -3.27680 -3.27680
21.07 21.084710 0.0 30.50 15.0420 0.0960 0.1020 1.0 0.0 200.0 15.96380 506.666670 197.0 15.96380 16145.615380 889100.833330 134.461540 41.0 838591426.010480 0.0 0.0 0.0 0.0 0.0 0.0 0.0 -3.27680 -3.27680 -3.27680 -3.27680 -3.27680 -3.27680
21.06 21.076570 0.0 30.533330 15.051330 0.0960 0.1020 1.0 0.0 200.0 16.244340 505.833330 197.0 16.244340 16130.0 889101.0 134.384620 41.0 838591740.016390 0.0 0.0 0.0 0.0 0.0 0.0 0.0 -3.27680 -3.27680 -3.27680 -3.27680 -3.27680 -3.27680
21.05 21.068430 0.0 30.566670 15.060670 0.0960 0.1020 1.0 0.0 200.0 16.524890 505.0 197.0 16.524890 16110.583330 889101.230770 134.307690 41.0 838592174.795030 0.0 0.0 0.0 0.0 0.0 0.0 0.0 -3.27680 -3.27680 -3.27680 -3.27680 -3.27680 -3.27680
21.04 21.060290 0.0 30.60 15.070 0.0960 0.1020 1.0 0.0 200.0 16.805430 504.166670 197.0 16.805430 16091.166670 889101.461540 134.230770 41.0 838592609.573670 0.0 0.0 0.0 0.0 0.0 0.0 0.0 -3.27680 -3.27680 -3.27680 -3.27680 -3.27680 -3.27680
21.03 21.047690 0.0 30.650 15.063330 0.0960 0.1020 1.0 0.0 200.0 17.085970 503.333330 197.0 17.085970 16071.750 889101.692310 134.153850 41.0 838593044.35230 0.0 0.0 0.0 0.0 0.0 0.0 0.0 -3.27680 -3.27680 -3.27680 -3.27680 -3.27680 -3.27680
21.02 21.035090 0.0 30.70 15.056670 0.0960 0.1020 1.0 0.0 200.0 17.366520 502.50 197.0 17.366520 16052.333330 889101.923080 134.076920 41.0 838593479.130940 0.0 0.0 0.0 0.0 0.0 0.0 0.0 -3.27680 -3.27680 -3.27680 -3.27680 -3.27680 -3.27680
21.01 21.026950 0.0 30.733330 15.050 0.0960 0.1020 1.0 0.0 200.0 17.647060 501.666670 197.0 17.647060 16032.916670 889102.153850 134.0 41.0 838593913.909580 0.0 0.0 0.0 0.0 0.0 0.0 0.0 -3.27680 -3.27680 -3.27680 -3.27680 -3.27680 -3.27680
21.00 21.018810 0.0 30.766670 15.043330 0.0960 0.1020 1.0 0.0 200.0 18.00980 500.833330 197.0 18.00980 16013.50 889102.384620 134.083330 41.0 838594348.688220 0.0 0.0 0.0 0.0 0.0 0.0 0.0 -3.27680 -3.27680 -3.27680 -3.27680 -3.27680 -3.27680
20.99 21.010670 0.0 30.80 15.036670 0.0960 0.1020 1.0 0.0 200.0 18.372550 500.0 197.0 18.372550 15994.083330 889102.615380 134.166670 41.0 838594783.466860 0.0 0.0 0.0 0.0 0.0 0.0 0.0 -3.27680 -3.27680 -3.27680 -3.27680 -3.27680 -3.27680
20.98 20.998070 0.0 30.850 15.030 0.0960 0.1020 1.0 0.0 200.0 18.735290 500.0 197.0 18.735290 15974.666670 889102.846150 134.250 41.0 838595218.24550 0.0 0.0 0.0 0.0 0.0 0.0 0.0 -3.27680 -3.27680 -3.27680 -3.27680 -3.27680 -3.27680
20.97 20.985470 0.0 30.90 15.023330 0.0960 0.1020 1.0 0.0 200.0 19.098040 500.0 197.0 19.098040 15955.250 889103.076920 134.333330 41.0 838595653.024140 0.0 0.0 0.0 0.0 0.0 0.0 0.0 -3.27680 -3.27680 -3.27680 -3.27680 -3.27680 -3.27680
20.96 20.977070 0.0 30.933330 15.016670 0.0960 0.1020 1.0 0.0 200.0 19.460780 500.0 197.0 19.460780 15935.833330 889103.307690 134.416670 41.0 838596087.802770 0.0 0.0 0.0 0.0 0.0 0.0 0.0 -3.27680 -3.27680 -3.27680 -3.27680 -3.27680 -3.27680
20.95 20.968670 0.0 30.966670 15.010 0.0960 0.1020 1.0 0.0 200.0 19.823530 500.0 197.0 19.823530 15916.416670 889103.538460 134.50 41.0 838596522.581410 0.0 0.0 0.0 0.0 0.0 0.0 0.0 -3.27680 -3.27680 -3.27680 -3.27680 -3.27680 -3.27680
20.94 20.960270 0.0 31.0 15.003330 0.0960 0.1020 1.0 0.0 200.0 20.186270 500.0 197.0 20.186270 15897.0 889103.769230 134.583330 41.0 838596957.360050 0.0 0.0 0.0 0.0 0.0 0.0 0.0 -3.27680 -3.27680 -3.27680 -3.27680 -3.27680 -3.27680
20.93 20.947660 0.0 31.050 14.996670 0.0960 0.1020 1.0 0.0 200.0 20.549020 500.0 197.0 20.549020 15879.230770 889104.0 134.666670 41.0 838597392.138690 0.0 0.0 0.0 0.0 0.0 0.0 0.0 -3.27680 -3.27680 -3.27680 -3.27680 -3.27680 -3.27680
20.92 20.935060 0.0 31.10 14.990 0.0960 0.1020 1.0 0.0 200.0 20.911760 500.0 197.0 20.911760 15861.461540 889104.083330 134.750 41.0 838597549.142440 0.0 0.0 0.0 0.0 0.0 0.0 0.0 -3.27680 -3.27680 -3.27680 -3.27680 -3.27680 -3.27680
20.91 20.926920 0.0 31.133330 14.983330 0.0960 0.1020 1.0 0.0 200.0 21.274510 500.0 197.0 21.274510 15843.692310 889104.166670 134.833330 41.0 838597706.146190 0.0 0.0 0.0 0.0 0.0 0.0 0.0 -3.27680 -3.27680 -3.27680 -3.27680 -3.27680 -3.27680
20.90 20.918790 0.0 31.166670 14.976670 0.0960 0.1020 1.0 0.0 200.0 21.637250 500.0 197.0 21.637250 15825.923080 889104.250 134.916670 41.0 838597863.149940 0.0 0.0 0.0 0.0 0.0 0.0 0.0 -3.27680 -3.27680 -3.27680 -3.27680 -3.27680 -3.27680
20.89 20.910650 0.0 31.20 14.970 0.0960 0.1020 1.0 0.0 200.0 22.0 500.0 197.0 22.0 15808.153850 889104.333330 135.0 41.0 838598020.153690 0.0 0.0 0.0 0.0 0.0 0.0 0.0 -3.27680 -3.27680 -3.27680 -3.27680 -3.27680 -3.27680
20.88 20.898440 0.0 31.250 14.970 0.0960 0.1020 1.0 0.0 200.0 22.0 500.0 197.0 22.0 15790.384620 889104.416670 135.0 41.0 838598177.157440 0.0 0.0 0.0 0.0 0.0 0.0 0.0 -3.27680 -3.27680 -3.27680 -3.27680 -3.27680 -3.27680
20.87 20.886230 0.0 31.30 14.970 0.0960 0.1020 1.0 0.0 200.0 22.0 500.0 197.0 22.0 15772.615380 889104.50 135.0 41.0 838598334.161190 0.0 0.0 0.0 0.0 0.0 0.0 0.0 -3.27680 -3.27680 -3.27680 -3.27680 -3.27680 -3.27680
20.86 20.877830 0.0 31.333330 14.970 0.0960 0.1020 1.0 0.0 200.0 22.0 500.0 197.0 22.0 15754.846150 889104.583330 135.0 41.0 838598491.164940 0.0 0.0 0.0 0.0 0.0 0.0 0.0 -3.27680 -3.27680 -3.27680 -3.27680 -3.27680 -3.27680
20.85 20.869430 0.0 31.366670 14.970 0.0960 0.1020 1.0 0.0 200.0 22.0 500.0 197.0 22.0 15737.076920 889104.666670 135.0 41.0 838598648.168690 0.0 0.0 0.0 0.0 0.0 0.0 0.0 -3.27680 -3.27680 -3.27680 -3.27680 -3.27680 -3.27680
