~VERSION INFORMATION SECTION
VERS. 2.0 : CWLS LAS-VERSION 2.0
WRAP. NO : One line per depth step
~WELL INFORMATION SECTION
# MNEM.UNIT VALUE/NAME DESCRIPTION
#-------- -------------- ---------------------
STRT.Metres 26 : Start
STOP.Metres -2.05 : Stop
STEP.Metres -0.01 : Step
NULL.  -999.25 :NULL VALUE
DATE. 2026-29-09 : DATE
~CURVE INFORMATION SECTION
DEPTH.Metres : 0 Depth
Depth. : 1 Depth
Tension. : 2 Tension
Time. : 3 Time
Speed. : 4 Speed
Voltage. : 5 Voltage
Current. : 6 Current
WET. : 7 WET
Sig. : 8 Sig
Vth. : 9 Vth
GR.CPS : 10 GR
Timebase.ms : 11 Timebase
HeadVoltage.V : 12 Head Voltage
API.API : 13 API
Conductivity.uS : 14 Conductivity
PT100.Ohms : 15 PT100
Vmon.mV : 16 Vmon
Status. : 17 Status
Temperature.C : 18 Temperature
Incline.Deg : 19 Incline
Azimuth.Deg : 20 Azimuth
RelativeBearing.Deg : 21 Relative Bearing
MagneticToolFace.Deg : 22 Magnetic Tool Face
GravityMagnitude.G : 23 Gravity Magnitude
MagnetometerMagnitude.H : 24 Magnetometer Magnitude
Temperature.C : 25 Temperature
GX. : 26 GX
GY. : 27 GY
GZ. : 28 GZ
HX. : 29 HX
HY. : 30 HY
HZ. : 31 HZ
~PARAMETER INFORMATION SECTION
~OTHER
#-------------------------------------------------
#Produced By: GeoVista Logger - Version 7.1.107.0
Verticality Sonde - 9605
Temperature and Conductivity Sonde - Inline - 8974
Natural Gamma Sonde - 9931
WLIS - 10021
#-------------------------------------------------
~ASCII LOG DATA
# ...
0.84 0.84430 0.0 205.70 6.0 0.0960 0.1020 0.0 992.60 200.0 44.0 500.0 197.0 44.0 263.166670 890694.923080 76.384620 43.0 841597439.472610 0.0 0.0 0.0 0.0 0.0 0.0 0.0 -3.27680 -3.27680 -3.27680 -3.27680 -3.27680 -3.27680
0.83 0.834060 0.0 205.80 6.0 0.0960 0.1020 0.0 992.40 200.0 40.80 500.0 197.0 40.80 264.750 890694.384620 73.923080 43.0 841596423.177160 0.0 0.0 0.0 0.0 0.0 0.0 0.0 -3.27680 -3.27680 -3.27680 -3.27680 -3.27680 -3.27680
0.82 0.823820 0.0 205.90 6.0 0.0960 0.1020 0.0 992.20 200.0 37.60 500.0 197.0 37.60 266.333330 890693.846150 71.461540 43.0 841595406.881710 0.0 0.0 0.0 0.0 0.0 0.0 0.0 -3.27680 -3.27680 -3.27680 -3.27680 -3.27680 -3.27680
0.81 0.813590 0.0 206.0 6.0 0.0960 0.1020 0.0 992.0 200.0 34.40 500.0 197.0 34.40 267.916670 890693.307690 69.0 43.0 841594390.586250 0.0 0.0 0.0 0.0 0.0 0.0 0.0 -3.27680 -3.27680 -3.27680 -3.27680 -3.27680 -3.27680
0.80 0.803350 0.0 206.10 6.0 0.0960 0.1020 0.0 992.20 200.0 31.20 500.0 197.0 31.20 269.50 890692.769230 73.10 43.0 841593374.29080 0.0 0.0 0.0 0.0 0.0 0.0 0.0 -3.27680 -3.27680 -3.27680 -3.27680 -3.27680 -3.27680
0.79 0.79390 0.0 206.20 6.0 0.0960 0.1020 0.0 992.40 200.0 28.0 500.0 197.0 28.0 271.083330 890692.230770 77.20 43.0 841592357.995340 0.0 0.0 0.0 0.0 0.0 0.0 0.0 -3.27680 -3.27680 -3.27680 -3.27680 -3.27680 -3.27680
0.78 0.783660 0.0 206.30 6.0 0.0960 0.1020 0.0 992.60 200.0 28.40 500.0 197.0 28.40 272.666670 890691.692310 81.30 43.0 841591341.699890 0.0 0.0 0.0 0.0 0.0 0.0 0.0 -3.27680 -3.27680 -3.27680 -3.27680 -3.27680 -3.27680
0.77 0.774210 0.0 206.40 5.991670 0.0960 0.1020 0.0 992.80 200.0 28.80 500.0 197.0 28.80 274.250 890691.153850 85.40 43.0 841590325.404440 0.0 0.0 0.0 0.0 0.0 0.0 0.0 -3.27680 -3.27680 -3.27680 -3.27680 -3.27680 -3.27680
0.76 0.763970 0.0 206.50 5.983330 0.0960 0.1020 0.0 993.0 200.0 29.20 500.0 197.0 29.20 275.833330 890690.615380 89.50 43.0 841589309.108980 0.0 0.0 0.0 0.0 0.0 0.0 0.0 -3.27680 -3.27680 -3.27680 -3.27680 -3.27680 -3.27680
0.75 0.754520 0.0 206.60 5.9750 0.0960 0.1020 0.0 993.0 200.0 29.60 500.0 197.0 29.60 277.416670 890690.076920 93.60 43.0 841588292.813530 0.0 0.0 0.0 0.0 0.0 0.0 0.0 -3.27680 -3.27680 -3.27680 -3.27680 -3.27680 -3.27680
0.74 0.744280 0.0 206.70 5.966670 0.0960 0.1020 0.0 993.0 200.0 30.0 500.0 197.0 30.0 279.0 890689.538460 97.70 43.0 841587276.518080 0.0 0.0 0.0 0.0 0.0 0.0 0.0 -3.27680 -3.27680 -3.27680 -3.27680 -3.27680 -3.27680
0.73 0.734040 0.0 206.80 5.958330 0.0960 0.1020 0.0 993.0 200.0 31.60 500.0 197.0 31.60 271.230770 890689.0 101.80 43.0 841586260.222620 0.0 0.0 0.0 0.0 0.0 0.0 0.0 -3.27680 -3.27680 -3.27680 -3.27680 -3.27680 -3.27680
0.72 0.724590 0.0 206.90 5.950 0.0960 0.1020 0.0 993.0 200.0 33.20 500.0 197.0 33.20 263.461540 890688.50 105.90 43.0 841585316.526580 0.0 0.0 0.0 0.0 0.0 0.0 0.0 -3.27680 -3.27680 -3.27680 -3.27680 -3.27680 -3.27680
0.71 0.714350 0.0 207.0 5.950 0.0960 0.1020 0.0 993.0 200.0 34.80 500.0 197.0 34.80 255.692310 890688.0 110.0 43.0 841584372.830530 0.0 0.0 0.0 0.0 0.0 0.0 0.0 -3.27680 -3.27680 -3.27680 -3.27680 -3.27680 -3.27680
0.70 0.704110 0.0 207.10 5.950 0.0960 0.1020 0.0 993.20 200.0 36.40 500.0 197.0 36.40 247.923080 890687.50 104.333330 43.0 841583429.134490 0.0 0.0 0.0 0.0 0.0 0.0 0.0 -3.27680 -3.27680 -3.27680 -3.27680 -3.27680 -3.27680
0.69 0.694660 0.0 207.20 5.950 0.0960 0.1020 0.0 993.40 200.0 38.0 500.0 197.0 38.0 240.153850 890687.0 98.666670 43.0 841582485.438450 0.0 0.0 0.0 0.0 0.0 0.0 0.0 -3.27680 -3.27680 -3.27680 -3.27680 -3.27680 -3.27680
0.68 0.684420 0.0 207.30 5.950 0.0960 0.1020 0.0 993.60 200.0 35.20 500.0 197.0 35.20 232.384620 890686.50 93.0 43.0 841581541.742410 0.0 0.0 0.0 0.0 0.0 0.0 0.0 -3.27680 -3.27680 -3.27680 -3.27680 -3.27680 -3.27680
0.67 0.674180 0.0 207.40 5.950 0.0960 0.1020 0.0 993.80 200.0 32.40 500.0 197.0 32.40 224.615380 890686.0 87.333330 43.0 841580598.046360 0.0 0.0 0.0 0.0 0.0 0.0 0.0 -3.27680 -3.27680 -3.27680 -3.27680 -3.27680 -3.27680
0.66 0.664730 0.0 207.50 5.950 0.0960 0.1020 0.0 994.0 200.0 29.60 500.0 197.0 29.60 216.846150 890685.50 81.666670 43.0 841579654.350320 0.0 0.0 0.0 0.0 0.0 0.0 0.0 -3.27680 -3.27680 -3.27680 -3.27680 -3.27680 -3.27680
0.65 0.654490 0.0 207.60 5.958330 0.0960 0.1020 0.0 993.60 200.0 26.80 500.0 197.0 26.80 209.076920 890685.0 76.0 43.0 841578710.654280 0.0 0.0 0.0 0.0 0.0 0.0 0.0 -3.27680 -3.27680 -3.27680 -3.27680 -3.27680 -3.27680
0.64 0.644250 0.0 207.70 5.966670 0.0960 0.1020 0.0 993.20 200.0 24.0 500.0 197.0 24.0 201.307690 890684.50 67.80 43.0 841577766.958230 0.0 0.0 0.0 0.0 0.0 0.0 0.0 -3.27680 -3.27680 -3.27680 -3.27680 -3.27680 -3.27680
0.63 0.634010 0.0 207.80 5.9750 0.0960 0.1020 0.0 992.80 200.0 28.0 502.0 197.0 28.0 193.538460 890684.0 59.60 43.0 841576823.262190 0.0 0.0 0.0 0.0 0.0 0.0 0.0 -3.27680 -3.27680 -3.27680 -3.27680 -3.27680 -3.27680
0.62 0.624560 0.0 207.90 5.983330 0.0960 0.1020 0.0 992.40 200.0 32.0 504.0 197.0 32.0 185.769230 890683.50 51.40 43.0 841575879.566150 0.0 0.0 0.0 0.0 0.0 0.0 0.0 -3.27680 -3.27680 -3.27680 -3.27680 -3.27680 -3.27680
0.61 0.614320 0.0 208.0 5.991670 0.0960 0.1020 0.0 992.0 200.0 36.0 506.0 197.0 36.0 178.0 890683.0 43.20 43.0 841574935.87010 0.0 0.0 0.0 0.0 0.0 0.0 0.0 -3.27680 -3.27680 -3.27680 -3.27680 -3.27680 -3.27680
0.60 0.604090 0.0 208.10 6.0 0.0960 0.10 0.0 991.80 200.0 40.0 508.0 197.0 40.0 179.50 890682.153850 35.0 43.0 841573338.861250 0.0 0.0 0.0 0.0 0.0 0.0 0.0 -3.27680 -3.27680 -3.27680 -3.27680 -3.27680 -3.27680
0.59 0.593850 0.0 208.20 6.006670 0.0960 0.1020 0.0 991.60 200.0 44.0 510.0 197.0 44.0 181.0 890681.307690 31.20 43.0 841571741.85240 0.0 0.0 0.0 0.0 0.0 0.0 0.0 -3.27680 -3.27680 -3.27680 -3.27680 -3.27680 -3.27680
0.58 0.58440 0.0 208.30 6.013330 0.0960 0.10 0.0 991.40 200.0 40.80 508.0 197.0 40.80 182.50 890680.461540 27.40 43.0 841570144.843550 0.0 0.0 0.0 0.0 0.0 0.0 0.0 -3.27680 -3.27680 -3.27680 -3.27680 -3.27680 -3.27680
0.57 0.574160 0.0 208.40 6.020 0.0960 0.1020 0.0 991.20 200.0 37.60 506.0 197.0 37.60 184.0 890679.615380 23.60 43.0 841568547.83470 0.0 0.0 0.0 0.0 0.0 0.0 0.0 -3.27680 -3.27680 -3.27680 -3.27680 -3.27680 -3.27680
0.56 0.564710 0.0 208.50 6.026670 0.0960 0.1020 0.0 991.0 200.0 34.40 504.0 197.0 34.40 185.50 890678.769230 19.80 43.0 841566950.825850 0.0 0.0 0.0 0.0 0.0 0.0 0.0 -3.27680 -3.27680 -3.27680 -3.27680 -3.27680 -3.27680
0.55 0.554470 0.0 208.60 6.033330 0.0960 0.1020 0.0 991.40 200.0 31.20 502.0 197.0 31.20 187.0 890677.923080 16.0 43.0 841565353.816990 0.0 0.0 0.0 0.0 0.0 0.0 0.0 -3.27680 -3.27680 -3.27680 -3.27680 -3.27680 -3.27680
0.54 0.544230 0.0 208.70 6.040 0.0960 0.1020 0.0 991.80 200.0 28.0 500.0 197.0 28.0 188.50 890677.076920 14.60 43.0 841563756.808140 0.0 0.0 0.0 0.0 0.0 0.0 0.0 -3.27680 -3.27680 -3.27680 -3.27680 -3.27680 -3.27680
0.53 0.533990 0.0 208.80 6.033330 0.0960 0.1020 0.0 992.20 200.0 26.713730 500.0 197.0 26.713730 190.0 890676.230770 13.20 43.0 841562159.799290 0.0 0.0 0.0 0.0 0.0 0.0 0.0 -3.27680 -3.27680 -3.27680 -3.27680 -3.27680 -3.27680
0.52 0.523750 0.0 208.90 6.026670 0.0960 0.1020 0.0 992.60 200.0 25.427450 500.0 197.0 25.427450 191.50 890675.384620 11.80 43.0 841560562.790440 0.0 0.0 0.0 0.0 0.0 0.0 0.0 -3.27680 -3.27680 -3.27680 -3.27680 -3.27680 -3.27680
0.51 0.513510 0.0 209.0 6.020 0.0960 0.1020 0.0 993.0 200.0 24.141180 500.0 197.0 24.141180 193.0 890674.538460 10.40 43.0 841558965.781590 0.0 0.0 0.0 0.0 0.0 0.0 0.0 -3.27680 -3.27680 -3.27680 -3.27680 -3.27680 -3.27680
0.50 0.503270 0.0 209.10 6.013330 0.0960 0.1020 0.0 993.0 200.0 22.85490 500.0 197.0 22.85490 179.666670 890673.692310 9.0 43.0 841557368.772740 0.0 0.0 0.0 0.0 0.0 0.0 0.0 -3.27680 -3.27680 -3.27680 -3.27680 -3.27680 -3.27680
0.49 0.493820 0.0 209.20 6.006670 0.0960 0.1020 0.0 993.0 200.0 21.568630 500.0 197.0 21.568630 166.333330 890672.846150 7.20 43.0 841555771.763890 0.0 0.0 0.0 0.0 0.0 0.0 0.0 -3.27680 -3.27680 -3.27680 -3.27680 -3.27680 -3.27680
0.48 0.483580 0.0 209.30 6.0 0.0960 0.1020 0.0 993.0 200.0 22.05490 500.0 197.0 22.05490 153.0 890672.0 5.40 43.0 841554174.755040 0.0 0.0 0.0 0.0 0.0 0.0 0.0 -3.27680 -3.27680 -3.27680 -3.27680 -3.27680 -3.27680
