~VERSION INFORMATION SECTION
VERS. 2.0 : CWLS LAS-VERSION 2.0
WRAP. NO : One line per depth step
~WELL INFORMATION SECTION
# MNEM.UNIT VALUE/NAME DESCRIPTION
#-------- -------------- ---------------------
STRT.Metres 26 : Start
STOP.Metres -2.05 : Stop
STEP.Metres -0.01 : Step
NULL.  -999.25 :NULL VALUE
DATE. 2026-40-09 : DATE
~CURVE INFORMATION SECTION
DEPTH.Metres : 0 Depth
Depth. : 1 Depth
Tension. : 2 Tension
Time. : 3 Time
Speed. : 4 Speed
Voltage. : 5 Voltage
Current. : 6 Current
WET. : 7 WET
Sig. : 8 Sig
Vth. : 9 Vth
GR.CPS : 10 GR
Timebase.ms : 11 Timebase
HeadVoltage.V : 12 Head Voltage
API.API : 13 API
Conductivity.uS : 14 Conductivity
PT100.Ohms : 15 PT100
Vmon.mV : 16 Vmon
Status. : 17 Status
Temperature.C : 18 Temperature
Incline.Deg : 19 Incline
Azimuth.Deg : 20 Azimuth
RelativeBearing.Deg : 21 Relative Bearing
MagneticToolFace.Deg : 22 Magnetic Tool Face
GravityMagnitude.G : 23 Gravity Magnitude
MagnetometerMagnitude.H : 24 Magnetometer Magnitude
Temperature.C : 25 Temperature
GX. : 26 GX
GY. : 27 GY
GZ. : 28 GZ
HX. : 29 HX
HY. : 30 HY
HZ. : 31 HZ
~PARAMETER INFORMATION SECTION
~OTHER
#-------------------------------------------------
#Produced By: GeoVista Logger - Version 7.1.107.0
Verticality Sonde - 9605
Temperature and Conductivity Sonde - Inline - 8974
Natural Gamma Sonde - 9931
WLIS - 10021
#-------------------------------------------------
~ASCII LOG DATA
# ...
9.31 9.331950 0.0 99.566670 14.948670 0.0960 0.1020 1.0 41.0 200.0 12.0 500.0 197.0 12.0 2024.416670 890031.769230 157.0 42.0 840346261.04960 0.0 0.0 0.0 0.0 0.0 0.0 0.0 -3.27680 -3.27680 -3.27680 -3.27680 -3.27680 -3.27680
9.30 9.323550 0.0 99.60 14.9580 0.0960 0.1020 1.0 41.0 200.0 12.666670 500.0 197.0 12.666670 2023.0 890033.384620 157.0 42.0 840349307.652210 0.0 0.0 0.0 0.0 0.0 0.0 0.0 -3.27680 -3.27680 -3.27680 -3.27680 -3.27680 -3.27680
9.29 9.310950 0.0 99.650 14.967330 0.0960 0.1020 1.0 41.0 200.0 13.333330 500.0 197.0 13.333330 2022.384620 890035.0 157.0 42.0 840352354.254810 0.0 0.0 0.0 0.0 0.0 0.0 0.0 -3.27680 -3.27680 -3.27680 -3.27680 -3.27680 -3.27680
9.28 9.298350 0.0 99.70 14.976670 0.0960 0.1020 1.0 41.0 200.0 14.0 500.0 197.0 14.0 2021.769230 890036.750 157.0 42.0 840355654.818740 0.0 0.0 0.0 0.0 0.0 0.0 0.0 -3.27680 -3.27680 -3.27680 -3.27680 -3.27680 -3.27680
9.27 9.289950 0.0 99.733330 14.9860 0.0960 0.1020 1.0 41.0 200.0 14.666670 500.0 197.0 14.666670 2021.153850 890038.50 157.0 42.0 840358955.382670 0.0 0.0 0.0 0.0 0.0 0.0 0.0 -3.27680 -3.27680 -3.27680 -3.27680 -3.27680 -3.27680
9.26 9.281540 0.0 99.766670 14.995330 0.0960 0.1020 1.0 41.0 200.0 15.333330 500.0 197.0 15.333330 2020.538460 890040.250 157.0 42.0 840362255.94660 0.0 0.0 0.0 0.0 0.0 0.0 0.0 -3.27680 -3.27680 -3.27680 -3.27680 -3.27680 -3.27680
9.25 9.273140 0.0 99.80 15.004670 0.0960 0.1020 1.0 41.0 200.0 16.0 500.0 197.0 16.0 2019.923080 890042.0 157.0 42.0 840365556.510530 0.0 0.0 0.0 0.0 0.0 0.0 0.0 -3.27680 -3.27680 -3.27680 -3.27680 -3.27680 -3.27680
9.24 9.260540 0.0 99.850 15.0140 0.0960 0.1020 1.0 41.0 200.0 15.846150 500.0 197.0 15.846150 2019.307690 890043.750 157.0 42.0 840368857.074470 0.0 0.0 0.0 0.0 0.0 0.0 0.0 -3.27680 -3.27680 -3.27680 -3.27680 -3.27680 -3.27680
9.23 9.247940 0.0 99.90 15.023330 0.0960 0.1020 1.0 41.0 200.0 15.692310 500.0 197.0 15.692310 2018.692310 890045.50 157.0 42.0 840372157.63840 0.0 0.0 0.0 0.0 0.0 0.0 0.0 -3.27680 -3.27680 -3.27680 -3.27680 -3.27680 -3.27680
9.22 9.239540 0.0 99.933330 15.032670 0.0960 0.1020 1.0 41.0 200.0 15.538460 500.0 197.0 15.538460 2018.076920 890047.250 157.0 42.0 840375458.202330 0.0 0.0 0.0 0.0 0.0 0.0 0.0 -3.27680 -3.27680 -3.27680 -3.27680 -3.27680 -3.27680
9.21 9.231140 0.0 99.966670 15.0420 0.0960 0.1020 1.0 41.0 200.0 15.384620 500.0 197.0 15.384620 2017.461540 890049.0 157.0 42.0 840378758.766260 0.0 0.0 0.0 0.0 0.0 0.0 0.0 -3.27680 -3.27680 -3.27680 -3.27680 -3.27680 -3.27680
9.20 9.222740 0.0 100.0 15.051330 0.0960 0.1020 1.0 41.0 200.0 15.230770 500.0 197.0 15.230770 2016.846150 890050.750 157.0 42.0 840382059.330190 0.0 0.0 0.0 0.0 0.0 0.0 0.0 -3.27680 -3.27680 -3.27680 -3.27680 -3.27680 -3.27680
9.19 9.210530 0.0 100.050 15.060670 0.0960 0.1020 1.0 41.0 200.0 15.076920 500.0 197.0 15.076920 2016.230770 890052.50 157.0 42.0 840385359.894120 0.0 0.0 0.0 0.0 0.0 0.0 0.0 -3.27680 -3.27680 -3.27680 -3.27680 -3.27680 -3.27680
9.18 9.198320 0.0 100.10 15.070 0.0960 0.1020 1.0 41.0 200.0 14.923080 500.0 197.0 14.923080 2015.615380 890054.250 157.0 42.0 840388660.458050 0.0 0.0 0.0 0.0 0.0 0.0 0.0 -3.27680 -3.27680 -3.27680 -3.27680 -3.27680 -3.27680
9.17 9.189920 0.0 100.133330 15.063330 0.0960 0.1020 1.0 41.0 200.0 14.769230 500.0 197.0 14.769230 2015.0 890056.0 157.0 42.0 840391961.021990 0.0 0.0 0.0 0.0 0.0 0.0 0.0 -3.27680 -3.27680 -3.27680 -3.27680 -3.27680 -3.27680
9.16 9.181520 0.0 100.166670 15.056670 0.0960 0.1020 1.0 41.0 200.0 14.615380 500.0 197.0 14.615380 2014.833330 890057.846150 157.0 42.0 840395443.02350 0.0 0.0 0.0 0.0 0.0 0.0 0.0 -3.27680 -3.27680 -3.27680 -3.27680 -3.27680 -3.27680
9.15 9.173120 0.0 100.20 15.050 0.0960 0.1020 1.0 41.0 200.0 14.461540 500.0 197.0 14.461540 2014.666670 890059.692310 157.0 42.0 840398925.025010 0.0 0.0 0.0 0.0 0.0 0.0 0.0 -3.27680 -3.27680 -3.27680 -3.27680 -3.27680 -3.27680
9.14 9.160910 0.0 100.250 15.043330 0.0960 0.1020 1.0 41.0 200.0 14.307690 500.0 197.0 14.307690 2014.50 890061.538460 157.0 42.0 840402407.026520 0.0 0.0 0.0 0.0 0.0 0.0 0.0 -3.27680 -3.27680 -3.27680 -3.27680 -3.27680 -3.27680
9.13 9.14870 0.0 100.30 15.036670 0.0960 0.1020 1.0 41.0 200.0 14.153850 500.0 197.0 14.153850 2014.333330 890063.384620 157.0 42.0 840405889.028030 0.0 0.0 0.0 0.0 0.0 0.0 0.0 -3.27680 -3.27680 -3.27680 -3.27680 -3.27680 -3.27680
9.12 9.14030 0.0 100.333330 15.030 0.0960 0.1020 1.0 41.0 200.0 14.0 500.0 197.0 14.0 2014.166670 890065.230770 157.0 42.0 840409371.029540 0.0 0.0 0.0 0.0 0.0 0.0 0.0 -3.27680 -3.27680 -3.27680 -3.27680 -3.27680 -3.27680
9.11 9.13190 0.0 100.366670 15.023330 0.0960 0.1020 1.0 41.0 200.0 13.833330 500.0 197.0 13.833330 2014.0 890067.076920 157.0 42.0 840412853.031050 0.0 0.0 0.0 0.0 0.0 0.0 0.0 -3.27680 -3.27680 -3.27680 -3.27680 -3.27680 -3.27680
9.10 9.12350 0.0 100.40 15.016670 0.0960 0.1020 1.0 41.0 200.0 13.666670 500.0 197.0 13.666670 2013.833330 890068.923080 157.0 42.0 840416335.032560 0.0 0.0 0.0 0.0 0.0 0.0 0.0 -3.27680 -3.27680 -3.27680 -3.27680 -3.27680 -3.27680
9.09 9.11090 0.0 100.450 15.010 0.0960 0.1020 1.0 41.0 200.0 13.50 500.0 197.0 13.50 2013.666670 890070.769230 157.0 42.0 840419817.034070 0.0 0.0 0.0 0.0 0.0 0.0 0.0 -3.27680 -3.27680 -3.27680 -3.27680 -3.27680 -3.27680
9.08 9.09830 0.0 100.50 15.003330 0.0960 0.1020 1.0 41.0 200.0 13.333330 500.0 197.0 13.333330 2013.50 890072.615380 157.0 42.0 840423299.035580 0.0 0.0 0.0 0.0 0.0 0.0 0.0 -3.27680 -3.27680 -3.27680 -3.27680 -3.27680 -3.27680
9.07 9.090160 0.0 100.533330 14.996670 0.0960 0.1020 1.0 40.923080 200.0 13.166670 500.0 197.0 13.166670 2013.333330 890074.461540 157.0 42.0 840426781.037090 0.0 0.0 0.0 0.0 0.0 0.0 0.0 -3.27680 -3.27680 -3.27680 -3.27680 -3.27680 -3.27680
9.06 9.082020 0.0 100.566670 14.990 0.0960 0.1020 1.0 40.846150 200.0 13.0 500.0 197.0 13.0 2013.166670 890076.307690 157.0 42.0 840430263.03860 0.0 0.0 0.0 0.0 0.0 0.0 0.0 -3.27680 -3.27680 -3.27680 -3.27680 -3.27680 -3.27680
9.05 9.073880 0.0 100.60 14.983330 0.0960 0.1020 1.0 40.769230 200.0 12.833330 500.0 197.0 12.833330 2013.0 890078.153850 157.0 42.0 840433745.040110 0.0 0.0 0.0 0.0 0.0 0.0 0.0 -3.27680 -3.27680 -3.27680 -3.27680 -3.27680 -3.27680
9.04 9.061280 0.0 100.650 14.976670 0.0960 0.1020 1.0 40.692310 200.0 12.666670 500.0 197.0 12.666670 2010.076920 890080.0 157.0 42.0 840437227.041620 0.0 0.0 0.0 0.0 0.0 0.0 0.0 -3.27680 -3.27680 -3.27680 -3.27680 -3.27680 -3.27680
9.03 9.048680 0.0 100.70 14.970 0.0960 0.1020 1.0 40.615380 200.0 12.50 500.0 197.0 12.50 2007.153850 890081.916670 157.0 42.0 840440842.131560 0.0 0.0 0.0 0.0 0.0 0.0 0.0 -3.27680 -3.27680 -3.27680 -3.27680 -3.27680 -3.27680
9.02 9.040280 0.0 100.733330 14.970 0.0960 0.1020 1.0 40.538460 200.0 12.333330 500.0 197.0 12.333330 2004.230770 890083.833330 157.0 42.0 840444457.221510 0.0 0.0 0.0 0.0 0.0 0.0 0.0 -3.27680 -3.27680 -3.27680 -3.27680 -3.27680 -3.27680
9.01 9.031880 0.0 100.766670 14.970 0.0960 0.1020 1.0 40.461540 200.0 12.166670 500.0 197.0 12.166670 2001.307690 890085.750 157.0 42.0 840448072.311460 0.0 0.0 0.0 0.0 0.0 0.0 0.0 -3.27680 -3.27680 -3.27680 -3.27680 -3.27680 -3.27680
9.00 9.023480 0.0 100.80 14.970 0.0960 0.1020 1.0 40.384620 200.0 12.0 500.0 197.0 12.0 1998.384620 890087.666670 157.0 42.0 840451687.401410 0.0 0.0 0.0 0.0 0.0 0.0 0.0 -3.27680 -3.27680 -3.27680 -3.27680 -3.27680 -3.27680
8.99 9.010870 0.0 100.850 14.970 0.0960 0.1020 1.0 40.307690 200.0 12.615380 500.0 197.0 12.615380 1995.461540 890089.583330 157.0 42.0 840455302.491360 0.0 0.0 0.0 0.0 0.0 0.0 0.0 -3.27680 -3.27680 -3.27680 -3.27680 -3.27680 -3.27680
8.98 8.998270 0.0 100.90 14.970 0.0960 0.1020 1.0 40.230770 200.0 13.230770 500.0 197.0 13.230770 1992.538460 890091.50 157.0 42.0 840458917.581310 0.0 0.0 0.0 0.0 0.0 0.0 0.0 -3.27680 -3.27680 -3.27680 -3.27680 -3.27680 -3.27680
8.97 8.990130 0.0 100.933330 14.970 0.0960 0.1020 1.0 40.153850 200.0 13.846150 500.0 197.0 13.846150 1989.615380 890093.416670 157.0 42.0 840462532.671260 0.0 0.0 0.0 0.0 0.0 0.0 0.0 -3.27680 -3.27680 -3.27680 -3.27680 -3.27680 -3.27680
