~VERSION INFORMATION SECTION
VERS. 2.0 : CWLS LAS-VERSION 2.0
WRAP. NO : One line per depth step
~WELL INFORMATION SECTION
# MNEM.UNIT VALUE/NAME DESCRIPTION
#-------- -------------- ---------------------
STRT.Metres 25 : Start
STOP.Metres -2.12 : Stop
STEP.Metres -0.01 : Step
NULL.  -999.25 :NULL VALUE
DATE. 2026-13-09 : DATE
~CURVE INFORMATION SECTION
DEPTH.Metres : 0 Depth
Depth. : 1 Depth
Tension. : 2 Tension
Time. : 3 Time
Speed. : 4 Speed
Voltage. : 5 Voltage
Current. : 6 Current
WET. : 7 WET
Sig. : 8 Sig
Vth. : 9 Vth
GR.CPS : 10 GR
Timebase.ms : 11 Timebase
HeadVoltage.V : 12 Head Voltage
API.API : 13 API
Conductivity.uS : 14 Conductivity
PT100.Ohms : 15 PT100
Vmon.mV : 16 Vmon
Status. : 17 Status
Temperature.C : 18 Temperature
Incline.Deg : 19 Incline
Azimuth.Deg : 20 Azimuth
RelativeBearing.Deg : 21 Relative Bearing
MagneticToolFace.Deg : 22 Magnetic Tool Face
GravityMagnitude.G : 23 Gravity Magnitude
MagnetometerMagnitude.H : 24 Magnetometer Magnitude
Temperature.C : 25 Temperature
GX. : 26 GX
GY. : 27 GY
GZ. : 28 GZ
HX. : 29 HX
HY. : 30 HY
HZ. : 31 HZ
~PARAMETER INFORMATION SECTION
~OTHER
#-------------------------------------------------
#Produced By: GeoVista Logger - Version 7.1.107.0
Verticality Sonde - 9605
Temperature and Conductivity Sonde - Inline - 8974
Natural Gamma Sonde - 9931
WLIS - 10021
#-------------------------------------------------
~ASCII LOG DATA
# ...
0.53 0.54580 0.0 113.10 14.930 0.0960 0.1020 0.0 992.0 200.0 37.333330 506.666670 197.0 37.333330 23.692310 890706.50 2.0 252.0 841619290.022230 0.0 0.0 0.0 0.0 0.0 0.0 0.0 -3.27680 -3.27680 -3.27680 -3.27680 -3.27680 -3.27680
0.52 0.53740 0.0 113.133330 14.93250 0.0960 0.1020 0.0 992.0 200.0 36.666670 505.833330 197.0 36.666670 0.0 890706.0 2.0 255.0 841618346.301850 0.0 0.0 0.0 0.0 0.0 0.0 0.0 -3.27680 -3.27680 -3.27680 -3.27680 -3.27680 -3.27680
0.51 0.5290 0.0 113.166670 14.9350 0.0960 0.1020 0.0 992.0 200.0 36.0 505.0 197.0 36.0 3.416670 890705.153850 2.0 255.0 841616749.251810 0.0 0.0 0.0 0.0 0.0 0.0 0.0 -3.27680 -3.27680 -3.27680 -3.27680 -3.27680 -3.27680
0.50 0.52060 0.0 113.20 14.93750 0.0960 0.1020 0.0 992.0 200.0 35.333330 504.166670 197.0 35.333330 6.833330 890704.307690 2.0 255.0 841615152.201770 0.0 0.0 0.0 0.0 0.0 0.0 0.0 -3.27680 -3.27680 -3.27680 -3.27680 -3.27680 -3.27680
0.49 0.511940 0.0 113.233330 14.940 0.0960 0.1020 0.0 992.0 200.0 34.666670 503.333330 197.0 34.666670 10.250 890703.461540 2.0 255.0 841613555.151730 0.0 0.0 0.0 0.0 0.0 0.0 0.0 -3.27680 -3.27680 -3.27680 -3.27680 -3.27680 -3.27680
0.48 0.503270 0.0 113.266670 14.94250 0.0960 0.1020 0.0 992.0 200.0 34.0 502.50 197.0 34.0 13.666670 890702.615380 2.0 255.0 841611958.101690 0.0 0.0 0.0 0.0 0.0 0.0 0.0 -3.27680 -3.27680 -3.27680 -3.27680 -3.27680 -3.27680
0.47 0.494610 0.0 113.30 14.9450 0.0960 0.1020 0.0 992.0 200.0 33.333330 501.666670 197.0 33.333330 17.083330 890701.769230 2.0 255.0 841610361.051650 0.0 0.0 0.0 0.0 0.0 0.0 0.0 -3.27680 -3.27680 -3.27680 -3.27680 -3.27680 -3.27680
0.46 0.482010 0.0 113.350 14.94750 0.0960 0.1020 0.0 992.0 200.0 33.388890 500.833330 197.0 33.388890 20.50 890700.923080 2.0 255.0 841608764.001610 0.0 0.0 0.0 0.0 0.0 0.0 0.0 -3.27680 -3.27680 -3.27680 -3.27680 -3.27680 -3.27680
0.45 0.469410 0.0 113.40 14.950 0.0960 0.1020 0.0 992.0 200.0 33.444440 500.0 197.0 33.444440 23.916670 890700.076920 2.0 255.0 841607166.951570 0.0 0.0 0.0 0.0 0.0 0.0 0.0 -3.27680 -3.27680 -3.27680 -3.27680 -3.27680 -3.27680
0.44 0.461270 0.0 113.433330 14.95250 0.0960 0.1020 0.0 992.0 200.0 33.50 500.0 197.0 33.50 27.333330 890699.230770 2.0 255.0 841605569.901530 0.0 0.0 0.0 0.0 0.0 0.0 0.0 -3.27680 -3.27680 -3.27680 -3.27680 -3.27680 -3.27680
0.43 0.453130 0.0 113.466670 14.9550 0.0960 0.1020 0.0 992.0 200.0 33.555560 500.0 197.0 33.555560 30.750 890698.384620 2.0 255.0 841603972.851490 0.0 0.0 0.0 0.0 0.0 0.0 0.0 -3.27680 -3.27680 -3.27680 -3.27680 -3.27680 -3.27680
0.42 0.444990 0.0 113.50 14.95750 0.0960 0.1020 0.0 992.0 200.0 33.611110 500.0 197.0 33.611110 34.166670 890697.538460 2.0 255.0 841602375.801450 0.0 0.0 0.0 0.0 0.0 0.0 0.0 -3.27680 -3.27680 -3.27680 -3.27680 -3.27680 -3.27680
0.41 0.432390 0.0 113.550 14.960 0.0960 0.1020 0.0 992.0 200.0 33.666670 500.0 197.0 33.666670 37.583330 890696.692310 2.0 255.0 841600778.751410 0.0 0.0 0.0 0.0 0.0 0.0 0.0 -3.27680 -3.27680 -3.27680 -3.27680 -3.27680 -3.27680
0.40 0.419790 0.0 113.60 14.96250 0.0960 0.1020 0.0 992.0 200.0 33.722220 500.0 197.0 33.722220 41.0 890695.846150 2.0 255.0 841599181.701370 0.0 0.0 0.0 0.0 0.0 0.0 0.0 -3.27680 -3.27680 -3.27680 -3.27680 -3.27680 -3.27680
0.39 0.411390 0.0 113.633330 14.9650 0.0960 0.1020 0.0 992.0 200.0 33.777780 500.0 197.0 33.777780 44.076920 890695.0 2.0 255.0 841597584.651330 0.0 0.0 0.0 0.0 0.0 0.0 0.0 -3.27680 -3.27680 -3.27680 -3.27680 -3.27680 -3.27680
0.38 0.402990 0.0 113.666670 14.96750 0.0960 0.1020 0.0 992.0 200.0 33.833330 500.0 197.0 33.833330 47.153850 890694.333330 2.0 255.0 841596326.382880 0.0 0.0 0.0 0.0 0.0 0.0 0.0 -3.27680 -3.27680 -3.27680 -3.27680 -3.27680 -3.27680
0.37 0.394590 0.0 113.70 14.970 0.0960 0.1020 0.0 992.0 200.0 33.888890 500.0 197.0 33.888890 50.230770 890693.666670 2.0 255.0 841595068.114440 0.0 0.0 0.0 0.0 0.0 0.0 0.0 -3.27680 -3.27680 -3.27680 -3.27680 -3.27680 -3.27680
0.36 0.381980 0.0 113.750 14.976670 0.0960 0.1020 0.0 992.0 200.0 33.944440 500.0 197.0 33.944440 53.307690 890693.0 2.0 255.0 841593809.845990 0.0 0.0 0.0 0.0 0.0 0.0 0.0 -3.27680 -3.27680 -3.27680 -3.27680 -3.27680 -3.27680
0.35 0.369380 0.0 113.80 14.983330 0.0960 0.1020 0.0 992.0 200.0 34.0 500.0 197.0 34.0 56.384620 890692.333330 2.0 255.0 841592551.577550 0.0 0.0 0.0 0.0 0.0 0.0 0.0 -3.27680 -3.27680 -3.27680 -3.27680 -3.27680 -3.27680
0.34 0.361240 0.0 113.833330 14.990 0.0960 0.1020 0.0 992.0 200.0 34.0 500.0 197.0 34.0 59.461540 890691.666670 2.076920 255.0 841591293.30910 0.0 0.0 0.0 0.0 0.0 0.0 0.0 -3.27680 -3.27680 -3.27680 -3.27680 -3.27680 -3.27680
0.33 0.353110 0.0 113.866670 14.996670 0.0960 0.1020 0.0 992.0 200.0 34.0 500.0 197.0 34.0 62.538460 890691.0 2.153850 255.0 841590035.040660 0.0 0.0 0.0 0.0 0.0 0.0 0.0 -3.27680 -3.27680 -3.27680 -3.27680 -3.27680 -3.27680
0.32 0.344970 0.0 113.90 15.003330 0.0960 0.1020 0.0 992.0 200.0 34.0 500.0 197.0 34.0 65.615380 890690.333330 2.230770 255.0 841588776.772210 0.0 0.0 0.0 0.0 0.0 0.0 0.0 -3.27680 -3.27680 -3.27680 -3.27680 -3.27680 -3.27680
0.31 0.331970 0.0 113.950 15.010 0.0960 0.1020 0.0 992.0 200.0 34.0 500.0 197.0 34.0 68.692310 890689.666670 2.307690 255.0 841587518.503760 0.0 0.0 0.0 0.0 0.0 0.0 0.0 -3.27680 -3.27680 -3.27680 -3.27680 -3.27680 -3.27680
0.30 0.318980 0.0 114.0 15.016670 0.0960 0.1020 0.0 992.0 200.0 34.0 500.0 197.0 34.0 71.769230 890689.0 2.384620 255.0 841586260.235320 0.0 0.0 0.0 0.0 0.0 0.0 0.0 -3.27680 -3.27680 -3.27680 -3.27680 -3.27680 -3.27680
0.29 0.306770 0.0 114.050 15.023330 0.0960 0.1020 0.0 992.083330 200.0 34.0 500.0 197.0 34.0 74.846150 890688.333330 2.461540 255.0 841585001.966870 0.0 0.0 0.0 0.0 0.0 0.0 0.0 -3.27680 -3.27680 -3.27680 -3.27680 -3.27680 -3.27680
0.28 0.294560 0.0 114.10 15.030 0.0960 0.1020 0.0 992.166670 200.0 34.0 500.0 197.0 34.0 77.923080 890687.666670 2.538460 255.0 841583743.698430 0.0 0.0 0.0 0.0 0.0 0.0 0.0 -3.27680 -3.27680 -3.27680 -3.27680 -3.27680 -3.27680
0.27 0.286420 0.0 114.133330 15.036670 0.0960 0.1020 0.0 992.250 200.0 34.0 500.0 197.0 34.0 81.0 890687.0 2.615380 255.0 841582485.429980 0.0 0.0 0.0 0.0 0.0 0.0 0.0 -3.27680 -3.27680 -3.27680 -3.27680 -3.27680 -3.27680
0.26 0.278280 0.0 114.166670 15.043330 0.0960 0.1020 0.0 992.333330 200.0 34.0 500.0 197.0 34.0 76.50 890686.461540 2.692310 255.0 841581469.144780 0.0 0.0 0.0 0.0 0.0 0.0 0.0 -3.27680 -3.27680 -3.27680 -3.27680 -3.27680 -3.27680
0.25 0.270150 0.0 114.20 15.050 0.0960 0.1020 0.0 992.416670 200.0 34.0 500.0 197.0 34.0 72.0 890685.923080 2.769230 255.0 841580452.859590 0.0 0.0 0.0 0.0 0.0 0.0 0.0 -3.27680 -3.27680 -3.27680 -3.27680 -3.27680 -3.27680
0.24 0.261740 0.0 114.233330 15.056670 0.0960 0.1020 0.0 992.50 200.0 34.0 500.0 197.0 34.0 67.50 890685.384620 2.846150 255.0 841579436.574390 0.0 0.0 0.0 0.0 0.0 0.0 0.0 -3.27680 -3.27680 -3.27680 -3.27680 -3.27680 -3.27680
0.23 0.253340 0.0 114.266670 15.063330 0.0960 0.1020 0.0 992.583330 200.0 34.0 500.0 197.0 34.0 63.0 890684.846150 2.923080 255.0 841578420.289190 0.0 0.0 0.0 0.0 0.0 0.0 0.0 -3.27680 -3.27680 -3.27680 -3.27680 -3.27680 -3.27680
0.22 0.244940 0.0 114.30 15.070 0.0960 0.1020 0.0 992.666670 200.0 34.0 500.0 197.0 34.0 58.50 890684.307690 3.0 255.0 841577404.003990 0.0 0.0 0.0 0.0 0.0 0.0 0.0 -3.27680 -3.27680 -3.27680 -3.27680 -3.27680 -3.27680
0.21 0.232340 0.0 114.350 15.060 0.0960 0.1020 0.0 992.750 200.0 33.666670 500.0 197.0 33.666670 54.0 890683.769230 2.916670 255.0 841576387.71880 0.0 0.0 0.0 0.0 0.0 0.0 0.0 -3.27680 -3.27680 -3.27680 -3.27680 -3.27680 -3.27680
0.20 0.219740 0.0 114.40 15.050 0.0960 0.1020 0.0 992.833330 200.0 33.333330 500.0 197.0 33.333330 49.50 890683.230770 2.833330 255.0 841575371.43360 0.0 0.0 0.0 0.0 0.0 0.0 0.0 -3.27680 -3.27680 -3.27680 -3.27680 -3.27680 -3.27680
0.19 0.207530 0.0 114.450 15.040 0.0960 0.1020 0.0 992.916670 200.0 33.0 500.0 197.0 33.0 45.0 890682.692310 2.750 255.0 841574355.14840 0.0 0.0 0.0 0.0 0.0 0.0 0.0 -3.27680 -3.27680 -3.27680 -3.27680 -3.27680 -3.27680
0.18 0.195320 0.0 114.50 15.030 0.0960 0.1020 0.0 993.0 200.0 32.666670 500.0 197.0 32.666670 40.50 890682.153850 2.666670 255.0 841573338.86320 0.0 0.0 0.0 0.0 0.0 0.0 0.0 -3.27680 -3.27680 -3.27680 -3.27680 -3.27680 -3.27680
