~VERSION INFORMATION SECTION
VERS. 2.0 : CWLS LAS-VERSION 2.0
WRAP. NO : One line per depth step
~WELL INFORMATION SECTION
# MNEM.UNIT VALUE/NAME DESCRIPTION
#-------- -------------- ---------------------
STRT.Metres 26 : Start
STOP.Metres -2.05 : Stop
STEP.Metres -0.01 : Step
NULL.  -999.25 :NULL VALUE
DATE. 2026-23-09 : DATE
~CURVE INFORMATION SECTION
DEPTH.Metres : 0 Depth
Depth. : 1 Depth
Tension. : 2 Tension
Time. : 3 Time
Speed. : 4 Speed
Voltage. : 5 Voltage
Current. : 6 Current
WET. : 7 WET
Sig. : 8 Sig
Vth. : 9 Vth
GR.CPS : 10 GR
Timebase.ms : 11 Timebase
HeadVoltage.V : 12 Head Voltage
API.API : 13 API
Conductivity.uS : 14 Conductivity
PT100.Ohms : 15 PT100
Vmon.mV : 16 Vmon
Status. : 17 Status
Temperature.C : 18 Temperature
Incline.Deg : 19 Incline
Azimuth.Deg : 20 Azimuth
RelativeBearing.Deg : 21 Relative Bearing
MagneticToolFace.Deg : 22 Magnetic Tool Face
GravityMagnitude.G : 23 Gravity Magnitude
MagnetometerMagnitude.H : 24 Magnetometer Magnitude
Temperature.C : 25 Temperature
GX. : 26 GX
GY. : 27 GY
GZ. : 28 GZ
HX. : 29 HX
HY. : 30 HY
HZ. : 31 HZ
~PARAMETER INFORMATION SECTION
~OTHER
#-------------------------------------------------
#Produced By: GeoVista Logger - Version 7.1.107.0
Verticality Sonde - 9605
Temperature and Conductivity Sonde - Inline - 8974
Natural Gamma Sonde - 9931
WLIS - 10021
#-------------------------------------------------
~ASCII LOG DATA
# ...
18.04 18.059290 0.0 43.266670 14.991330 0.0960 0.1020 1.0 5.923080 200.0 19.230770 500.0 197.0 19.230770 5789.384620 889195.333330 158.307690 46.0 838769477.007750 0.0 0.0 0.0 0.0 0.0 0.0 0.0 -3.27680 -3.27680 -3.27680 -3.27680 -3.27680 -3.27680
18.03 18.050890 0.0 43.30 15.006670 0.0960 0.1020 1.0 6.0 200.0 19.538460 500.0 197.0 19.538460 5760.538460 889196.250 158.384620 46.0 838771204.221660 0.0 0.0 0.0 0.0 0.0 0.0 0.0 -3.27680 -3.27680 -3.27680 -3.27680 -3.27680 -3.27680
18.02 18.038290 0.0 43.350 15.0220 0.0960 0.1020 1.0 6.0 200.0 19.846150 500.0 197.0 19.846150 5731.692310 889197.166670 158.461540 46.0 838772931.435570 0.0 0.0 0.0 0.0 0.0 0.0 0.0 -3.27680 -3.27680 -3.27680 -3.27680 -3.27680 -3.27680
18.01 18.025690 0.0 43.40 15.037330 0.0960 0.1020 1.0 6.0 200.0 20.153850 500.0 197.0 20.153850 5702.846150 889198.083330 158.538460 46.0 838774658.649480 0.0 0.0 0.0 0.0 0.0 0.0 0.0 -3.27680 -3.27680 -3.27680 -3.27680 -3.27680 -3.27680
18.00 18.017550 0.0 43.433330 15.052670 0.0960 0.1020 1.0 6.0 200.0 20.461540 500.0 197.0 20.461540 5674.0 889199.0 158.615380 46.0 838776385.86340 0.0 0.0 0.0 0.0 0.0 0.0 0.0 -3.27680 -3.27680 -3.27680 -3.27680 -3.27680 -3.27680
17.99 18.009410 0.0 43.466670 15.0680 0.0960 0.1020 1.0 6.0 200.0 20.769230 500.0 197.0 20.769230 5651.250 889199.615380 158.692310 45.916670 838777545.403990 0.0 0.0 0.0 0.0 0.0 0.0 0.0 -3.27680 -3.27680 -3.27680 -3.27680 -3.27680 -3.27680
17.98 18.001270 0.0 43.50 15.083330 0.0960 0.1020 1.0 6.0 200.0 21.076920 500.0 197.0 21.076920 5628.50 889200.230770 158.769230 45.833330 838778704.944580 0.0 0.0 0.0 0.0 0.0 0.0 0.0 -3.27680 -3.27680 -3.27680 -3.27680 -3.27680 -3.27680
17.97 17.989060 0.0 43.550 15.098670 0.0960 0.1020 1.0 6.0 200.0 21.384620 500.0 197.0 21.384620 5605.750 889200.846150 158.846150 45.750 838779864.485180 0.0 0.0 0.0 0.0 0.0 0.0 0.0 -3.27680 -3.27680 -3.27680 -3.27680 -3.27680 -3.27680
17.96 17.976860 0.0 43.60 15.1140 0.0960 0.1020 1.0 6.0 200.0 21.692310 500.0 197.0 21.692310 5583.0 889201.461540 158.923080 45.666670 838781024.025770 0.0 0.0 0.0 0.0 0.0 0.0 0.0 -3.27680 -3.27680 -3.27680 -3.27680 -3.27680 -3.27680
17.95 17.968450 0.0 43.633330 15.129330 0.0960 0.1020 1.0 6.0 200.0 22.0 500.0 197.0 22.0 5560.250 889202.076920 159.0 45.583330 838782183.566370 0.0 0.0 0.0 0.0 0.0 0.0 0.0 -3.27680 -3.27680 -3.27680 -3.27680 -3.27680 -3.27680
17.94 17.960050 0.0 43.666670 15.144670 0.0960 0.1020 1.0 6.0 200.0 22.666670 500.0 197.0 22.666670 5537.50 889202.692310 158.916670 45.50 838783343.106960 0.0 0.0 0.0 0.0 0.0 0.0 0.0 -3.27680 -3.27680 -3.27680 -3.27680 -3.27680 -3.27680
17.93 17.951650 0.0 43.70 15.160 0.0960 0.1020 1.0 6.0 200.0 23.333330 500.0 197.0 23.333330 5514.750 889203.307690 158.833330 45.416670 838784502.647550 0.0 0.0 0.0 0.0 0.0 0.0 0.0 -3.27680 -3.27680 -3.27680 -3.27680 -3.27680 -3.27680
17.92 17.939050 0.0 43.750 15.144670 0.0960 0.1020 1.0 6.0 200.0 24.0 500.0 197.0 24.0 5492.0 889203.923080 158.750 45.333330 838785662.188150 0.0 0.0 0.0 0.0 0.0 0.0 0.0 -3.27680 -3.27680 -3.27680 -3.27680 -3.27680 -3.27680
17.91 17.926450 0.0 43.80 15.129330 0.0960 0.1020 1.0 6.0 200.0 24.666670 500.0 197.0 24.666670 5469.250 889204.538460 158.666670 45.250 838786821.728740 0.0 0.0 0.0 0.0 0.0 0.0 0.0 -3.27680 -3.27680 -3.27680 -3.27680 -3.27680 -3.27680
17.90 17.918050 0.0 43.833330 15.1140 0.0960 0.101330 1.0 6.0 200.0 25.333330 500.0 197.0 25.333330 5446.50 889205.153850 158.583330 45.166670 838787981.269340 0.0 0.0 0.0 0.0 0.0 0.0 0.0 -3.27680 -3.27680 -3.27680 -3.27680 -3.27680 -3.27680
17.89 17.909650 0.0 43.866670 15.098670 0.0960 0.100670 1.0 6.0 200.0 26.0 500.0 197.0 26.0 5423.750 889205.769230 158.50 45.083330 838789140.809930 0.0 0.0 0.0 0.0 0.0 0.0 0.0 -3.27680 -3.27680 -3.27680 -3.27680 -3.27680 -3.27680
17.88 17.901250 0.0 43.90 15.083330 0.0960 0.10 1.0 6.0 200.0 26.666670 500.0 197.0 26.666670 5401.0 889206.384620 158.416670 45.0 838790300.350520 0.0 0.0 0.0 0.0 0.0 0.0 0.0 -3.27680 -3.27680 -3.27680 -3.27680 -3.27680 -3.27680
17.87 17.889040 0.0 43.950 15.0680 0.0960 0.1010 1.0 6.0 200.0 27.333330 500.0 197.0 27.333330 5379.923080 889207.0 158.333330 45.0 838791459.891120 0.0 0.0 0.0 0.0 0.0 0.0 0.0 -3.27680 -3.27680 -3.27680 -3.27680 -3.27680 -3.27680
17.86 17.876830 0.0 44.0 15.052670 0.0960 0.1020 1.0 6.0 200.0 28.0 500.0 197.0 28.0 5358.846150 889208.250 158.250 45.0 838793815.238370 0.0 0.0 0.0 0.0 0.0 0.0 0.0 -3.27680 -3.27680 -3.27680 -3.27680 -3.27680 -3.27680
17.85 17.868430 0.0 44.033330 15.037330 0.0960 0.1020 1.0 6.0 200.0 28.666670 500.0 197.0 28.666670 5337.769230 889209.50 158.166670 45.0 838796170.585630 0.0 0.0 0.0 0.0 0.0 0.0 0.0 -3.27680 -3.27680 -3.27680 -3.27680 -3.27680 -3.27680
17.84 17.860030 0.0 44.066670 15.0220 0.0960 0.1020 1.0 6.0 200.0 29.333330 500.0 197.0 29.333330 5316.692310 889210.750 158.083330 45.0 838798525.932880 0.0 0.0 0.0 0.0 0.0 0.0 0.0 -3.27680 -3.27680 -3.27680 -3.27680 -3.27680 -3.27680
17.83 17.851630 0.0 44.10 15.006670 0.0960 0.1020 1.0 6.0 200.0 30.0 500.0 197.0 30.0 5295.615380 889212.0 158.0 45.0 838800881.280140 0.0 0.0 0.0 0.0 0.0 0.0 0.0 -3.27680 -3.27680 -3.27680 -3.27680 -3.27680 -3.27680
17.82 17.839030 0.0 44.150 14.991330 0.0960 0.1020 1.0 6.0 200.0 29.076920 500.0 197.0 29.076920 5274.538460 889213.250 158.076920 45.0 838803236.627390 0.0 0.0 0.0 0.0 0.0 0.0 0.0 -3.27680 -3.27680 -3.27680 -3.27680 -3.27680 -3.27680
17.81 17.826430 0.0 44.20 14.9760 0.0960 0.1020 1.0 6.0 200.0 28.153850 500.0 197.0 28.153850 5253.461540 889214.50 158.153850 45.0 838805591.974650 0.0 0.0 0.0 0.0 0.0 0.0 0.0 -3.27680 -3.27680 -3.27680 -3.27680 -3.27680 -3.27680
17.80 17.818290 0.0 44.233330 14.960670 0.0960 0.1020 1.0 6.0 200.0 27.230770 500.0 197.0 27.230770 5232.384620 889215.750 158.230770 45.0 838807947.32190 0.0 0.0 0.0 0.0 0.0 0.0 0.0 -3.27680 -3.27680 -3.27680 -3.27680 -3.27680 -3.27680
17.79 17.810150 0.0 44.266670 14.945330 0.0960 0.1020 1.0 6.0 200.0 26.307690 500.0 197.0 26.307690 5211.307690 889217.0 158.307690 45.0 838810302.669160 0.0 0.0 0.0 0.0 0.0 0.0 0.0 -3.27680 -3.27680 -3.27680 -3.27680 -3.27680 -3.27680
17.78 17.802010 0.0 44.30 14.930 0.0960 0.1020 1.0 6.0 200.0 25.384620 500.0 197.0 25.384620 5190.230770 889218.250 158.384620 45.0 838812658.016410 0.0 0.0 0.0 0.0 0.0 0.0 0.0 -3.27680 -3.27680 -3.27680 -3.27680 -3.27680 -3.27680
17.77 17.789410 0.0 44.350 14.932670 0.0960 0.1020 1.0 6.0 200.0 24.461540 500.0 197.0 24.461540 5169.153850 889219.50 158.461540 45.0 838815013.363670 0.0 0.0 0.0 0.0 0.0 0.0 0.0 -3.27680 -3.27680 -3.27680 -3.27680 -3.27680 -3.27680
17.76 17.776810 0.0 44.40 14.935330 0.0960 0.1020 1.0 6.0 200.0 23.538460 500.0 197.0 23.538460 5148.076920 889220.750 158.538460 45.0 838817368.710920 0.0 0.0 0.0 0.0 0.0 0.0 0.0 -3.27680 -3.27680 -3.27680 -3.27680 -3.27680 -3.27680
17.75 17.768410 0.0 44.433330 14.9380 0.0960 0.101330 1.0 6.0 200.0 22.615380 500.0 197.0 22.615380 5127.0 889222.0 158.615380 45.0 838819724.058180 0.0 0.0 0.0 0.0 0.0 0.0 0.0 -3.27680 -3.27680 -3.27680 -3.27680 -3.27680 -3.27680
17.74 17.760 0.0 44.466670 14.940670 0.0960 0.100670 1.0 6.0 200.0 21.692310 500.0 197.0 21.692310 5110.166670 889222.692310 158.692310 45.0 838821028.575780 0.0 0.0 0.0 0.0 0.0 0.0 0.0 -3.27680 -3.27680 -3.27680 -3.27680 -3.27680 -3.27680
17.73 17.75160 0.0 44.50 14.943330 0.0960 0.10 1.0 6.0 200.0 20.769230 500.0 197.0 20.769230 5093.333330 889223.384620 158.769230 45.0 838822333.093380 0.0 0.0 0.0 0.0 0.0 0.0 0.0 -3.27680 -3.27680 -3.27680 -3.27680 -3.27680 -3.27680
17.72 17.7390 0.0 44.550 14.9460 0.0960 0.1010 1.0 6.0 200.0 19.846150 500.0 197.0 19.846150 5076.50 889224.076920 158.846150 45.0 838823637.610980 0.0 0.0 0.0 0.0 0.0 0.0 0.0 -3.27680 -3.27680 -3.27680 -3.27680 -3.27680 -3.27680
17.71 17.72640 0.0 44.60 14.948670 0.0960 0.1020 1.0 6.0 200.0 18.923080 500.0 197.0 18.923080 5059.666670 889224.769230 158.923080 45.0 838824942.128580 0.0 0.0 0.0 0.0 0.0 0.0 0.0 -3.27680 -3.27680 -3.27680 -3.27680 -3.27680 -3.27680
17.70 17.7180 0.0 44.633330 14.951330 0.0960 0.1020 1.0 6.0 200.0 18.0 500.0 197.0 18.0 5042.833330 889225.461540 159.0 45.0 838826246.646180 0.0 0.0 0.0 0.0 0.0 0.0 0.0 -3.27680 -3.27680 -3.27680 -3.27680 -3.27680 -3.27680
