~VERSION INFORMATION SECTION
VERS. 2.0 : CWLS LAS-VERSION 2.0
WRAP. NO : One line per depth step
~WELL INFORMATION SECTION
# MNEM.UNIT VALUE/NAME DESCRIPTION
#-------- -------------- ---------------------
STRT.Metres 2 : Start
STOP.Metres 22.45 : Stop
STEP.Metres 0.01 : Step
NULL.  -999.25 :NULL VALUE
DATE. 2026-02-09 : DATE
~CURVE INFORMATION SECTION
DEPTH.Metres : 0 Depth
Depth. : 1 Depth
Tension. : 2 Tension
Time. : 3 Time
Speed. : 4 Speed
Voltage. : 5 Voltage
Current. : 6 Current
WET. : 7 WET
Sig. : 8 Sig
Vth. : 9 Vth
GR.CPS : 10 GR
Timebase.ms : 11 Timebase
HeadVoltage.V : 12 Head Voltage
API.API : 13 API
Conductivity.uS : 14 Conductivity
PT100.Ohms : 15 PT100
Vmon.mV : 16 Vmon
Status. : 17 Status
Temperature.C : 18 Temperature
Incline.Deg : 19 Incline
Azimuth.Deg : 20 Azimuth
RelativeBearing.Deg : 21 Relative Bearing
MagneticToolFace.Deg : 22 Magnetic Tool Face
GravityMagnitude.G : 23 Gravity Magnitude
MagnetometerMagnitude.H : 24 Magnetometer Magnitude
Temperature.C : 25 Temperature
GX. : 26 GX
GY. : 27 GY
GZ. : 28 GZ
HX. : 29 HX
HY. : 30 HY
HZ. : 31 HZ
~PARAMETER INFORMATION SECTION
~OTHER
#-------------------------------------------------
#Produced By: GeoVista Logger - Version 7.1.107.0
Verticality Sonde - 6292
Temperature and Conductivity Sonde - Inline - 8974
Natural Gamma Sonde - 9931
WLIS - 10024
#-------------------------------------------------
~ASCII LOG DATA
# ...
7.08 7.082050 0.0 41.60 10.0150 0.0960 0.1040 1.0 33.0 100.0 14.0 500.0 196.0 14.0 84.572880 109.521750 155.0 44.0 24.44820 0.20 43.28750 85.48750 128.51250 1.79030 6.042380 21.32750 0.000120 0.004740 1.790180 0.160960 -0.201270 -0.546580
7.09 7.090320 0.0 41.650 10.020 0.0960 0.1040 1.0 33.0 100.0 14.666670 500.0 196.0 14.666670 84.657640 109.522010 155.0 44.0 24.448870 0.20 42.950 85.850 128.550 1.79030 6.04250 21.330 0.000130 0.004770 1.790170 0.161330 -0.2010 -0.546570
7.10 7.098590 0.0 41.70 10.0250 0.0960 0.1040 1.0 33.0 100.0 15.333330 500.0 196.0 15.333330 84.74240 109.522270 155.0 44.0 24.449550 0.20 42.61250 86.21250 128.58750 1.79030 6.042630 21.33250 0.000140 0.004790 1.790160 0.161710 -0.200730 -0.546560
7.11 7.106860 0.0 41.750 10.030 0.0960 0.1040 1.0 32.8750 100.0 16.0 500.0 196.0 16.0 84.827160 109.522540 155.0 44.0 24.450230 0.20 42.2750 86.5750 128.6250 1.79030 6.042750 21.3350 0.000160 0.004810 1.790140 0.162090 -0.200470 -0.546540
7.12 7.115130 0.0 41.80 10.0350 0.0960 0.1040 1.0 32.750 100.0 15.960780 500.0 196.0 15.960780 84.911920 109.522690 155.0 44.0 24.450620 0.20 41.93750 86.93750 128.66250 1.79030 6.042880 21.33750 0.000170 0.004830 1.790130 0.162470 -0.20020 -0.546530
7.13 7.131670 0.0 41.90 10.040 0.0960 0.1040 1.0 32.6250 100.0 15.921570 500.0 196.0 15.921570 84.996680 109.522840 155.0 44.0 24.451010 0.20 41.60 87.30 128.70 1.79030 6.0430 21.340 0.000180 0.004860 1.790120 0.162840 -0.199930 -0.546520
7.14 7.140340 0.0 41.950 10.0450 0.0960 0.1040 1.0 32.50 100.0 15.882350 500.0 196.0 15.882350 85.081440 109.522990 155.0 44.0 24.45140 0.20 41.777780 87.20 128.777780 1.790290 6.0430 21.340 0.000190 0.004880 1.790110 0.163220 -0.199670 -0.546510
7.15 7.1490 0.0 42.0 10.050 0.0960 0.1040 1.0 32.3750 100.0 15.843140 500.0 196.0 15.843140 85.16620 109.523140 155.0 44.0 24.451790 0.20 41.955560 87.10 128.855560 1.790280 6.0430 21.340 0.00020 0.00490 1.79010 0.16360 -0.19940 -0.54650
7.16 7.157270 0.0 42.050 10.0550 0.0960 0.1040 1.0 32.250 100.0 15.803920 500.0 196.0 15.803920 85.250960 109.523290 155.0 44.0 24.452170 0.20 42.133330 87.0 128.933330 1.790270 6.0430 21.340 0.000240 0.004890 1.79010 0.163530 -0.199460 -0.546510
7.17 7.165540 0.0 42.10 10.060 0.0960 0.1040 1.0 32.1250 100.0 15.764710 500.0 196.0 15.764710 84.950230 109.523440 155.0 44.0 24.452560 0.20 42.311110 86.90 129.011110 1.790260 6.0430 21.340 0.000280 0.004880 1.79010 0.163450 -0.199530 -0.546530
7.18 7.182080 0.0 42.20 10.050 0.0960 0.1040 1.0 32.0 100.0 15.725490 500.0 196.0 15.725490 84.649490 109.523590 155.0 44.0 24.452950 0.20 42.488890 86.80 129.088890 1.790240 6.0430 21.340 0.000310 0.004860 1.79010 0.163380 -0.199590 -0.546540
7.19 7.190350 0.0 42.250 10.040 0.0960 0.1040 1.0 32.111110 100.0 15.686270 500.0 196.0 15.686270 84.348760 109.523740 155.0 44.0 24.453340 0.20 42.666670 86.70 129.166670 1.790230 6.0430 21.340 0.000350 0.004850 1.79010 0.16330 -0.199650 -0.546550
7.20 7.198620 0.0 42.30 10.030 0.0960 0.1040 1.0 32.222220 100.0 14.975490 500.0 196.0 14.975490 84.048030 109.523710 155.0 44.0 24.453250 0.20 42.844440 86.60 129.244440 1.790220 6.0430 21.340 0.000390 0.004840 1.79010 0.163230 -0.199710 -0.546560
7.21 7.206890 0.0 42.350 10.020 0.0960 0.1040 1.0 32.333330 100.0 14.264710 500.0 196.0 14.264710 83.747290 109.523680 155.0 44.0 24.453170 0.20 43.022220 86.50 129.322220 1.790210 6.0430 21.340 0.000430 0.004820 1.79010 0.163150 -0.199780 -0.546580
7.22 7.215160 0.0 42.40 10.010 0.0960 0.1040 1.0 32.444440 100.0 13.553920 501.250 196.0 13.553920 83.446560 109.523640 155.0 44.0 24.453080 0.20 43.20 86.40 129.40 1.79020 6.0430 21.340 0.000460 0.004810 1.79010 0.163080 -0.199840 -0.546590
7.23 7.23170 0.0 42.50 10.0 0.0960 0.1040 1.0 32.555560 100.0 12.843140 502.50 196.0 12.843140 83.145830 109.523610 155.0 44.0 24.452990 0.20 43.30 86.250 129.350 1.790210 6.043130 21.340 0.00050 0.00480 1.79010 0.1630 -0.19990 -0.54660
7.24 7.239970 0.0 42.550 9.990 0.0960 0.1040 1.0 32.666670 100.0 12.132350 503.750 196.0 12.132350 82.84510 109.523570 155.0 44.0 24.452910 0.20 43.40 86.10 129.30 1.790230 6.043250 21.340 0.000440 0.004770 1.790110 0.163060 -0.199860 -0.546590
7.25 7.248240 0.0 42.60 9.980 0.0960 0.1040 1.0 32.777780 100.0 11.421570 505.0 196.0 11.421570 83.116490 109.523540 155.0 44.0 24.452820 0.20 43.50 85.950 129.250 1.790240 6.043380 21.340 0.000380 0.004750 1.790130 0.163130 -0.199830 -0.546580
7.26 7.256510 0.0 42.650 9.970 0.0960 0.1040 1.0 32.888890 100.0 10.710780 506.250 196.0 10.710780 83.387880 109.523510 155.0 44.0 24.452730 0.20 43.60 85.80 129.20 1.790250 6.04350 21.340 0.000310 0.004720 1.790140 0.163190 -0.199790 -0.546560
7.27 7.264780 0.0 42.70 9.960 0.0960 0.1040 1.0 33.0 100.0 10.0 507.50 196.0 10.0 83.659270 109.523470 155.0 44.0 24.452650 0.20 43.70 85.650 129.150 1.790260 6.043630 21.340 0.000250 0.00470 1.790150 0.163250 -0.199750 -0.546550
7.28 7.281320 0.0 42.80 9.9560 0.0960 0.1040 1.0 33.0 100.0 10.666670 508.750 196.0 10.666670 83.930670 109.523440 155.0 44.0 24.452560 0.20 43.80 85.50 129.10 1.790280 6.043750 21.340 0.000190 0.004670 1.790160 0.163310 -0.199710 -0.546540
7.29 7.289980 0.0 42.850 9.9520 0.0960 0.1040 1.0 33.0 100.0 11.333330 510.0 196.0 11.333330 84.202060 109.52340 155.0 44.0 24.452470 0.20 43.90 85.350 129.050 1.790290 6.043880 21.340 0.000130 0.004650 1.790180 0.163380 -0.199680 -0.546530
7.30 7.298640 0.0 42.90 9.9480 0.0960 0.1040 1.0 33.0 100.0 12.0 508.750 196.0 12.0 84.473450 109.523370 155.0 44.0 24.452370 0.20 44.0 85.20 129.0 1.79030 6.0440 21.340 0.000060 0.004620 1.790190 0.163440 -0.199640 -0.546510
7.31 7.306910 0.0 42.950 9.9440 0.0960 0.1040 1.0 33.0 100.0 12.666670 507.50 196.0 12.666670 84.744850 109.523330 155.0 44.0 24.452270 0.18750 43.550 85.70 129.03750 1.79030 6.0440 21.340 0.0 0.00460 1.79020 0.16350 -0.19960 -0.54650
7.32 7.315180 0.0 43.0 9.940 0.0960 0.1040 1.0 33.0 100.0 13.333330 506.250 196.0 13.333330 85.016240 109.523290 155.0 44.0 24.452170 0.1750 43.10 86.20 129.0750 1.79030 6.0440 21.340 -0.000020 0.004590 1.79020 0.163890 -0.19930 -0.54650
7.33 7.331720 0.0 43.10 9.9360 0.0960 0.1040 1.0 33.0 100.0 14.0 505.0 196.0 14.0 84.651120 109.523250 155.0 44.0 24.452080 0.16250 42.650 86.70 129.11250 1.79030 6.0440 21.340 -0.000040 0.004580 1.79020 0.164280 -0.1990 -0.54650
7.34 7.339990 0.0 43.150 9.9320 0.0960 0.1040 1.0 33.0 100.0 14.666670 503.750 196.0 14.666670 84.286010 109.523210 155.0 44.0 24.451980 0.150 42.20 87.20 129.150 1.79030 6.0440 21.340 -0.000070 0.004570 1.79020 0.164670 -0.19870 -0.54650
7.35 7.348260 0.0 43.20 9.9280 0.0960 0.1040 1.0 33.0 100.0 15.333330 502.50 196.0 15.333330 83.920890 109.523180 155.0 44.0 24.451880 0.13750 41.750 87.70 129.18750 1.79030 6.0440 21.340 -0.000090 0.004560 1.79020 0.165060 -0.19840 -0.54650
7.36 7.356530 0.0 43.250 9.9240 0.0960 0.1040 1.0 33.0 100.0 16.0 501.250 196.0 16.0 83.555770 109.523140 155.0 44.0 24.451790 0.1250 41.30 88.20 129.2250 1.79030 6.0440 21.340 -0.000110 0.004540 1.79020 0.165440 -0.19810 -0.54650
7.37 7.36480 0.0 43.30 9.920 0.0960 0.1040 1.0 33.0 100.0 15.250 500.0 196.0 15.250 83.190650 109.52310 155.0 44.0 24.451690 0.11250 40.850 88.70 129.26250 1.79030 6.0440 21.340 -0.000130 0.004530 1.79020 0.165830 -0.19780 -0.54650
7.38 7.382130 0.0 43.40 9.9340 0.0960 0.1040 1.0 33.0 100.0 14.50 500.0 196.0 14.50 82.825540 109.523060 155.0 44.0 24.451590 0.10 40.40 89.20 129.30 1.79030 6.0440 21.340 -0.000160 0.004520 1.79020 0.166220 -0.19750 -0.54650
7.39 7.39040 0.0 43.450 9.9480 0.0960 0.1040 1.0 33.0 100.0 13.750 500.0 196.0 13.750 82.460420 109.523030 155.0 44.0 24.451490 0.11250 39.90 89.81250 129.43750 1.79030 6.044130 21.33750 -0.000180 0.004510 1.79020 0.166610 -0.19720 -0.54650
7.40 7.398670 0.0 43.50 9.9620 0.0960 0.1040 1.0 33.0 100.0 13.0 500.0 196.0 13.0 82.09530 109.522990 155.0 44.0 24.45140 0.1250 39.40 90.4250 129.5750 1.79030 6.044250 21.3350 -0.00020 0.00450 1.79020 0.1670 -0.19690 -0.54650
7.41 7.406940 0.0 43.550 9.9760 0.0960 0.1040 1.0 33.0 100.0 12.250 500.0 196.0 12.250 81.730180 109.522950 155.0 44.0 24.45130 0.13750 38.90 91.03750 129.71250 1.79030 6.044380 21.33250 -0.000240 0.004460 1.79020 0.166710 -0.197080 -0.546430
