~VERSION INFORMATION SECTION
VERS. 2.0 : CWLS LAS-VERSION 2.0
WRAP. NO : One line per depth step
~WELL INFORMATION SECTION
# MNEM.UNIT VALUE/NAME DESCRIPTION
#-------- -------------- ---------------------
STRT.Metres 23 : Start
STOP.Metres -2.05 : Stop
STEP.Metres -0.01 : Step
NULL.  -999.25 :NULL VALUE
DATE. 2026-45-09 : DATE
~CURVE INFORMATION SECTION
DEPTH.Metres : 0 Depth
Depth. : 1 Depth
Tension. : 2 Tension
Time. : 3 Time
Speed. : 4 Speed
Voltage. : 5 Voltage
Current. : 6 Current
WET. : 7 WET
Sig. : 8 Sig
Vth. : 9 Vth
GR.CPS : 10 GR
Timebase.ms : 11 Timebase
HeadVoltage.V : 12 Head Voltage
API.API : 13 API
Conductivity.uS : 14 Conductivity
PT100.Ohms : 15 PT100
Vmon.mV : 16 Vmon
Status. : 17 Status
Temperature.C : 18 Temperature
Incline.Deg : 19 Incline
Azimuth.Deg : 20 Azimuth
RelativeBearing.Deg : 21 Relative Bearing
MagneticToolFace.Deg : 22 Magnetic Tool Face
GravityMagnitude.G : 23 Gravity Magnitude
MagnetometerMagnitude.H : 24 Magnetometer Magnitude
Temperature.C : 25 Temperature
GX. : 26 GX
GY. : 27 GY
GZ. : 28 GZ
HX. : 29 HX
HY. : 30 HY
HZ. : 31 HZ
~PARAMETER INFORMATION SECTION
~OTHER
#-------------------------------------------------
#Produced By: GeoVista Logger - Version 7.1.107.0
Verticality Sonde - 9605
Temperature and Conductivity Sonde - Inline - 8974
Natural Gamma Sonde - 9931
WLIS - 10021
#-------------------------------------------------
~ASCII LOG DATA
# ...
2.33 2.348610 0.0 92.80 15.020 0.0960 0.1020 1.0 43.0 200.0 40.380090 500.769230 197.0 40.380090 1715.076920 890695.0 154.153850 42.0 841597584.652390 0.0 0.0 0.0 0.0 0.0 0.0 0.0 -3.27680 -3.27680 -3.27680 -3.27680 -3.27680 -3.27680
2.32 2.340210 0.0 92.833330 15.0140 0.0960 0.1020 1.0 43.0 200.0 39.98190 500.0 197.0 39.98190 1715.230770 890694.833330 154.230770 42.0 841597270.083870 0.0 0.0 0.0 0.0 0.0 0.0 0.0 -3.27680 -3.27680 -3.27680 -3.27680 -3.27680 -3.27680
2.31 2.331810 0.0 92.866670 15.0080 0.0960 0.1020 1.0 43.0 200.0 39.583710 500.0 197.0 39.583710 1715.384620 890694.666670 154.307690 42.0 841596955.515340 0.0 0.0 0.0 0.0 0.0 0.0 0.0 -3.27680 -3.27680 -3.27680 -3.27680 -3.27680 -3.27680
2.30 2.323410 0.0 92.90 15.0020 0.0960 0.1020 1.0 43.0 200.0 39.185520 500.0 197.0 39.185520 1715.538460 890694.50 154.384620 42.0 841596640.946820 0.0 0.0 0.0 0.0 0.0 0.0 0.0 -3.27680 -3.27680 -3.27680 -3.27680 -3.27680 -3.27680
2.29 2.31080 0.0 92.950 14.9960 0.0960 0.1020 1.0 43.0 200.0 38.787330 500.0 197.0 38.787330 1715.692310 890694.333330 154.461540 42.0 841596326.37830 0.0 0.0 0.0 0.0 0.0 0.0 0.0 -3.27680 -3.27680 -3.27680 -3.27680 -3.27680 -3.27680
2.28 2.29820 0.0 93.0 14.990 0.0960 0.1020 1.0 43.0 200.0 38.389140 500.0 197.0 38.389140 1715.846150 890694.166670 154.538460 42.0 841596011.809780 0.0 0.0 0.0 0.0 0.0 0.0 0.0 -3.27680 -3.27680 -3.27680 -3.27680 -3.27680 -3.27680
2.27 2.290060 0.0 93.033330 14.9840 0.0960 0.1020 1.0 43.0 200.0 37.990950 500.0 197.0 37.990950 1716.0 890694.0 154.615380 42.0 841595697.241250 0.0 0.0 0.0 0.0 0.0 0.0 0.0 -3.27680 -3.27680 -3.27680 -3.27680 -3.27680 -3.27680
2.26 2.281930 0.0 93.066670 14.9780 0.0960 0.1020 1.0 43.0 200.0 37.592760 500.0 197.0 37.592760 1714.50 890693.461540 154.692310 42.0 841594680.948080 0.0 0.0 0.0 0.0 0.0 0.0 0.0 -3.27680 -3.27680 -3.27680 -3.27680 -3.27680 -3.27680
2.25 2.273790 0.0 93.10 14.9720 0.0960 0.1020 1.0 43.0 200.0 37.194570 500.0 197.0 37.194570 1713.0 890692.923080 154.769230 42.0 841593664.65490 0.0 0.0 0.0 0.0 0.0 0.0 0.0 -3.27680 -3.27680 -3.27680 -3.27680 -3.27680 -3.27680
2.24 2.261190 0.0 93.150 14.9660 0.0960 0.1020 1.0 43.0 200.0 36.796380 500.0 197.0 36.796380 1711.50 890692.384620 154.846150 42.0 841592648.361730 0.0 0.0 0.0 0.0 0.0 0.0 0.0 -3.27680 -3.27680 -3.27680 -3.27680 -3.27680 -3.27680
2.23 2.248580 0.0 93.20 14.960 0.0960 0.1020 1.0 43.0 200.0 36.398190 500.0 197.0 36.398190 1710.0 890691.846150 154.923080 42.0 841591632.068550 0.0 0.0 0.0 0.0 0.0 0.0 0.0 -3.27680 -3.27680 -3.27680 -3.27680 -3.27680 -3.27680
2.22 2.240180 0.0 93.233330 14.9540 0.0960 0.1020 1.0 43.0 200.0 36.0 500.0 197.0 36.0 1708.50 890691.307690 155.0 42.0 841590615.775380 0.0 0.0 0.0 0.0 0.0 0.0 0.0 -3.27680 -3.27680 -3.27680 -3.27680 -3.27680 -3.27680
2.21 2.231780 0.0 93.266670 14.9480 0.0960 0.1020 1.0 43.0 200.0 36.333330 500.0 197.0 36.333330 1707.0 890690.769230 155.0 42.0 841589599.482210 0.0 0.0 0.0 0.0 0.0 0.0 0.0 -3.27680 -3.27680 -3.27680 -3.27680 -3.27680 -3.27680
2.20 2.223380 0.0 93.30 14.9420 0.0960 0.1020 1.0 43.0 200.0 36.666670 500.0 197.0 36.666670 1705.50 890690.230770 155.0 42.0 841588583.189030 0.0 0.0 0.0 0.0 0.0 0.0 0.0 -3.27680 -3.27680 -3.27680 -3.27680 -3.27680 -3.27680
2.19 2.211170 0.0 93.350 14.9360 0.0960 0.1020 1.0 43.0 200.0 37.0 500.0 197.0 37.0 1704.0 890689.692310 155.0 42.0 841587566.895860 0.0 0.0 0.0 0.0 0.0 0.0 0.0 -3.27680 -3.27680 -3.27680 -3.27680 -3.27680 -3.27680
2.18 2.198970 0.0 93.40 14.930 0.0960 0.1020 1.0 43.0 200.0 37.333330 500.0 197.0 37.333330 1702.50 890689.153850 155.0 42.0 841586550.602680 0.0 0.0 0.0 0.0 0.0 0.0 0.0 -3.27680 -3.27680 -3.27680 -3.27680 -3.27680 -3.27680
2.17 2.190560 0.0 93.433330 14.932670 0.0960 0.1020 1.0 43.0 200.0 37.666670 500.0 197.0 37.666670 1701.0 890688.615380 155.0 42.0 841585534.309510 0.0 0.0 0.0 0.0 0.0 0.0 0.0 -3.27680 -3.27680 -3.27680 -3.27680 -3.27680 -3.27680
2.16 2.182160 0.0 93.466670 14.935330 0.0960 0.1020 1.0 43.0 200.0 38.0 500.0 197.0 38.0 1699.50 890688.076920 155.0 42.0 841584518.016330 0.0 0.0 0.0 0.0 0.0 0.0 0.0 -3.27680 -3.27680 -3.27680 -3.27680 -3.27680 -3.27680
2.15 2.173760 0.0 93.50 14.9380 0.0960 0.1020 1.0 43.0 200.0 38.333330 500.0 197.0 38.333330 1698.0 890687.538460 155.0 42.0 841583501.723160 0.0 0.0 0.0 0.0 0.0 0.0 0.0 -3.27680 -3.27680 -3.27680 -3.27680 -3.27680 -3.27680
2.14 2.161160 0.0 93.550 14.940670 0.0960 0.1020 1.0 43.0 200.0 38.666670 500.0 197.0 38.666670 1699.153850 890687.0 155.0 42.0 841582485.429980 0.0 0.0 0.0 0.0 0.0 0.0 0.0 -3.27680 -3.27680 -3.27680 -3.27680 -3.27680 -3.27680
2.13 2.148560 0.0 93.60 14.943330 0.0960 0.1020 1.0 43.0 200.0 39.0 500.0 197.0 39.0 1700.307690 890686.916670 155.0 42.0 841582328.147220 0.0 0.0 0.0 0.0 0.0 0.0 0.0 -3.27680 -3.27680 -3.27680 -3.27680 -3.27680 -3.27680
2.12 2.140160 0.0 93.633330 14.9460 0.0960 0.1020 1.0 43.0 200.0 39.333330 500.0 197.0 39.333330 1701.461540 890686.833330 155.0 42.0 841582170.864460 0.0 0.0 0.0 0.0 0.0 0.0 0.0 -3.27680 -3.27680 -3.27680 -3.27680 -3.27680 -3.27680
2.11 2.131760 0.0 93.666670 14.948670 0.0960 0.1020 1.0 43.0 200.0 39.666670 500.0 197.0 39.666670 1702.615380 890686.750 155.0 42.0 841582013.58170 0.0 0.0 0.0 0.0 0.0 0.0 0.0 -3.27680 -3.27680 -3.27680 -3.27680 -3.27680 -3.27680
2.10 2.123360 0.0 93.70 14.951330 0.0960 0.1020 1.0 43.0 200.0 40.0 500.0 197.0 40.0 1703.769230 890686.666670 155.0 42.0 841581856.298930 0.0 0.0 0.0 0.0 0.0 0.0 0.0 -3.27680 -3.27680 -3.27680 -3.27680 -3.27680 -3.27680
2.09 2.111150 0.0 93.750 14.9540 0.0960 0.1020 1.0 43.0 200.0 40.615380 500.0 197.0 40.615380 1704.923080 890686.583330 155.0 42.0 841581699.016170 0.0 0.0 0.0 0.0 0.0 0.0 0.0 -3.27680 -3.27680 -3.27680 -3.27680 -3.27680 -3.27680
2.08 2.098940 0.0 93.80 14.956670 0.0960 0.1020 1.0 43.0 200.0 41.230770 500.0 197.0 41.230770 1706.076920 890686.50 155.0 42.0 841581541.733410 0.0 0.0 0.0 0.0 0.0 0.0 0.0 -3.27680 -3.27680 -3.27680 -3.27680 -3.27680 -3.27680
2.07 2.090540 0.0 93.833330 14.959330 0.0960 0.101330 1.0 43.0 200.0 41.846150 500.0 197.0 41.846150 1707.230770 890686.416670 155.0 42.0 841581384.450650 0.0 0.0 0.0 0.0 0.0 0.0 0.0 -3.27680 -3.27680 -3.27680 -3.27680 -3.27680 -3.27680
2.06 2.082140 0.0 93.866670 14.9620 0.0960 0.100670 1.0 43.0 200.0 42.461540 500.0 197.0 42.461540 1708.384620 890686.333330 155.0 42.0 841581227.167890 0.0 0.0 0.0 0.0 0.0 0.0 0.0 -3.27680 -3.27680 -3.27680 -3.27680 -3.27680 -3.27680
2.05 2.073740 0.0 93.90 14.964670 0.0960 0.10 1.0 43.0 200.0 43.076920 500.0 197.0 43.076920 1709.538460 890686.250 155.0 42.0 841581069.885120 0.0 0.0 0.0 0.0 0.0 0.0 0.0 -3.27680 -3.27680 -3.27680 -3.27680 -3.27680 -3.27680
2.04 2.061140 0.0 93.950 14.967330 0.0960 0.1010 1.0 43.0 200.0 43.692310 500.0 197.0 43.692310 1710.692310 890686.166670 155.0 42.0 841580912.602360 0.0 0.0 0.0 0.0 0.0 0.0 0.0 -3.27680 -3.27680 -3.27680 -3.27680 -3.27680 -3.27680
2.03 2.048530 0.0 94.0 14.970 0.0960 0.1020 1.0 43.0 200.0 44.307690 500.0 197.0 44.307690 1711.846150 890686.083330 155.0 42.0 841580755.31960 0.0 0.0 0.0 0.0 0.0 0.0 0.0 -3.27680 -3.27680 -3.27680 -3.27680 -3.27680 -3.27680
2.02 2.040130 0.0 94.033330 14.977690 0.0960 0.1020 1.0 43.0 200.0 44.923080 500.0 197.0 44.923080 1713.0 890686.0 155.0 42.0 841580598.036840 0.0 0.0 0.0 0.0 0.0 0.0 0.0 -3.27680 -3.27680 -3.27680 -3.27680 -3.27680 -3.27680
2.01 2.031730 0.0 94.066670 14.985380 0.0960 0.1020 1.0 43.0 200.0 45.538460 500.0 197.0 45.538460 1712.750 890685.692310 155.0 42.0 841580017.302110 0.0 0.0 0.0 0.0 0.0 0.0 0.0 -3.27680 -3.27680 -3.27680 -3.27680 -3.27680 -3.27680
2.00 2.023330 0.0 94.10 14.993080 0.0960 0.1020 1.0 43.0 200.0 46.153850 500.0 197.0 46.153850 1712.50 890685.384620 155.0 42.0 841579436.567390 0.0 0.0 0.0 0.0 0.0 0.0 0.0 -3.27680 -3.27680 -3.27680 -3.27680 -3.27680 -3.27680
1.99 2.010730 0.0 94.150 15.000770 0.0960 0.1020 1.0 43.0 200.0 46.769230 500.0 197.0 46.769230 1712.250 890685.076920 155.0 42.0 841578855.832670 0.0 0.0 0.0 0.0 0.0 0.0 0.0 -3.27680 -3.27680 -3.27680 -3.27680 -3.27680 -3.27680
1.98 1.998130 0.0 94.20 15.008460 0.0960 0.1020 1.0 43.0 200.0 47.384620 500.0 197.0 47.384620 1712.0 890684.769230 155.0 42.0 841578275.097940 0.0 0.0 0.0 0.0 0.0 0.0 0.0 -3.27680 -3.27680 -3.27680 -3.27680 -3.27680 -3.27680
