~VERSION INFORMATION SECTION
VERS. 2.0 : CWLS LAS-VERSION 2.0
WRAP. NO : One line per depth step
~WELL INFORMATION SECTION
# MNEM.UNIT VALUE/NAME DESCRIPTION
#-------- -------------- ---------------------
STRT.Metres 26 : Start
STOP.Metres -2.05 : Stop
STEP.Metres -0.01 : Step
NULL.  -999.25 :NULL VALUE
DATE. 2026-29-09 : DATE
~CURVE INFORMATION SECTION
DEPTH.Metres : 0 Depth
Depth. : 1 Depth
Tension. : 2 Tension
Time. : 3 Time
Speed. : 4 Speed
Voltage. : 5 Voltage
Current. : 6 Current
WET. : 7 WET
Sig. : 8 Sig
Vth. : 9 Vth
GR.CPS : 10 GR
Timebase.ms : 11 Timebase
HeadVoltage.V : 12 Head Voltage
API.API : 13 API
Conductivity.uS : 14 Conductivity
PT100.Ohms : 15 PT100
Vmon.mV : 16 Vmon
Status. : 17 Status
Temperature.C : 18 Temperature
Incline.Deg : 19 Incline
Azimuth.Deg : 20 Azimuth
RelativeBearing.Deg : 21 Relative Bearing
MagneticToolFace.Deg : 22 Magnetic Tool Face
GravityMagnitude.G : 23 Gravity Magnitude
MagnetometerMagnitude.H : 24 Magnetometer Magnitude
Temperature.C : 25 Temperature
GX. : 26 GX
GY. : 27 GY
GZ. : 28 GZ
HX. : 29 HX
HY. : 30 HY
HZ. : 31 HZ
~PARAMETER INFORMATION SECTION
~OTHER
#-------------------------------------------------
#Produced By: GeoVista Logger - Version 7.1.107.0
Verticality Sonde - 9605
Temperature and Conductivity Sonde - Inline - 8974
Natural Gamma Sonde - 9931
WLIS - 10021
#-------------------------------------------------
~ASCII LOG DATA
# ...
2.63 2.649470 0.0 192.250 14.990 0.0960 0.1020 1.0 41.0 200.0 37.384620 500.0 197.0 37.384620 1713.076920 890748.333330 159.0 43.0 841698249.589060 0.0 0.0 0.0 0.0 0.0 0.0 0.0 -3.27680 -3.27680 -3.27680 -3.27680 -3.27680 -3.27680
2.62 2.636870 0.0 192.30 14.986670 0.0960 0.1020 1.0 41.0 200.0 36.615380 500.0 197.0 36.615380 1710.538460 890748.166670 159.0 43.0 841697935.001490 0.0 0.0 0.0 0.0 0.0 0.0 0.0 -3.27680 -3.27680 -3.27680 -3.27680 -3.27680 -3.27680
2.61 2.628470 0.0 192.333330 14.983330 0.0960 0.1020 1.0 41.0 200.0 35.846150 500.0 197.0 35.846150 1708.0 890748.0 159.0 43.0 841697620.413920 0.0 0.0 0.0 0.0 0.0 0.0 0.0 -3.27680 -3.27680 -3.27680 -3.27680 -3.27680 -3.27680
2.60 2.620070 0.0 192.366670 14.980 0.0960 0.1020 1.0 41.0 200.0 35.076920 500.0 197.0 35.076920 1711.916670 890748.0 159.0 43.0 841697620.413920 0.0 0.0 0.0 0.0 0.0 0.0 0.0 -3.27680 -3.27680 -3.27680 -3.27680 -3.27680 -3.27680
2.59 2.611670 0.0 192.40 14.976670 0.0960 0.1020 1.0 41.0 200.0 34.307690 500.0 197.0 34.307690 1715.833330 890748.0 159.0 43.0 841697620.413920 0.0 0.0 0.0 0.0 0.0 0.0 0.0 -3.27680 -3.27680 -3.27680 -3.27680 -3.27680 -3.27680
2.58 2.599060 0.0 192.450 14.973330 0.0960 0.1020 1.0 41.0 200.0 33.538460 500.0 197.0 33.538460 1719.750 890748.0 159.0 43.0 841697620.413920 0.0 0.0 0.0 0.0 0.0 0.0 0.0 -3.27680 -3.27680 -3.27680 -3.27680 -3.27680 -3.27680
2.57 2.586460 0.0 192.50 14.970 0.0960 0.1020 1.0 41.0 200.0 32.769230 500.0 197.0 32.769230 1723.666670 890748.0 159.0 43.0 841697620.413920 0.0 0.0 0.0 0.0 0.0 0.0 0.0 -3.27680 -3.27680 -3.27680 -3.27680 -3.27680 -3.27680
2.56 2.578060 0.0 192.533330 14.973330 0.0960 0.1020 1.0 41.0 200.0 32.0 500.0 197.0 32.0 1727.583330 890748.0 159.0 43.0 841697620.413920 0.0 0.0 0.0 0.0 0.0 0.0 0.0 -3.27680 -3.27680 -3.27680 -3.27680 -3.27680 -3.27680
2.55 2.569660 0.0 192.566670 14.976670 0.0960 0.1020 1.0 41.0 200.0 32.666670 500.0 197.0 32.666670 1731.50 890748.0 159.0 43.0 841697620.413920 0.0 0.0 0.0 0.0 0.0 0.0 0.0 -3.27680 -3.27680 -3.27680 -3.27680 -3.27680 -3.27680
2.54 2.561260 0.0 192.60 14.980 0.0960 0.1020 1.0 41.0 200.0 33.333330 500.0 197.0 33.333330 1735.416670 890748.0 159.0 43.0 841697620.413920 0.0 0.0 0.0 0.0 0.0 0.0 0.0 -3.27680 -3.27680 -3.27680 -3.27680 -3.27680 -3.27680
2.53 2.548660 0.0 192.650 14.983330 0.0960 0.1020 1.0 41.0 200.0 34.0 500.0 197.0 34.0 1739.333330 890748.0 159.0 43.0 841697620.413920 0.0 0.0 0.0 0.0 0.0 0.0 0.0 -3.27680 -3.27680 -3.27680 -3.27680 -3.27680 -3.27680
2.52 2.536060 0.0 192.70 14.986670 0.0960 0.1020 1.0 41.0 200.0 34.666670 500.0 197.0 34.666670 1743.250 890748.0 159.0 43.0 841697620.413920 0.0 0.0 0.0 0.0 0.0 0.0 0.0 -3.27680 -3.27680 -3.27680 -3.27680 -3.27680 -3.27680
2.51 2.527920 0.0 192.733330 14.990 0.0960 0.1020 1.0 41.0 200.0 35.333330 500.0 197.0 35.333330 1747.166670 890748.0 159.0 43.0 841697620.413920 0.0 0.0 0.0 0.0 0.0 0.0 0.0 -3.27680 -3.27680 -3.27680 -3.27680 -3.27680 -3.27680
2.50 2.519780 0.0 192.766670 14.993330 0.0960 0.1020 1.0 41.0 200.0 36.0 500.0 197.0 36.0 1751.083330 890748.0 159.0 43.0 841697620.413920 0.0 0.0 0.0 0.0 0.0 0.0 0.0 -3.27680 -3.27680 -3.27680 -3.27680 -3.27680 -3.27680
2.49 2.511640 0.0 192.80 14.996670 0.0960 0.1020 1.0 41.0 200.0 36.666670 500.0 197.0 36.666670 1755.0 890748.0 159.0 43.0 841697620.413920 0.0 0.0 0.0 0.0 0.0 0.0 0.0 -3.27680 -3.27680 -3.27680 -3.27680 -3.27680 -3.27680
2.48 2.499040 0.0 192.850 15.0 0.0960 0.1020 1.0 41.0 200.0 37.333330 500.0 197.0 37.333330 1754.153850 890748.0 159.0 43.0 841697620.413920 0.0 0.0 0.0 0.0 0.0 0.0 0.0 -3.27680 -3.27680 -3.27680 -3.27680 -3.27680 -3.27680
2.47 2.486440 0.0 192.90 15.003330 0.0960 0.1020 1.0 41.0 200.0 38.0 500.0 197.0 38.0 1753.307690 890747.916670 159.0 43.0 841697463.120390 0.0 0.0 0.0 0.0 0.0 0.0 0.0 -3.27680 -3.27680 -3.27680 -3.27680 -3.27680 -3.27680
2.46 2.478040 0.0 192.933330 15.006670 0.0960 0.1020 1.0 41.0 200.0 38.666670 500.0 197.0 38.666670 1752.461540 890747.833330 159.0 43.0 841697305.826870 0.0 0.0 0.0 0.0 0.0 0.0 0.0 -3.27680 -3.27680 -3.27680 -3.27680 -3.27680 -3.27680
2.45 2.469640 0.0 192.966670 15.010 0.0960 0.1020 1.0 41.0 200.0 39.333330 500.0 197.0 39.333330 1751.615380 890747.750 159.0 43.0 841697148.533350 0.0 0.0 0.0 0.0 0.0 0.0 0.0 -3.27680 -3.27680 -3.27680 -3.27680 -3.27680 -3.27680
2.44 2.461230 0.0 193.0 15.013330 0.0960 0.1020 1.0 41.0 200.0 40.0 500.0 197.0 40.0 1750.769230 890747.666670 159.0 43.0 841696991.239830 0.0 0.0 0.0 0.0 0.0 0.0 0.0 -3.27680 -3.27680 -3.27680 -3.27680 -3.27680 -3.27680
2.43 2.449030 0.0 193.050 15.016670 0.0960 0.1020 1.0 41.0 200.0 40.923080 500.0 197.0 40.923080 1749.923080 890747.583330 159.0 43.0 841696833.946310 0.0 0.0 0.0 0.0 0.0 0.0 0.0 -3.27680 -3.27680 -3.27680 -3.27680 -3.27680 -3.27680
2.42 2.436820 0.0 193.10 15.020 0.0960 0.1020 1.0 41.0 200.0 41.846150 500.0 197.0 41.846150 1749.076920 890747.50 159.0 43.0 841696676.652790 0.0 0.0 0.0 0.0 0.0 0.0 0.0 -3.27680 -3.27680 -3.27680 -3.27680 -3.27680 -3.27680
2.41 2.428420 0.0 193.133330 15.016670 0.0960 0.1020 1.0 41.0 200.0 42.769230 500.0 197.0 42.769230 1748.230770 890747.416670 159.0 43.0 841696519.359270 0.0 0.0 0.0 0.0 0.0 0.0 0.0 -3.27680 -3.27680 -3.27680 -3.27680 -3.27680 -3.27680
2.40 2.420020 0.0 193.166670 15.013330 0.0960 0.1020 1.0 41.0 200.0 43.692310 500.0 197.0 43.692310 1747.384620 890747.333330 159.0 43.0 841696362.065750 0.0 0.0 0.0 0.0 0.0 0.0 0.0 -3.27680 -3.27680 -3.27680 -3.27680 -3.27680 -3.27680
2.39 2.411620 0.0 193.20 15.010 0.0960 0.1020 1.0 41.0 200.0 44.615380 500.0 197.0 44.615380 1746.538460 890747.250 159.0 43.0 841696204.772230 0.0 0.0 0.0 0.0 0.0 0.0 0.0 -3.27680 -3.27680 -3.27680 -3.27680 -3.27680 -3.27680
2.38 2.399410 0.0 193.250 15.006670 0.0960 0.1020 1.0 41.0 200.0 45.538460 500.0 197.0 45.538460 1745.692310 890747.166670 159.0 43.0 841696047.478710 0.0 0.0 0.0 0.0 0.0 0.0 0.0 -3.27680 -3.27680 -3.27680 -3.27680 -3.27680 -3.27680
2.37 2.38720 0.0 193.30 15.003330 0.0960 0.1020 1.0 41.0 200.0 46.461540 500.0 197.0 46.461540 1744.846150 890747.083330 159.0 43.0 841695890.185190 0.0 0.0 0.0 0.0 0.0 0.0 0.0 -3.27680 -3.27680 -3.27680 -3.27680 -3.27680 -3.27680
2.36 2.37880 0.0 193.333330 15.0 0.0960 0.1020 1.0 41.0 200.0 47.384620 500.0 197.0 47.384620 1744.0 890747.0 159.0 43.0 841695732.891670 0.0 0.0 0.0 0.0 0.0 0.0 0.0 -3.27680 -3.27680 -3.27680 -3.27680 -3.27680 -3.27680
2.35 2.37040 0.0 193.366670 14.996670 0.0960 0.1020 1.0 41.0 200.0 48.307690 500.0 197.0 48.307690 1742.083330 890746.692310 159.0 43.0 841695152.117220 0.0 0.0 0.0 0.0 0.0 0.0 0.0 -3.27680 -3.27680 -3.27680 -3.27680 -3.27680 -3.27680
2.34 2.3620 0.0 193.40 14.993330 0.0960 0.1020 1.0 41.0 200.0 49.230770 500.0 197.0 49.230770 1740.166670 890746.384620 159.0 43.0 841694571.342780 0.0 0.0 0.0 0.0 0.0 0.0 0.0 -3.27680 -3.27680 -3.27680 -3.27680 -3.27680 -3.27680
2.33 2.34940 0.0 193.450 14.990 0.0960 0.1020 1.0 41.0 200.0 50.153850 500.0 197.0 50.153850 1738.250 890746.076920 159.0 43.0 841693990.568330 0.0 0.0 0.0 0.0 0.0 0.0 0.0 -3.27680 -3.27680 -3.27680 -3.27680 -3.27680 -3.27680
2.32 2.336790 0.0 193.50 14.986670 0.0960 0.1020 1.0 41.0 200.0 51.076920 500.0 197.0 51.076920 1736.333330 890745.769230 159.0 43.0 841693409.793880 0.0 0.0 0.0 0.0 0.0 0.0 0.0 -3.27680 -3.27680 -3.27680 -3.27680 -3.27680 -3.27680
2.31 2.328660 0.0 193.533330 14.983330 0.0960 0.1020 1.0 41.0 200.0 52.0 500.0 197.0 52.0 1734.416670 890745.461540 159.0 43.0 841692829.019430 0.0 0.0 0.0 0.0 0.0 0.0 0.0 -3.27680 -3.27680 -3.27680 -3.27680 -3.27680 -3.27680
2.30 2.320520 0.0 193.566670 14.980 0.0960 0.1020 1.0 41.0 200.0 51.50 500.0 197.0 51.50 1732.50 890745.153850 159.0 43.0 841692248.244990 0.0 0.0 0.0 0.0 0.0 0.0 0.0 -3.27680 -3.27680 -3.27680 -3.27680 -3.27680 -3.27680
2.29 2.312380 0.0 193.60 14.976670 0.0960 0.1020 1.0 41.0 200.0 51.0 500.0 197.0 51.0 1730.583330 890744.846150 159.0 43.0 841691667.470540 0.0 0.0 0.0 0.0 0.0 0.0 0.0 -3.27680 -3.27680 -3.27680 -3.27680 -3.27680 -3.27680
2.28 2.299780 0.0 193.650 14.973330 0.0960 0.1020 1.0 41.0 200.0 50.50 500.769230 197.0 50.50 1728.666670 890744.538460 159.0 43.0 841691086.696090 0.0 0.0 0.0 0.0 0.0 0.0 0.0 -3.27680 -3.27680 -3.27680 -3.27680 -3.27680 -3.27680
