~VERSION INFORMATION SECTION
VERS. 2.0 : CWLS LAS-VERSION 2.0
WRAP. NO : One line per depth step
~WELL INFORMATION SECTION
# MNEM.UNIT VALUE/NAME DESCRIPTION
#-------- -------------- ---------------------
STRT.Metres 26 : Start
STOP.Metres -2.05 : Stop
STEP.Metres -0.01 : Step
NULL.  -999.25 :NULL VALUE
DATE. 2026-23-09 : DATE
~CURVE INFORMATION SECTION
DEPTH.Metres : 0 Depth
Depth. : 1 Depth
Tension. : 2 Tension
Time. : 3 Time
Speed. : 4 Speed
Voltage. : 5 Voltage
Current. : 6 Current
WET. : 7 WET
Sig. : 8 Sig
Vth. : 9 Vth
GR.CPS : 10 GR
Timebase.ms : 11 Timebase
HeadVoltage.V : 12 Head Voltage
API.API : 13 API
Conductivity.uS : 14 Conductivity
PT100.Ohms : 15 PT100
Vmon.mV : 16 Vmon
Status. : 17 Status
Temperature.C : 18 Temperature
Incline.Deg : 19 Incline
Azimuth.Deg : 20 Azimuth
RelativeBearing.Deg : 21 Relative Bearing
MagneticToolFace.Deg : 22 Magnetic Tool Face
GravityMagnitude.G : 23 Gravity Magnitude
MagnetometerMagnitude.H : 24 Magnetometer Magnitude
Temperature.C : 25 Temperature
GX. : 26 GX
GY. : 27 GY
GZ. : 28 GZ
HX. : 29 HX
HY. : 30 HY
HZ. : 31 HZ
~PARAMETER INFORMATION SECTION
~OTHER
#-------------------------------------------------
#Produced By: GeoVista Logger - Version 7.1.107.0
Verticality Sonde - 9605
Temperature and Conductivity Sonde - Inline - 8974
Natural Gamma Sonde - 9931
WLIS - 10021
#-------------------------------------------------
~ASCII LOG DATA
# ...
5.69 5.712430 0.0 92.650 14.9540 0.0960 0.1020 1.0 43.0 200.0 29.230770 500.0 197.0 29.230770 1793.0 890642.416670 159.0 43.0 841498341.251930 0.0 0.0 0.0 0.0 0.0 0.0 0.0 -3.27680 -3.27680 -3.27680 -3.27680 -3.27680 -3.27680
5.68 5.699830 0.0 92.70 14.956670 0.0960 0.1020 1.0 43.0 200.0 28.461540 500.0 197.0 28.461540 1793.0 890643.50 159.0 43.0 841500385.829250 0.0 0.0 0.0 0.0 0.0 0.0 0.0 -3.27680 -3.27680 -3.27680 -3.27680 -3.27680 -3.27680
5.67 5.691420 0.0 92.733330 14.959330 0.0960 0.1020 1.0 43.0 200.0 27.692310 500.0 197.0 27.692310 1793.0 890644.583330 159.0 43.0 841502430.406570 0.0 0.0 0.0 0.0 0.0 0.0 0.0 -3.27680 -3.27680 -3.27680 -3.27680 -3.27680 -3.27680
5.66 5.683020 0.0 92.766670 14.9620 0.0960 0.1020 1.0 43.0 200.0 26.923080 500.0 197.0 26.923080 1793.0 890645.666670 159.0 43.0 841504474.983880 0.0 0.0 0.0 0.0 0.0 0.0 0.0 -3.27680 -3.27680 -3.27680 -3.27680 -3.27680 -3.27680
5.65 5.674620 0.0 92.80 14.964670 0.0960 0.1020 1.0 43.0 200.0 26.153850 500.0 197.0 26.153850 1793.0 890646.750 159.0 43.0 841506519.56120 0.0 0.0 0.0 0.0 0.0 0.0 0.0 -3.27680 -3.27680 -3.27680 -3.27680 -3.27680 -3.27680
5.64 5.662020 0.0 92.850 14.967330 0.0960 0.1020 1.0 43.0 200.0 25.384620 500.0 197.0 25.384620 1793.0 890647.833330 159.0 43.0 841508564.138520 0.0 0.0 0.0 0.0 0.0 0.0 0.0 -3.27680 -3.27680 -3.27680 -3.27680 -3.27680 -3.27680
5.63 5.649420 0.0 92.90 14.970 0.0960 0.1020 1.0 43.0 200.0 24.615380 500.0 197.0 24.615380 1793.0 890648.916670 159.0 43.0 841510608.715840 0.0 0.0 0.0 0.0 0.0 0.0 0.0 -3.27680 -3.27680 -3.27680 -3.27680 -3.27680 -3.27680
5.62 5.641280 0.0 92.933330 14.973330 0.0960 0.1020 1.0 43.0 200.0 23.846150 500.0 197.0 23.846150 1793.0 890650.0 159.0 43.0 841512653.293150 0.0 0.0 0.0 0.0 0.0 0.0 0.0 -3.27680 -3.27680 -3.27680 -3.27680 -3.27680 -3.27680
5.61 5.633140 0.0 92.966670 14.976670 0.0960 0.1020 1.0 43.0 200.0 23.076920 500.0 197.0 23.076920 1793.0 890651.416670 159.0 43.0 841515327.016160 0.0 0.0 0.0 0.0 0.0 0.0 0.0 -3.27680 -3.27680 -3.27680 -3.27680 -3.27680 -3.27680
5.60 5.6250 0.0 93.0 14.980 0.0960 0.1020 1.0 43.0 200.0 22.307690 500.0 197.0 22.307690 1793.0 890652.833330 159.0 43.0 841518000.739160 0.0 0.0 0.0 0.0 0.0 0.0 0.0 -3.27680 -3.27680 -3.27680 -3.27680 -3.27680 -3.27680
5.59 5.612010 0.0 93.050 14.983330 0.0960 0.1020 1.0 43.0 200.0 21.538460 500.0 197.0 21.538460 1793.0 890654.250 159.0 43.0 841520674.462170 0.0 0.0 0.0 0.0 0.0 0.0 0.0 -3.27680 -3.27680 -3.27680 -3.27680 -3.27680 -3.27680
5.58 5.599010 0.0 93.10 14.986670 0.0960 0.1020 1.0 43.0 200.0 20.769230 500.0 197.0 20.769230 1793.0 890655.666670 159.0 43.0 841523348.185170 0.0 0.0 0.0 0.0 0.0 0.0 0.0 -3.27680 -3.27680 -3.27680 -3.27680 -3.27680 -3.27680
5.57 5.590870 0.0 93.133330 14.990 0.0960 0.1020 1.0 43.0 200.0 20.0 500.0 197.0 20.0 1793.0 890657.083330 159.0 43.0 841526021.908180 0.0 0.0 0.0 0.0 0.0 0.0 0.0 -3.27680 -3.27680 -3.27680 -3.27680 -3.27680 -3.27680
5.56 5.582740 0.0 93.166670 14.993330 0.0960 0.1020 1.0 43.0 200.0 20.333330 500.0 197.0 20.333330 1793.0 890658.50 159.0 43.0 841528695.631180 0.0 0.0 0.0 0.0 0.0 0.0 0.0 -3.27680 -3.27680 -3.27680 -3.27680 -3.27680 -3.27680
5.55 5.57460 0.0 93.20 14.996670 0.0960 0.1020 1.0 43.0 200.0 20.666670 500.0 197.0 20.666670 1793.0 890659.916670 159.0 43.0 841531369.354180 0.0 0.0 0.0 0.0 0.0 0.0 0.0 -3.27680 -3.27680 -3.27680 -3.27680 -3.27680 -3.27680
5.54 5.5620 0.0 93.250 15.0 0.0960 0.1020 1.0 43.0 200.0 21.0 500.0 197.0 21.0 1793.0 890661.333330 159.0 43.0 841534043.077190 0.0 0.0 0.0 0.0 0.0 0.0 0.0 -3.27680 -3.27680 -3.27680 -3.27680 -3.27680 -3.27680
5.53 5.549390 0.0 93.30 15.003330 0.0960 0.1020 1.0 43.0 200.0 21.333330 500.0 197.0 21.333330 1793.0 890662.750 159.0 43.0 841536716.800190 0.0 0.0 0.0 0.0 0.0 0.0 0.0 -3.27680 -3.27680 -3.27680 -3.27680 -3.27680 -3.27680
5.52 5.541260 0.0 93.333330 15.006670 0.0960 0.1020 1.0 43.083330 200.0 21.666670 500.0 197.0 21.666670 1793.0 890664.166670 159.0 43.0 841539390.52320 0.0 0.0 0.0 0.0 0.0 0.0 0.0 -3.27680 -3.27680 -3.27680 -3.27680 -3.27680 -3.27680
5.51 5.533120 0.0 93.366670 15.010 0.0960 0.1020 1.0 43.166670 200.0 22.0 500.0 197.0 22.0 1793.0 890665.583330 159.0 43.0 841542064.24620 0.0 0.0 0.0 0.0 0.0 0.0 0.0 -3.27680 -3.27680 -3.27680 -3.27680 -3.27680 -3.27680
5.50 5.524980 0.0 93.40 15.013330 0.0960 0.1020 1.0 43.250 200.0 22.333330 500.0 197.0 22.333330 1793.0 890667.0 159.0 43.0 841544737.969210 0.0 0.0 0.0 0.0 0.0 0.0 0.0 -3.27680 -3.27680 -3.27680 -3.27680 -3.27680 -3.27680
5.49 5.512380 0.0 93.450 15.016670 0.0960 0.1010 1.0 43.333330 200.0 22.666670 500.0 197.0 22.666670 1791.166670 890668.076920 159.0 43.0 841546770.517950 0.0 0.0 0.0 0.0 0.0 0.0 0.0 -3.27680 -3.27680 -3.27680 -3.27680 -3.27680 -3.27680
5.48 5.499780 0.0 93.50 15.020 0.0960 0.10 1.0 43.416670 200.0 23.0 500.0 197.0 23.0 1789.333330 890669.153850 159.0 43.0 841548803.066690 0.0 0.0 0.0 0.0 0.0 0.0 0.0 -3.27680 -3.27680 -3.27680 -3.27680 -3.27680 -3.27680
5.47 5.487170 0.0 93.550 15.0140 0.0960 0.1010 1.0 43.50 200.0 23.333330 500.0 197.0 23.333330 1787.50 890670.230770 159.0 43.0 841550835.615430 0.0 0.0 0.0 0.0 0.0 0.0 0.0 -3.27680 -3.27680 -3.27680 -3.27680 -3.27680 -3.27680
5.46 5.474570 0.0 93.60 15.0080 0.0960 0.1020 1.0 43.583330 200.0 23.666670 500.0 197.0 23.666670 1785.666670 890671.307690 159.0 43.0 841552868.164180 0.0 0.0 0.0 0.0 0.0 0.0 0.0 -3.27680 -3.27680 -3.27680 -3.27680 -3.27680 -3.27680
5.45 5.466430 0.0 93.633330 15.0020 0.0960 0.1020 1.0 43.666670 200.0 24.0 500.0 197.0 24.0 1783.833330 890672.384620 159.0 43.0 841554900.712920 0.0 0.0 0.0 0.0 0.0 0.0 0.0 -3.27680 -3.27680 -3.27680 -3.27680 -3.27680 -3.27680
5.44 5.45830 0.0 93.666670 14.9960 0.0960 0.1020 1.0 43.750 200.0 23.666670 500.0 197.0 23.666670 1782.0 890673.461540 159.0 43.0 841556933.261660 0.0 0.0 0.0 0.0 0.0 0.0 0.0 -3.27680 -3.27680 -3.27680 -3.27680 -3.27680 -3.27680
5.43 5.450160 0.0 93.70 14.990 0.0960 0.1020 1.0 43.833330 200.0 23.333330 500.0 197.0 23.333330 1780.166670 890674.538460 159.0 43.0 841558965.81040 0.0 0.0 0.0 0.0 0.0 0.0 0.0 -3.27680 -3.27680 -3.27680 -3.27680 -3.27680 -3.27680
5.42 5.441760 0.0 93.733330 14.9840 0.0960 0.1020 1.0 43.916670 200.0 23.0 500.0 197.0 23.0 1778.333330 890675.615380 159.0 43.0 841560998.359150 0.0 0.0 0.0 0.0 0.0 0.0 0.0 -3.27680 -3.27680 -3.27680 -3.27680 -3.27680 -3.27680
5.41 5.433360 0.0 93.766670 14.9780 0.0960 0.1020 1.0 44.0 200.0 22.666670 500.0 197.0 22.666670 1776.50 890676.692310 159.0 43.0 841563030.907890 0.0 0.0 0.0 0.0 0.0 0.0 0.0 -3.27680 -3.27680 -3.27680 -3.27680 -3.27680 -3.27680
5.40 5.424950 0.0 93.80 14.9720 0.0960 0.1020 1.0 43.923080 200.0 22.333330 500.0 197.0 22.333330 1774.666670 890677.769230 159.0 43.0 841565063.456630 0.0 0.0 0.0 0.0 0.0 0.0 0.0 -3.27680 -3.27680 -3.27680 -3.27680 -3.27680 -3.27680
5.39 5.412350 0.0 93.850 14.9660 0.0960 0.1020 1.0 43.846150 200.0 22.0 500.0 197.0 22.0 1772.833330 890678.846150 159.0 43.0 841567096.005380 0.0 0.0 0.0 0.0 0.0 0.0 0.0 -3.27680 -3.27680 -3.27680 -3.27680 -3.27680 -3.27680
5.38 5.399750 0.0 93.90 14.960 0.0960 0.1020 1.0 43.769230 200.0 21.666670 500.0 197.0 21.666670 1771.0 890679.923080 159.0 43.0 841569128.554120 0.0 0.0 0.0 0.0 0.0 0.0 0.0 -3.27680 -3.27680 -3.27680 -3.27680 -3.27680 -3.27680
5.37 5.387540 0.0 93.950 14.9540 0.0960 0.1020 1.0 43.692310 200.0 21.333330 500.0 197.0 21.333330 1770.0 890681.0 159.0 43.0 841571161.102860 0.0 0.0 0.0 0.0 0.0 0.0 0.0 -3.27680 -3.27680 -3.27680 -3.27680 -3.27680 -3.27680
5.36 5.375340 0.0 94.0 14.9480 0.0960 0.1020 1.0 43.615380 200.0 21.0 500.0 197.0 21.0 1769.0 890681.750 159.0 43.0 841572576.646130 0.0 0.0 0.0 0.0 0.0 0.0 0.0 -3.27680 -3.27680 -3.27680 -3.27680 -3.27680 -3.27680
5.35 5.366930 0.0 94.033330 14.9420 0.0960 0.1020 1.0 43.538460 200.0 20.666670 500.0 197.0 20.666670 1768.0 890682.50 159.0 43.0 841573992.18940 0.0 0.0 0.0 0.0 0.0 0.0 0.0 -3.27680 -3.27680 -3.27680 -3.27680 -3.27680 -3.27680
5.34 5.358530 0.0 94.066670 14.9360 0.0960 0.1020 1.0 43.461540 200.0 20.333330 500.0 197.0 20.333330 1767.0 890683.250 159.0 43.0 841575407.732670 0.0 0.0 0.0 0.0 0.0 0.0 0.0 -3.27680 -3.27680 -3.27680 -3.27680 -3.27680 -3.27680
