~VERSION INFORMATION SECTION
VERS. 2.0 : CWLS LAS-VERSION 2.0
WRAP. NO : One line per depth step
~WELL INFORMATION SECTION
# MNEM.UNIT VALUE/NAME DESCRIPTION
#-------- -------------- ---------------------
STRT.Metres 26 : Start
STOP.Metres -2.05 : Stop
STEP.Metres -0.01 : Step
NULL.  -999.25 :NULL VALUE
DATE. 2026-29-09 : DATE
~CURVE INFORMATION SECTION
DEPTH.Metres : 0 Depth
Depth. : 1 Depth
Tension. : 2 Tension
Time. : 3 Time
Speed. : 4 Speed
Voltage. : 5 Voltage
Current. : 6 Current
WET. : 7 WET
Sig. : 8 Sig
Vth. : 9 Vth
GR.CPS : 10 GR
Timebase.ms : 11 Timebase
HeadVoltage.V : 12 Head Voltage
API.API : 13 API
Conductivity.uS : 14 Conductivity
PT100.Ohms : 15 PT100
Vmon.mV : 16 Vmon
Status. : 17 Status
Temperature.C : 18 Temperature
Incline.Deg : 19 Incline
Azimuth.Deg : 20 Azimuth
RelativeBearing.Deg : 21 Relative Bearing
MagneticToolFace.Deg : 22 Magnetic Tool Face
GravityMagnitude.G : 23 Gravity Magnitude
MagnetometerMagnitude.H : 24 Magnetometer Magnitude
Temperature.C : 25 Temperature
GX. : 26 GX
GY. : 27 GY
GZ. : 28 GZ
HX. : 29 HX
HY. : 30 HY
HZ. : 31 HZ
~PARAMETER INFORMATION SECTION
~OTHER
#-------------------------------------------------
#Produced By: GeoVista Logger - Version 7.1.107.0
Verticality Sonde - 9605
Temperature and Conductivity Sonde - Inline - 8974
Natural Gamma Sonde - 9931
WLIS - 10021
#-------------------------------------------------
~ASCII LOG DATA
# ...
12.89 12.911040 0.0 151.20 14.9680 0.0960 0.1020 1.0 36.0 200.0 19.019610 500.0 197.0 19.019610 2371.076920 889624.166670 160.0 43.0 839577695.324460 0.0 0.0 0.0 0.0 0.0 0.0 0.0 -3.27680 -3.27680 -3.27680 -3.27680 -3.27680 -3.27680
12.88 12.898840 0.0 151.250 14.980670 0.0960 0.1020 1.0 36.0 200.0 19.215690 500.0 197.0 19.215690 2370.0 889625.0 160.0 43.0 839579266.271130 0.0 0.0 0.0 0.0 0.0 0.0 0.0 -3.27680 -3.27680 -3.27680 -3.27680 -3.27680 -3.27680
12.87 12.886630 0.0 151.30 14.993330 0.0960 0.1020 1.0 36.0 200.0 19.411760 500.0 197.0 19.411760 2367.666670 889625.384620 160.0 43.0 839579991.329540 0.0 0.0 0.0 0.0 0.0 0.0 0.0 -3.27680 -3.27680 -3.27680 -3.27680 -3.27680 -3.27680
12.86 12.878230 0.0 151.333330 15.0060 0.0960 0.1020 1.0 36.0 200.0 19.607840 500.0 197.0 19.607840 2365.333330 889625.769230 160.0 43.0 839580716.387960 0.0 0.0 0.0 0.0 0.0 0.0 0.0 -3.27680 -3.27680 -3.27680 -3.27680 -3.27680 -3.27680
12.85 12.869830 0.0 151.366670 15.018670 0.0960 0.1020 1.0 36.0 200.0 19.803920 500.0 197.0 19.803920 2363.0 889626.153850 160.0 43.0 839581441.446370 0.0 0.0 0.0 0.0 0.0 0.0 0.0 -3.27680 -3.27680 -3.27680 -3.27680 -3.27680 -3.27680
12.84 12.861430 0.0 151.40 15.031330 0.0960 0.1020 1.0 36.0 200.0 20.0 500.0 197.0 20.0 2360.666670 889626.538460 160.0 43.0 839582166.504790 0.0 0.0 0.0 0.0 0.0 0.0 0.0 -3.27680 -3.27680 -3.27680 -3.27680 -3.27680 -3.27680
12.83 12.849220 0.0 151.450 15.0440 0.0960 0.1010 1.0 36.0 200.0 20.933330 500.0 197.0 20.933330 2358.333330 889626.923080 160.0 43.0 839582891.56320 0.0 0.0 0.0 0.0 0.0 0.0 0.0 -3.27680 -3.27680 -3.27680 -3.27680 -3.27680 -3.27680
12.82 12.837010 0.0 151.50 15.056670 0.0960 0.10 1.0 36.0 200.0 21.866670 500.0 197.0 21.866670 2356.0 889627.307690 160.0 43.0 839583616.621620 0.0 0.0 0.0 0.0 0.0 0.0 0.0 -3.27680 -3.27680 -3.27680 -3.27680 -3.27680 -3.27680
12.81 12.828610 0.0 151.533330 15.069330 0.0960 0.100670 1.0 36.0 200.0 22.80 500.0 197.0 22.80 2353.666670 889627.692310 160.0 43.0 839584341.680030 0.0 0.0 0.0 0.0 0.0 0.0 0.0 -3.27680 -3.27680 -3.27680 -3.27680 -3.27680 -3.27680
12.80 12.820210 0.0 151.566670 15.0820 0.0960 0.101330 1.0 36.0 200.0 23.733330 500.0 197.0 23.733330 2351.333330 889628.076920 160.0 43.0 839585066.738440 0.0 0.0 0.0 0.0 0.0 0.0 0.0 -3.27680 -3.27680 -3.27680 -3.27680 -3.27680 -3.27680
12.79 12.811810 0.0 151.60 15.094670 0.0960 0.1020 1.0 36.0 200.0 24.666670 500.0 197.0 24.666670 2349.0 889628.461540 160.0 43.0 839585791.796860 0.0 0.0 0.0 0.0 0.0 0.0 0.0 -3.27680 -3.27680 -3.27680 -3.27680 -3.27680 -3.27680
12.78 12.799210 0.0 151.650 15.107330 0.0960 0.1010 1.0 36.0 200.0 25.60 500.0 197.0 25.60 2346.666670 889628.846150 160.0 43.0 839586516.855270 0.0 0.0 0.0 0.0 0.0 0.0 0.0 -3.27680 -3.27680 -3.27680 -3.27680 -3.27680 -3.27680
12.77 12.78660 0.0 151.70 15.120 0.0960 0.10 1.0 36.0 200.0 26.533330 500.0 197.0 26.533330 2344.333330 889629.230770 160.0 43.0 839587241.913690 0.0 0.0 0.0 0.0 0.0 0.0 0.0 -3.27680 -3.27680 -3.27680 -3.27680 -3.27680 -3.27680
12.76 12.778470 0.0 151.733330 15.107330 0.0960 0.100670 1.0 36.0 200.0 27.466670 500.0 197.0 27.466670 2342.0 889629.615380 160.0 43.0 839587966.97210 0.0 0.0 0.0 0.0 0.0 0.0 0.0 -3.27680 -3.27680 -3.27680 -3.27680 -3.27680 -3.27680
12.75 12.770330 0.0 151.766670 15.094670 0.0960 0.101330 1.0 36.0 200.0 28.40 500.0 197.0 28.40 2341.538460 889630.0 160.0 43.0 839588692.030510 0.0 0.0 0.0 0.0 0.0 0.0 0.0 -3.27680 -3.27680 -3.27680 -3.27680 -3.27680 -3.27680
12.74 12.762190 0.0 151.80 15.0820 0.0960 0.1020 1.0 36.0 200.0 29.333330 500.0 197.0 29.333330 2341.076920 889630.750 160.0 43.0 839590105.905530 0.0 0.0 0.0 0.0 0.0 0.0 0.0 -3.27680 -3.27680 -3.27680 -3.27680 -3.27680 -3.27680
12.73 12.749590 0.0 151.850 15.069330 0.0960 0.1020 1.0 36.0 200.0 30.266670 500.0 197.0 30.266670 2340.615380 889631.50 160.0 43.0 839591519.780550 0.0 0.0 0.0 0.0 0.0 0.0 0.0 -3.27680 -3.27680 -3.27680 -3.27680 -3.27680 -3.27680
12.72 12.736990 0.0 151.90 15.056670 0.0960 0.1020 1.0 36.0 200.0 31.20 500.0 197.0 31.20 2340.153850 889632.250 160.0 43.0 839592933.655570 0.0 0.0 0.0 0.0 0.0 0.0 0.0 -3.27680 -3.27680 -3.27680 -3.27680 -3.27680 -3.27680
12.71 12.728590 0.0 151.933330 15.0440 0.0960 0.1020 1.0 36.0 200.0 32.133330 500.0 197.0 32.133330 2339.692310 889633.0 160.0 43.0 839594347.530590 0.0 0.0 0.0 0.0 0.0 0.0 0.0 -3.27680 -3.27680 -3.27680 -3.27680 -3.27680 -3.27680
12.70 12.720180 0.0 151.966670 15.031330 0.0960 0.1020 1.0 36.0 200.0 33.066670 500.0 197.0 33.066670 2339.230770 889633.750 160.0 43.0 839595761.405610 0.0 0.0 0.0 0.0 0.0 0.0 0.0 -3.27680 -3.27680 -3.27680 -3.27680 -3.27680 -3.27680
12.69 12.711780 0.0 152.0 15.018670 0.0960 0.1020 1.0 36.0 200.0 34.0 500.0 197.0 34.0 2338.769230 889634.50 160.0 43.0 839597175.280630 0.0 0.0 0.0 0.0 0.0 0.0 0.0 -3.27680 -3.27680 -3.27680 -3.27680 -3.27680 -3.27680
12.68 12.699580 0.0 152.050 15.0060 0.0960 0.1020 1.0 36.0 200.0 32.615380 500.0 197.0 32.615380 2338.307690 889635.250 160.0 43.0 839598589.155650 0.0 0.0 0.0 0.0 0.0 0.0 0.0 -3.27680 -3.27680 -3.27680 -3.27680 -3.27680 -3.27680
12.67 12.687370 0.0 152.10 14.993330 0.0960 0.1020 1.0 36.0 200.0 31.230770 500.0 197.0 31.230770 2337.846150 889636.0 160.0 43.0 839600003.030670 0.0 0.0 0.0 0.0 0.0 0.0 0.0 -3.27680 -3.27680 -3.27680 -3.27680 -3.27680 -3.27680
12.66 12.678970 0.0 152.133330 14.980670 0.0960 0.1020 1.0 36.0 200.0 29.846150 500.0 197.0 29.846150 2337.384620 889636.750 160.0 43.0 839601416.905680 0.0 0.0 0.0 0.0 0.0 0.0 0.0 -3.27680 -3.27680 -3.27680 -3.27680 -3.27680 -3.27680
12.65 12.670570 0.0 152.166670 14.9680 0.0960 0.1020 1.0 36.0 200.0 28.461540 500.0 197.0 28.461540 2336.923080 889637.50 160.0 43.0 839602830.78070 0.0 0.0 0.0 0.0 0.0 0.0 0.0 -3.27680 -3.27680 -3.27680 -3.27680 -3.27680 -3.27680
12.64 12.662160 0.0 152.20 14.955330 0.0960 0.1020 1.0 36.0 200.0 27.076920 500.0 197.0 27.076920 2336.461540 889638.250 160.0 43.0 839604244.655720 0.0 0.0 0.0 0.0 0.0 0.0 0.0 -3.27680 -3.27680 -3.27680 -3.27680 -3.27680 -3.27680
12.63 12.649560 0.0 152.250 14.942670 0.0960 0.1020 1.0 36.083330 200.0 25.692310 500.0 197.0 25.692310 2336.0 889639.0 160.0 43.0 839605658.530740 0.0 0.0 0.0 0.0 0.0 0.0 0.0 -3.27680 -3.27680 -3.27680 -3.27680 -3.27680 -3.27680
12.62 12.636960 0.0 152.30 14.930 0.0960 0.1020 1.0 36.166670 200.0 24.307690 500.0 197.0 24.307690 2333.50 889639.769230 160.0 43.0 839607108.674430 0.0 0.0 0.0 0.0 0.0 0.0 0.0 -3.27680 -3.27680 -3.27680 -3.27680 -3.27680 -3.27680
12.61 12.628820 0.0 152.333330 14.932670 0.0960 0.1020 1.0 36.250 200.0 22.923080 500.0 197.0 22.923080 2331.0 889640.538460 160.0 43.0 839608558.818120 0.0 0.0 0.0 0.0 0.0 0.0 0.0 -3.27680 -3.27680 -3.27680 -3.27680 -3.27680 -3.27680
12.60 12.620680 0.0 152.366670 14.935330 0.0960 0.1020 1.0 36.333330 200.0 21.538460 500.0 197.0 21.538460 2328.50 889641.307690 160.0 43.0 839610008.961810 0.0 0.0 0.0 0.0 0.0 0.0 0.0 -3.27680 -3.27680 -3.27680 -3.27680 -3.27680 -3.27680
12.59 12.612550 0.0 152.40 14.9380 0.0960 0.1020 1.0 36.416670 200.0 20.153850 500.0 197.0 20.153850 2326.0 889642.076920 160.0 43.0 839611459.10550 0.0 0.0 0.0 0.0 0.0 0.0 0.0 -3.27680 -3.27680 -3.27680 -3.27680 -3.27680 -3.27680
12.58 12.599940 0.0 152.450 14.940670 0.0960 0.1020 1.0 36.50 200.0 18.769230 500.0 197.0 18.769230 2323.50 889642.846150 160.0 43.0 839612909.249190 0.0 0.0 0.0 0.0 0.0 0.0 0.0 -3.27680 -3.27680 -3.27680 -3.27680 -3.27680 -3.27680
12.57 12.587340 0.0 152.50 14.943330 0.0960 0.1020 1.0 36.583330 200.0 17.384620 500.0 197.0 17.384620 2321.0 889643.615380 160.0 43.0 839614359.392880 0.0 0.0 0.0 0.0 0.0 0.0 0.0 -3.27680 -3.27680 -3.27680 -3.27680 -3.27680 -3.27680
12.56 12.578940 0.0 152.533330 14.9460 0.0960 0.1020 1.0 36.666670 200.0 16.0 500.0 197.0 16.0 2318.50 889644.384620 160.0 43.0 839615809.536570 0.0 0.0 0.0 0.0 0.0 0.0 0.0 -3.27680 -3.27680 -3.27680 -3.27680 -3.27680 -3.27680
12.55 12.570540 0.0 152.566670 14.948670 0.0960 0.1020 1.0 36.750 200.0 16.666670 500.0 197.0 16.666670 2316.0 889645.153850 160.0 43.0 839617259.680260 0.0 0.0 0.0 0.0 0.0 0.0 0.0 -3.27680 -3.27680 -3.27680 -3.27680 -3.27680 -3.27680
