~VERSION INFORMATION SECTION
VERS. 2.0 : CWLS LAS-VERSION 2.0
WRAP. NO : One line per depth step
~WELL INFORMATION SECTION
# MNEM.UNIT VALUE/NAME DESCRIPTION
#-------- -------------- ---------------------
STRT.Metres 26 : Start
STOP.Metres -2.04 : Stop
STEP.Metres -0.01 : Step
NULL.  -999.25 :NULL VALUE
DATE. 2026-36-09 : DATE
~CURVE INFORMATION SECTION
DEPTH.Metres : 0 Depth
Depth. : 1 Depth
Tension. : 2 Tension
Time. : 3 Time
Speed. : 4 Speed
Voltage. : 5 Voltage
Current. : 6 Current
WET. : 7 WET
Sig. : 8 Sig
Vth. : 9 Vth
GR.CPS : 10 GR
Timebase.ms : 11 Timebase
HeadVoltage.V : 12 Head Voltage
API.API : 13 API
Conductivity.uS : 14 Conductivity
PT100.Ohms : 15 PT100
Vmon.mV : 16 Vmon
Status. : 17 Status
Temperature.C : 18 Temperature
Incline.Deg : 19 Incline
Azimuth.Deg : 20 Azimuth
RelativeBearing.Deg : 21 Relative Bearing
MagneticToolFace.Deg : 22 Magnetic Tool Face
GravityMagnitude.G : 23 Gravity Magnitude
MagnetometerMagnitude.H : 24 Magnetometer Magnitude
Temperature.C : 25 Temperature
GX. : 26 GX
GY. : 27 GY
GZ. : 28 GZ
HX. : 29 HX
HY. : 30 HY
HZ. : 31 HZ
~PARAMETER INFORMATION SECTION
~OTHER
#-------------------------------------------------
#Produced By: GeoVista Logger - Version 7.1.107.0
Verticality Sonde - 9605
Temperature and Conductivity Sonde - Inline - 8974
Natural Gamma Sonde - 9931
WLIS - 10021
#-------------------------------------------------
~ASCII LOG DATA
# ...
19.46 19.480770 0.0 58.850 15.069330 0.0960 0.1020 1.0 2.0 200.0 24.461540 500.0 197.0 24.461540 11383.0 889110.615380 146.0 43.0 838609855.88660 0.0 0.0 0.0 0.0 0.0 0.0 0.0 -3.27680 -3.27680 -3.27680 -3.27680 -3.27680 -3.27680
19.45 19.468560 0.0 58.90 15.0820 0.0960 0.1020 1.0 2.0 200.0 24.923080 500.0 197.0 24.923080 11337.833330 889111.384620 146.0 43.0 838611305.162570 0.0 0.0 0.0 0.0 0.0 0.0 0.0 -3.27680 -3.27680 -3.27680 -3.27680 -3.27680 -3.27680
19.44 19.460420 0.0 58.933330 15.094670 0.0960 0.1020 1.0 2.0 200.0 25.384620 500.0 197.0 25.384620 11292.666670 889112.153850 146.0 43.0 838612754.438540 0.0 0.0 0.0 0.0 0.0 0.0 0.0 -3.27680 -3.27680 -3.27680 -3.27680 -3.27680 -3.27680
19.43 19.452280 0.0 58.966670 15.107330 0.0960 0.1020 1.0 2.0 200.0 25.846150 500.0 197.0 25.846150 11247.50 889112.923080 146.0 43.0 838614203.71450 0.0 0.0 0.0 0.0 0.0 0.0 0.0 -3.27680 -3.27680 -3.27680 -3.27680 -3.27680 -3.27680
19.42 19.444150 0.0 59.0 15.120 0.0960 0.1020 1.0 2.0 200.0 26.307690 500.0 197.0 26.307690 11202.333330 889113.692310 146.0 43.0 838615652.990470 0.0 0.0 0.0 0.0 0.0 0.0 0.0 -3.27680 -3.27680 -3.27680 -3.27680 -3.27680 -3.27680
19.41 19.431540 0.0 59.050 15.113330 0.0960 0.1020 1.0 2.0 200.0 26.769230 500.0 197.0 26.769230 11157.166670 889114.461540 146.0 43.0 838617102.266440 0.0 0.0 0.0 0.0 0.0 0.0 0.0 -3.27680 -3.27680 -3.27680 -3.27680 -3.27680 -3.27680
19.40 19.418940 0.0 59.10 15.106670 0.0960 0.1020 1.0 2.0 200.0 27.230770 500.0 197.0 27.230770 11112.0 889115.230770 146.0 43.0 838618551.54240 0.0 0.0 0.0 0.0 0.0 0.0 0.0 -3.27680 -3.27680 -3.27680 -3.27680 -3.27680 -3.27680
19.39 19.410540 0.0 59.133330 15.10 0.0960 0.1020 1.0 2.0 200.0 27.692310 500.0 197.0 27.692310 11069.538460 889116.0 146.0 43.0 838620000.818370 0.0 0.0 0.0 0.0 0.0 0.0 0.0 -3.27680 -3.27680 -3.27680 -3.27680 -3.27680 -3.27680
19.38 19.402140 0.0 59.166670 15.093330 0.0960 0.1020 1.0 2.0 200.0 28.153850 500.0 197.0 28.153850 11027.076920 889116.250 146.0 43.0 838620471.83650 0.0 0.0 0.0 0.0 0.0 0.0 0.0 -3.27680 -3.27680 -3.27680 -3.27680 -3.27680 -3.27680
19.37 19.393740 0.0 59.20 15.086670 0.0960 0.1020 1.0 2.0 200.0 28.615380 500.0 197.0 28.615380 10984.615380 889116.50 146.0 43.0 838620942.854630 0.0 0.0 0.0 0.0 0.0 0.0 0.0 -3.27680 -3.27680 -3.27680 -3.27680 -3.27680 -3.27680
19.36 19.381140 0.0 59.250 15.080 0.0960 0.1020 1.0 2.0 200.0 29.076920 500.0 197.0 29.076920 10942.153850 889116.750 146.0 43.0 838621413.872750 0.0 0.0 0.0 0.0 0.0 0.0 0.0 -3.27680 -3.27680 -3.27680 -3.27680 -3.27680 -3.27680
19.35 19.368540 0.0 59.30 15.073330 0.0960 0.1020 1.0 2.0 200.0 29.538460 500.0 197.0 29.538460 10899.692310 889117.0 146.0 43.0 838621884.890880 0.0 0.0 0.0 0.0 0.0 0.0 0.0 -3.27680 -3.27680 -3.27680 -3.27680 -3.27680 -3.27680
19.34 19.36040 0.0 59.333330 15.066670 0.0960 0.1020 1.0 2.0 200.0 30.0 500.0 197.0 30.0 10857.230770 889117.250 146.076920 43.0 838622355.909010 0.0 0.0 0.0 0.0 0.0 0.0 0.0 -3.27680 -3.27680 -3.27680 -3.27680 -3.27680 -3.27680
19.33 19.352260 0.0 59.366670 15.060 0.0960 0.1020 1.0 2.0 200.0 30.333330 500.0 197.0 30.333330 10814.769230 889117.50 146.153850 43.0 838622826.927140 0.0 0.0 0.0 0.0 0.0 0.0 0.0 -3.27680 -3.27680 -3.27680 -3.27680 -3.27680 -3.27680
19.32 19.344120 0.0 59.40 15.053330 0.0960 0.1020 1.0 2.0 200.0 30.666670 500.0 197.0 30.666670 10772.307690 889117.750 146.230770 43.0 838623297.945270 0.0 0.0 0.0 0.0 0.0 0.0 0.0 -3.27680 -3.27680 -3.27680 -3.27680 -3.27680 -3.27680
19.31 19.331520 0.0 59.450 15.046670 0.0960 0.1020 1.0 2.0 200.0 31.0 500.0 197.0 31.0 10729.846150 889118.0 146.307690 43.0 838623768.96340 0.0 0.0 0.0 0.0 0.0 0.0 0.0 -3.27680 -3.27680 -3.27680 -3.27680 -3.27680 -3.27680
19.30 19.318920 0.0 59.50 15.040 0.0960 0.1020 1.0 2.0 200.0 31.333330 500.0 197.0 31.333330 10687.384620 889118.250 146.384620 43.0 838624239.981520 0.0 0.0 0.0 0.0 0.0 0.0 0.0 -3.27680 -3.27680 -3.27680 -3.27680 -3.27680 -3.27680
19.29 19.310520 0.0 59.533330 15.033330 0.0960 0.1020 1.0 2.076920 200.0 31.666670 500.0 197.0 31.666670 10644.923080 889118.50 146.461540 43.0 838624710.999650 0.0 0.0 0.0 0.0 0.0 0.0 0.0 -3.27680 -3.27680 -3.27680 -3.27680 -3.27680 -3.27680
19.28 19.302120 0.0 59.566670 15.026670 0.0960 0.1020 1.0 2.153850 200.0 32.0 500.0 197.0 32.0 10602.461540 889118.750 146.538460 43.0 838625182.017780 0.0 0.0 0.0 0.0 0.0 0.0 0.0 -3.27680 -3.27680 -3.27680 -3.27680 -3.27680 -3.27680
19.27 19.293710 0.0 59.60 15.020 0.0960 0.1020 1.0 2.230770 200.0 32.333330 500.0 197.0 32.333330 10560.0 889119.0 146.615380 43.0 838625653.035910 0.0 0.0 0.0 0.0 0.0 0.0 0.0 -3.27680 -3.27680 -3.27680 -3.27680 -3.27680 -3.27680
19.26 19.281510 0.0 59.650 15.016670 0.0960 0.1020 1.0 2.307690 200.0 32.666670 500.0 197.0 32.666670 10522.916670 889119.769230 146.692310 43.0 838627102.333040 0.0 0.0 0.0 0.0 0.0 0.0 0.0 -3.27680 -3.27680 -3.27680 -3.27680 -3.27680 -3.27680
19.25 19.26930 0.0 59.70 15.013330 0.0960 0.1020 1.0 2.384620 200.0 33.0 500.0 197.0 33.0 10485.833330 889120.538460 146.769230 43.0 838628551.630170 0.0 0.0 0.0 0.0 0.0 0.0 0.0 -3.27680 -3.27680 -3.27680 -3.27680 -3.27680 -3.27680
19.24 19.26090 0.0 59.733330 15.010 0.0960 0.1020 1.0 2.461540 200.0 33.333330 500.0 197.0 33.333330 10448.750 889121.307690 146.846150 43.0 838630000.92730 0.0 0.0 0.0 0.0 0.0 0.0 0.0 -3.27680 -3.27680 -3.27680 -3.27680 -3.27680 -3.27680
19.23 19.25250 0.0 59.766670 15.006670 0.0960 0.1020 1.0 2.538460 200.0 33.666670 500.0 197.0 33.666670 10411.666670 889122.076920 146.923080 43.0 838631450.224430 0.0 0.0 0.0 0.0 0.0 0.0 0.0 -3.27680 -3.27680 -3.27680 -3.27680 -3.27680 -3.27680
19.22 19.24410 0.0 59.80 15.003330 0.0960 0.1020 1.0 2.615380 200.0 34.0 500.0 197.0 34.0 10374.583330 889122.846150 147.0 43.0 838632899.521560 0.0 0.0 0.0 0.0 0.0 0.0 0.0 -3.27680 -3.27680 -3.27680 -3.27680 -3.27680 -3.27680
19.21 19.231490 0.0 59.850 15.0 0.0960 0.1020 1.0 2.692310 200.0 33.692310 500.0 197.0 33.692310 10337.50 889123.615380 147.0 43.0 838634348.818690 0.0 0.0 0.0 0.0 0.0 0.0 0.0 -3.27680 -3.27680 -3.27680 -3.27680 -3.27680 -3.27680
19.20 19.218890 0.0 59.90 14.996670 0.0960 0.1020 1.0 2.769230 200.0 33.384620 500.0 197.0 33.384620 10300.416670 889124.384620 147.0 43.0 838635798.115820 0.0 0.0 0.0 0.0 0.0 0.0 0.0 -3.27680 -3.27680 -3.27680 -3.27680 -3.27680 -3.27680
19.19 19.210490 0.0 59.933330 14.993330 0.0960 0.1020 1.0 2.846150 200.0 33.076920 500.0 197.0 33.076920 10263.333330 889125.153850 147.0 43.0 838637247.412950 0.0 0.0 0.0 0.0 0.0 0.0 0.0 -3.27680 -3.27680 -3.27680 -3.27680 -3.27680 -3.27680
19.18 19.202090 0.0 59.966670 14.990 0.0960 0.1020 1.0 2.923080 200.0 32.769230 500.0 197.0 32.769230 10226.250 889125.923080 147.0 43.0 838638696.710080 0.0 0.0 0.0 0.0 0.0 0.0 0.0 -3.27680 -3.27680 -3.27680 -3.27680 -3.27680 -3.27680
19.17 19.193690 0.0 60.0 14.986670 0.0960 0.1020 1.0 3.0 200.0 32.461540 500.0 197.0 32.461540 10189.166670 889126.692310 147.0 43.0 838640146.007210 0.0 0.0 0.0 0.0 0.0 0.0 0.0 -3.27680 -3.27680 -3.27680 -3.27680 -3.27680 -3.27680
19.16 19.181090 0.0 60.050 14.983330 0.0960 0.1020 1.0 3.0 200.0 32.153850 500.0 197.0 32.153850 10152.083330 889127.461540 147.0 43.0 838641595.304340 0.0 0.0 0.0 0.0 0.0 0.0 0.0 -3.27680 -3.27680 -3.27680 -3.27680 -3.27680 -3.27680
19.15 19.168490 0.0 60.10 14.980 0.0960 0.1020 1.0 3.0 200.0 31.846150 500.0 197.0 31.846150 10115.0 889128.230770 147.0 43.0 838643044.601470 0.0 0.0 0.0 0.0 0.0 0.0 0.0 -3.27680 -3.27680 -3.27680 -3.27680 -3.27680 -3.27680
19.14 19.160090 0.0 60.133330 14.976670 0.0960 0.1020 1.0 3.0 200.0 31.538460 500.0 197.0 31.538460 10074.461540 889129.0 147.0 43.0 838644493.89860 0.0 0.0 0.0 0.0 0.0 0.0 0.0 -3.27680 -3.27680 -3.27680 -3.27680 -3.27680 -3.27680
19.13 19.151690 0.0 60.166670 14.973330 0.0960 0.1020 1.0 3.0 200.0 31.230770 500.0 197.0 31.230770 10033.923080 889129.833330 147.0 43.0 838646063.988130 0.0 0.0 0.0 0.0 0.0 0.0 0.0 -3.27680 -3.27680 -3.27680 -3.27680 -3.27680 -3.27680
19.12 19.143280 0.0 60.20 14.970 0.0960 0.1020 1.0 3.0 200.0 30.923080 500.0 197.0 30.923080 9993.384620 889130.666670 147.0 43.0 838647634.077660 0.0 0.0 0.0 0.0 0.0 0.0 0.0 -3.27680 -3.27680 -3.27680 -3.27680 -3.27680 -3.27680
