~VERSION INFORMATION SECTION
VERS. 2.0 : CWLS LAS-VERSION 2.0
WRAP. NO : One line per depth step
~WELL INFORMATION SECTION
# MNEM.UNIT VALUE/NAME DESCRIPTION
#-------- -------------- ---------------------
STRT.Metres 25 : Start
STOP.Metres -2.12 : Stop
STEP.Metres -0.01 : Step
NULL.  -999.25 :NULL VALUE
DATE. 2026-13-09 : DATE
~CURVE INFORMATION SECTION
DEPTH.Metres : 0 Depth
Depth. : 1 Depth
Tension. : 2 Tension
Time. : 3 Time
Speed. : 4 Speed
Voltage. : 5 Voltage
Current. : 6 Current
WET. : 7 WET
Sig. : 8 Sig
Vth. : 9 Vth
GR.CPS : 10 GR
Timebase.ms : 11 Timebase
HeadVoltage.V : 12 Head Voltage
API.API : 13 API
Conductivity.uS : 14 Conductivity
PT100.Ohms : 15 PT100
Vmon.mV : 16 Vmon
Status. : 17 Status
Temperature.C : 18 Temperature
Incline.Deg : 19 Incline
Azimuth.Deg : 20 Azimuth
RelativeBearing.Deg : 21 Relative Bearing
MagneticToolFace.Deg : 22 Magnetic Tool Face
GravityMagnitude.G : 23 Gravity Magnitude
MagnetometerMagnitude.H : 24 Magnetometer Magnitude
Temperature.C : 25 Temperature
GX. : 26 GX
GY. : 27 GY
GZ. : 28 GZ
HX. : 29 HX
HY. : 30 HY
HZ. : 31 HZ
~PARAMETER INFORMATION SECTION
~OTHER
#-------------------------------------------------
#Produced By: GeoVista Logger - Version 7.1.107.0
Verticality Sonde - 9605
Temperature and Conductivity Sonde - Inline - 8974
Natural Gamma Sonde - 9931
WLIS - 10021
#-------------------------------------------------
~ASCII LOG DATA
# ...
7.24 7.26110 0.0 86.233330 14.980 0.0960 0.100670 1.0 41.50 200.0 13.538460 500.0 197.0 13.538460 1733.50 890512.615380 155.846150 42.0 841253385.172840 0.0 0.0 0.0 0.0 0.0 0.0 0.0 -3.27680 -3.27680 -3.27680 -3.27680 -3.27680 -3.27680
7.23 7.25270 0.0 86.266670 14.983330 0.0960 0.101330 1.0 41.416670 200.0 14.769230 500.0 197.0 14.769230 1731.666670 890514.153850 155.923080 42.0 841256288.305970 0.0 0.0 0.0 0.0 0.0 0.0 0.0 -3.27680 -3.27680 -3.27680 -3.27680 -3.27680 -3.27680
7.22 7.24430 0.0 86.30 14.986670 0.0960 0.1020 1.0 41.333330 200.0 16.0 500.0 197.0 16.0 1729.833330 890515.692310 156.0 42.0 841259191.439090 0.0 0.0 0.0 0.0 0.0 0.0 0.0 -3.27680 -3.27680 -3.27680 -3.27680 -3.27680 -3.27680
7.21 7.232090 0.0 86.350 14.990 0.0960 0.1020 1.0 41.250 200.0 16.0 500.0 197.0 16.0 1728.0 890517.230770 156.0 42.0 841262094.572220 0.0 0.0 0.0 0.0 0.0 0.0 0.0 -3.27680 -3.27680 -3.27680 -3.27680 -3.27680 -3.27680
7.20 7.219880 0.0 86.40 14.993330 0.0960 0.1020 1.0 41.166670 200.0 16.0 500.0 197.0 16.0 1726.166670 890518.769230 156.0 42.0 841264997.705340 0.0 0.0 0.0 0.0 0.0 0.0 0.0 -3.27680 -3.27680 -3.27680 -3.27680 -3.27680 -3.27680
7.19 7.211480 0.0 86.433330 14.996670 0.0960 0.1020 1.0 41.083330 200.0 16.0 500.0 197.0 16.0 1724.333330 890520.307690 156.0 42.0 841267900.838470 0.0 0.0 0.0 0.0 0.0 0.0 0.0 -3.27680 -3.27680 -3.27680 -3.27680 -3.27680 -3.27680
7.18 7.203080 0.0 86.466670 15.0 0.0960 0.1020 1.0 41.0 200.0 16.0 500.0 197.0 16.0 1722.50 890521.846150 156.0 42.0 841270803.971590 0.0 0.0 0.0 0.0 0.0 0.0 0.0 -3.27680 -3.27680 -3.27680 -3.27680 -3.27680 -3.27680
7.17 7.194680 0.0 86.50 15.003330 0.0960 0.1020 1.0 41.0 200.0 16.0 500.0 197.0 16.0 1720.666670 890523.384620 156.0 42.0 841273707.104720 0.0 0.0 0.0 0.0 0.0 0.0 0.0 -3.27680 -3.27680 -3.27680 -3.27680 -3.27680 -3.27680
7.16 7.182080 0.0 86.550 15.006670 0.0960 0.1020 1.0 41.0 200.0 16.0 500.0 197.0 16.0 1718.833330 890524.923080 156.0 42.0 841276610.237840 0.0 0.0 0.0 0.0 0.0 0.0 0.0 -3.27680 -3.27680 -3.27680 -3.27680 -3.27680 -3.27680
7.15 7.169480 0.0 86.60 15.010 0.0960 0.1020 1.0 41.0 200.0 16.0 500.0 197.0 16.0 1717.0 890526.461540 156.0 42.0 841279513.370970 0.0 0.0 0.0 0.0 0.0 0.0 0.0 -3.27680 -3.27680 -3.27680 -3.27680 -3.27680 -3.27680
7.14 7.161080 0.0 86.633330 15.013330 0.0960 0.1020 1.0 41.0 200.0 16.0 500.0 197.0 16.0 1717.0 890528.0 156.0 42.0 841282416.504090 0.0 0.0 0.0 0.0 0.0 0.0 0.0 -3.27680 -3.27680 -3.27680 -3.27680 -3.27680 -3.27680
7.13 7.152680 0.0 86.666670 15.016670 0.0960 0.1020 1.0 41.0 200.0 16.0 500.0 197.0 16.0 1717.0 890529.833330 156.0 42.0 841285876.152550 0.0 0.0 0.0 0.0 0.0 0.0 0.0 -3.27680 -3.27680 -3.27680 -3.27680 -3.27680 -3.27680
7.12 7.144270 0.0 86.70 15.020 0.0960 0.1020 1.0 41.0 200.0 16.0 500.0 197.0 16.0 1717.0 890531.666670 156.0 42.0 841289335.8010 0.0 0.0 0.0 0.0 0.0 0.0 0.0 -3.27680 -3.27680 -3.27680 -3.27680 -3.27680 -3.27680
7.11 7.131670 0.0 86.750 15.020 0.0960 0.1020 1.0 41.0 200.0 16.0 500.0 197.0 16.0 1717.0 890533.50 156.0 42.0 841292795.449460 0.0 0.0 0.0 0.0 0.0 0.0 0.0 -3.27680 -3.27680 -3.27680 -3.27680 -3.27680 -3.27680
7.10 7.119070 0.0 86.80 15.020 0.0960 0.1020 1.0 41.0 200.0 16.0 500.0 197.0 16.0 1717.0 890535.333330 156.0 42.0 841296255.097910 0.0 0.0 0.0 0.0 0.0 0.0 0.0 -3.27680 -3.27680 -3.27680 -3.27680 -3.27680 -3.27680
7.09 7.110930 0.0 86.833330 15.020 0.0960 0.1020 1.0 41.0 200.0 15.384620 500.0 197.0 15.384620 1717.0 890537.166670 156.0 42.0 841299714.746370 0.0 0.0 0.0 0.0 0.0 0.0 0.0 -3.27680 -3.27680 -3.27680 -3.27680 -3.27680 -3.27680
7.08 7.102790 0.0 86.866670 15.020 0.0960 0.1020 1.0 41.0 200.0 14.769230 500.0 197.0 14.769230 1717.0 890539.0 155.958330 42.0 841303174.394820 0.0 0.0 0.0 0.0 0.0 0.0 0.0 -3.27680 -3.27680 -3.27680 -3.27680 -3.27680 -3.27680
7.07 7.094660 0.0 86.90 15.020 0.0960 0.1020 1.0 41.0 200.0 14.153850 500.0 197.0 14.153850 1717.0 890540.833330 155.916670 42.0 841306634.043280 0.0 0.0 0.0 0.0 0.0 0.0 0.0 -3.27680 -3.27680 -3.27680 -3.27680 -3.27680 -3.27680
7.06 7.082050 0.0 86.950 15.020 0.0960 0.1020 1.0 41.0 200.0 13.538460 500.0 197.0 13.538460 1717.0 890542.666670 155.8750 42.0 841310093.691730 0.0 0.0 0.0 0.0 0.0 0.0 0.0 -3.27680 -3.27680 -3.27680 -3.27680 -3.27680 -3.27680
7.05 7.069450 0.0 87.0 15.020 0.0960 0.1020 1.0 41.0 200.0 12.923080 500.0 197.0 12.923080 1717.0 890544.50 155.833330 42.0 841313553.340190 0.0 0.0 0.0 0.0 0.0 0.0 0.0 -3.27680 -3.27680 -3.27680 -3.27680 -3.27680 -3.27680
7.04 7.061310 0.0 87.033330 15.020 0.0960 0.1020 1.0 41.0 200.0 12.307690 500.0 197.0 12.307690 1717.0 890546.333330 155.791670 42.0 841317012.988640 0.0 0.0 0.0 0.0 0.0 0.0 0.0 -3.27680 -3.27680 -3.27680 -3.27680 -3.27680 -3.27680
7.03 7.053180 0.0 87.066670 15.020 0.0960 0.1020 1.0 41.0 200.0 11.692310 500.0 197.0 11.692310 1717.0 890548.166670 155.750 42.0 841320472.63710 0.0 0.0 0.0 0.0 0.0 0.0 0.0 -3.27680 -3.27680 -3.27680 -3.27680 -3.27680 -3.27680
7.02 7.045040 0.0 87.10 15.020 0.0960 0.1020 1.0 41.0 200.0 11.076920 500.0 197.0 11.076920 1717.0 890550.0 155.708330 42.0 841323932.285550 0.0 0.0 0.0 0.0 0.0 0.0 0.0 -3.27680 -3.27680 -3.27680 -3.27680 -3.27680 -3.27680
7.01 7.032440 0.0 87.150 15.020 0.0960 0.1020 1.0 41.0 200.0 10.461540 500.0 197.0 10.461540 1717.230770 890551.615380 155.666670 42.0 841326980.720630 0.0 0.0 0.0 0.0 0.0 0.0 0.0 -3.27680 -3.27680 -3.27680 -3.27680 -3.27680 -3.27680
7.00 7.019830 0.0 87.20 15.020 0.0960 0.1020 1.0 41.0 200.0 9.846150 500.0 197.0 9.846150 1717.461540 890553.230770 155.6250 42.0 841330029.155710 0.0 0.0 0.0 0.0 0.0 0.0 0.0 -3.27680 -3.27680 -3.27680 -3.27680 -3.27680 -3.27680
6.99 7.007230 0.0 87.250 15.020 0.0960 0.1020 1.0 41.0 200.0 9.230770 500.0 197.0 9.230770 1717.692310 890554.846150 155.583330 42.0 841333077.59080 0.0 0.0 0.0 0.0 0.0 0.0 0.0 -3.27680 -3.27680 -3.27680 -3.27680 -3.27680 -3.27680
6.98 6.994630 0.0 87.30 15.020 0.0960 0.1020 1.0 41.0 200.0 8.615380 500.0 197.0 8.615380 1717.923080 890556.461540 155.541670 42.0 841336126.025880 0.0 0.0 0.0 0.0 0.0 0.0 0.0 -3.27680 -3.27680 -3.27680 -3.27680 -3.27680 -3.27680
6.97 6.986490 0.0 87.333330 15.0140 0.0960 0.1020 1.0 41.0 200.0 8.0 500.0 197.0 8.0 1718.153850 890558.076920 155.50 42.0 841339174.460960 0.0 0.0 0.0 0.0 0.0 0.0 0.0 -3.27680 -3.27680 -3.27680 -3.27680 -3.27680 -3.27680
6.96 6.978350 0.0 87.366670 15.0080 0.0960 0.1020 1.0 41.0 200.0 8.50 500.0 197.0 8.50 1718.384620 890559.692310 155.458330 42.0 841342222.896040 0.0 0.0 0.0 0.0 0.0 0.0 0.0 -3.27680 -3.27680 -3.27680 -3.27680 -3.27680 -3.27680
6.95 6.970220 0.0 87.40 15.0020 0.0960 0.1020 1.0 41.0 200.0 9.0 500.0 197.0 9.0 1718.615380 890561.307690 155.416670 42.0 841345271.331120 0.0 0.0 0.0 0.0 0.0 0.0 0.0 -3.27680 -3.27680 -3.27680 -3.27680 -3.27680 -3.27680
6.94 6.961810 0.0 87.433330 14.9960 0.0960 0.1020 1.0 41.0 200.0 9.50 500.0 197.0 9.50 1718.846150 890562.923080 155.3750 42.0 841348319.76620 0.0 0.0 0.0 0.0 0.0 0.0 0.0 -3.27680 -3.27680 -3.27680 -3.27680 -3.27680 -3.27680
6.93 6.953410 0.0 87.466670 14.990 0.0960 0.1020 1.0 41.0 200.0 10.0 500.0 197.0 10.0 1719.076920 890564.538460 155.333330 42.0 841351368.201280 0.0 0.0 0.0 0.0 0.0 0.0 0.0 -3.27680 -3.27680 -3.27680 -3.27680 -3.27680 -3.27680
6.92 6.945010 0.0 87.50 14.9840 0.0960 0.1020 1.0 40.923080 200.0 10.50 500.0 197.0 10.50 1719.307690 890566.153850 155.291670 42.0 841354416.636360 0.0 0.0 0.0 0.0 0.0 0.0 0.0 -3.27680 -3.27680 -3.27680 -3.27680 -3.27680 -3.27680
6.91 6.932410 0.0 87.550 14.9780 0.0960 0.1020 1.0 40.846150 200.0 11.0 500.0 197.0 11.0 1719.538460 890567.769230 155.250 42.0 841357465.071440 0.0 0.0 0.0 0.0 0.0 0.0 0.0 -3.27680 -3.27680 -3.27680 -3.27680 -3.27680 -3.27680
6.90 6.919810 0.0 87.60 14.9720 0.0960 0.1020 1.0 40.769230 200.0 11.50 500.0 197.0 11.50 1719.769230 890569.384620 155.208330 42.0 841360513.506520 0.0 0.0 0.0 0.0 0.0 0.0 0.0 -3.27680 -3.27680 -3.27680 -3.27680 -3.27680 -3.27680
6.89 6.90760 0.0 87.650 14.9660 0.0960 0.1020 1.0 40.692310 200.0 12.0 500.0 197.0 12.0 1720.0 890571.0 155.166670 42.0 841363561.94160 0.0 0.0 0.0 0.0 0.0 0.0 0.0 -3.27680 -3.27680 -3.27680 -3.27680 -3.27680 -3.27680
