~VERSION INFORMATION SECTION
VERS. 2.0 : CWLS LAS-VERSION 2.0
WRAP. NO : One line per depth step
~WELL INFORMATION SECTION
# MNEM.UNIT VALUE/NAME DESCRIPTION
#-------- -------------- ---------------------
STRT.Metres 25 : Start
STOP.Metres -2.12 : Stop
STEP.Metres -0.01 : Step
NULL.  -999.25 :NULL VALUE
DATE. 2026-13-09 : DATE
~CURVE INFORMATION SECTION
DEPTH.Metres : 0 Depth
Depth. : 1 Depth
Tension. : 2 Tension
Time. : 3 Time
Speed. : 4 Speed
Voltage. : 5 Voltage
Current. : 6 Current
WET. : 7 WET
Sig. : 8 Sig
Vth. : 9 Vth
GR.CPS : 10 GR
Timebase.ms : 11 Timebase
HeadVoltage.V : 12 Head Voltage
API.API : 13 API
Conductivity.uS : 14 Conductivity
PT100.Ohms : 15 PT100
Vmon.mV : 16 Vmon
Status. : 17 Status
Temperature.C : 18 Temperature
Incline.Deg : 19 Incline
Azimuth.Deg : 20 Azimuth
RelativeBearing.Deg : 21 Relative Bearing
MagneticToolFace.Deg : 22 Magnetic Tool Face
GravityMagnitude.G : 23 Gravity Magnitude
MagnetometerMagnitude.H : 24 Magnetometer Magnitude
Temperature.C : 25 Temperature
GX. : 26 GX
GY. : 27 GY
GZ. : 28 GZ
HX. : 29 HX
HY. : 30 HY
HZ. : 31 HZ
~PARAMETER INFORMATION SECTION
~OTHER
#-------------------------------------------------
#Produced By: GeoVista Logger - Version 7.1.107.0
Verticality Sonde - 9605
Temperature and Conductivity Sonde - Inline - 8974
Natural Gamma Sonde - 9931
WLIS - 10021
#-------------------------------------------------
~ASCII LOG DATA
# ...
13.93 13.945940 0.0 59.50 14.990 0.0960 0.1020 1.0 36.0 200.0 26.0 500.0 196.0 26.0 2043.0 889580.692310 158.0 42.0 839495741.897850 0.0 0.0 0.0 0.0 0.0 0.0 0.0 -3.27680 -3.27680 -3.27680 -3.27680 -3.27680 -3.27680
13.92 13.937540 0.0 59.533330 14.9960 0.0960 0.1020 1.0 36.076920 200.0 27.0 500.0 196.0 27.0 2041.666670 889581.769230 158.0 42.0 839497771.948590 0.0 0.0 0.0 0.0 0.0 0.0 0.0 -3.27680 -3.27680 -3.27680 -3.27680 -3.27680 -3.27680
13.91 13.929140 0.0 59.566670 15.0020 0.0960 0.1020 1.0 36.153850 200.0 28.0 500.0 196.0 28.0 2040.333330 889582.846150 158.0 42.0 839499801.999330 0.0 0.0 0.0 0.0 0.0 0.0 0.0 -3.27680 -3.27680 -3.27680 -3.27680 -3.27680 -3.27680
13.90 13.920740 0.0 59.60 15.0080 0.0960 0.1020 1.0 36.230770 200.0 29.0 500.0 196.0 29.0 2039.0 889583.923080 158.0 42.0 839501832.050070 0.0 0.0 0.0 0.0 0.0 0.0 0.0 -3.27680 -3.27680 -3.27680 -3.27680 -3.27680 -3.27680
13.89 13.908530 0.0 59.650 15.0140 0.0960 0.1020 1.0 36.307690 200.0 30.0 500.0 196.0 30.0 2038.153850 889585.0 158.0 42.0 839503862.100810 0.0 0.0 0.0 0.0 0.0 0.0 0.0 -3.27680 -3.27680 -3.27680 -3.27680 -3.27680 -3.27680
13.88 13.896330 0.0 59.70 15.020 0.0960 0.1020 1.0 36.384620 200.0 31.0 500.0 196.083330 31.0 2037.307690 889585.916670 158.0 42.0 839505590.084920 0.0 0.0 0.0 0.0 0.0 0.0 0.0 -3.27680 -3.27680 -3.27680 -3.27680 -3.27680 -3.27680
13.87 13.888190 0.0 59.733330 15.020 0.0960 0.1020 1.0 36.461540 200.0 32.0 500.0 196.166670 32.0 2036.461540 889586.833330 158.0 42.0 839507318.069020 0.0 0.0 0.0 0.0 0.0 0.0 0.0 -3.27680 -3.27680 -3.27680 -3.27680 -3.27680 -3.27680
13.86 13.880050 0.0 59.766670 15.020 0.0960 0.1020 1.0 36.538460 200.0 33.0 500.0 196.250 33.0 2035.615380 889587.750 158.0 42.0 839509046.053130 0.0 0.0 0.0 0.0 0.0 0.0 0.0 -3.27680 -3.27680 -3.27680 -3.27680 -3.27680 -3.27680
13.85 13.871910 0.0 59.80 15.020 0.0960 0.1020 1.0 36.615380 200.0 34.0 500.0 196.333330 34.0 2034.769230 889588.666670 158.0 42.0 839510774.037230 0.0 0.0 0.0 0.0 0.0 0.0 0.0 -3.27680 -3.27680 -3.27680 -3.27680 -3.27680 -3.27680
13.84 13.859310 0.0 59.850 15.020 0.0960 0.1020 1.0 36.692310 200.0 33.384620 500.0 196.416670 33.384620 2033.923080 889589.583330 158.0 42.0 839512502.021340 0.0 0.0 0.0 0.0 0.0 0.0 0.0 -3.27680 -3.27680 -3.27680 -3.27680 -3.27680 -3.27680
13.83 13.846710 0.0 59.90 15.020 0.0960 0.1020 1.0 36.769230 200.0 32.769230 500.0 196.50 32.769230 2033.076920 889590.50 158.0 42.0 839514230.005450 0.0 0.0 0.0 0.0 0.0 0.0 0.0 -3.27680 -3.27680 -3.27680 -3.27680 -3.27680 -3.27680
13.82 13.838310 0.0 59.933330 15.020 0.0960 0.1020 1.0 36.846150 200.0 32.153850 500.0 196.583330 32.153850 2032.230770 889591.416670 158.0 42.0 839515957.989550 0.0 0.0 0.0 0.0 0.0 0.0 0.0 -3.27680 -3.27680 -3.27680 -3.27680 -3.27680 -3.27680
13.81 13.829910 0.0 59.966670 15.020 0.0960 0.1020 1.0 36.923080 200.0 31.538460 500.0 196.666670 31.538460 2031.384620 889592.333330 158.0 42.0 839517685.973660 0.0 0.0 0.0 0.0 0.0 0.0 0.0 -3.27680 -3.27680 -3.27680 -3.27680 -3.27680 -3.27680
13.80 13.82150 0.0 60.0 15.020 0.0960 0.1020 1.0 37.0 200.0 30.923080 500.0 196.750 30.923080 2030.538460 889593.250 158.0 42.0 839519413.957760 0.0 0.0 0.0 0.0 0.0 0.0 0.0 -3.27680 -3.27680 -3.27680 -3.27680 -3.27680 -3.27680
13.79 13.80930 0.0 60.050 15.020 0.0960 0.1020 1.0 37.083330 200.0 30.307690 500.0 196.833330 30.307690 2029.692310 889594.166670 158.0 42.0 839521141.941870 0.0 0.0 0.0 0.0 0.0 0.0 0.0 -3.27680 -3.27680 -3.27680 -3.27680 -3.27680 -3.27680
13.78 13.797090 0.0 60.10 15.020 0.0960 0.1020 1.0 37.166670 200.0 29.692310 500.0 196.916670 29.692310 2028.846150 889595.083330 158.0 42.0 839522869.925980 0.0 0.0 0.0 0.0 0.0 0.0 0.0 -3.27680 -3.27680 -3.27680 -3.27680 -3.27680 -3.27680
13.77 13.788690 0.0 60.133330 15.020 0.0960 0.1020 1.0 37.250 200.0 29.076920 500.0 197.0 29.076920 2028.0 889596.0 158.0 42.0 839524597.910080 0.0 0.0 0.0 0.0 0.0 0.0 0.0 -3.27680 -3.27680 -3.27680 -3.27680 -3.27680 -3.27680
13.76 13.780290 0.0 60.166670 15.020 0.0960 0.1020 1.0 37.333330 200.0 28.461540 500.0 197.0 28.461540 2027.416670 889596.538460 158.0 42.0 839525612.959950 0.0 0.0 0.0 0.0 0.0 0.0 0.0 -3.27680 -3.27680 -3.27680 -3.27680 -3.27680 -3.27680
13.75 13.771890 0.0 60.20 15.020 0.0960 0.1020 1.0 37.416670 200.0 27.846150 500.0 197.0 27.846150 2026.833330 889597.076920 158.0 42.0 839526628.009820 0.0 0.0 0.0 0.0 0.0 0.0 0.0 -3.27680 -3.27680 -3.27680 -3.27680 -3.27680 -3.27680
13.74 13.759280 0.0 60.250 15.020 0.0960 0.1020 1.0 37.50 200.0 27.230770 500.0 197.0 27.230770 2026.250 889597.615380 158.0 42.0 839527643.05970 0.0 0.0 0.0 0.0 0.0 0.0 0.0 -3.27680 -3.27680 -3.27680 -3.27680 -3.27680 -3.27680
13.73 13.746680 0.0 60.30 15.020 0.0960 0.1020 1.0 37.583330 200.0 26.615380 500.0 197.0 26.615380 2025.666670 889598.153850 158.0 42.0 839528658.109570 0.0 0.0 0.0 0.0 0.0 0.0 0.0 -3.27680 -3.27680 -3.27680 -3.27680 -3.27680 -3.27680
13.72 13.738540 0.0 60.333330 15.0140 0.0960 0.1020 1.0 37.666670 200.0 26.0 500.0 197.0 26.0 2025.083330 889598.692310 158.0 42.0 839529673.159440 0.0 0.0 0.0 0.0 0.0 0.0 0.0 -3.27680 -3.27680 -3.27680 -3.27680 -3.27680 -3.27680
13.71 13.730410 0.0 60.366670 15.0080 0.0960 0.1020 1.0 37.750 200.0 27.50 500.0 197.0 27.50 2024.50 889599.230770 158.083330 42.0 839530688.209310 0.0 0.0 0.0 0.0 0.0 0.0 0.0 -3.27680 -3.27680 -3.27680 -3.27680 -3.27680 -3.27680
13.70 13.722270 0.0 60.40 15.0020 0.0960 0.1020 1.0 37.833330 200.0 29.0 500.0 197.0 29.0 2023.916670 889599.769230 158.166670 42.0 839531703.259180 0.0 0.0 0.0 0.0 0.0 0.0 0.0 -3.27680 -3.27680 -3.27680 -3.27680 -3.27680 -3.27680
13.69 13.709670 0.0 60.450 14.9960 0.0960 0.1020 1.0 37.916670 200.0 30.50 500.0 197.0 30.50 2023.333330 889600.307690 158.250 42.0 839532718.309050 0.0 0.0 0.0 0.0 0.0 0.0 0.0 -3.27680 -3.27680 -3.27680 -3.27680 -3.27680 -3.27680
13.68 13.697060 0.0 60.50 14.990 0.0960 0.1020 1.0 38.0 200.0 32.0 500.0 197.0 32.0 2022.750 889600.846150 158.333330 42.0 839533733.358920 0.0 0.0 0.0 0.0 0.0 0.0 0.0 -3.27680 -3.27680 -3.27680 -3.27680 -3.27680 -3.27680
13.67 13.688660 0.0 60.533330 14.9840 0.0960 0.1020 1.0 38.076920 200.0 33.50 500.0 197.0 33.50 2022.166670 889601.384620 158.416670 42.0 839534748.408790 0.0 0.0 0.0 0.0 0.0 0.0 0.0 -3.27680 -3.27680 -3.27680 -3.27680 -3.27680 -3.27680
13.66 13.680260 0.0 60.566670 14.9780 0.0960 0.1020 1.0 38.153850 200.0 35.0 500.0 197.0 35.0 2021.583330 889601.923080 158.50 42.0 839535763.458660 0.0 0.0 0.0 0.0 0.0 0.0 0.0 -3.27680 -3.27680 -3.27680 -3.27680 -3.27680 -3.27680
13.65 13.671860 0.0 60.60 14.9720 0.0960 0.1020 1.0 38.230770 200.0 36.50 500.0 197.0 36.50 2021.0 889602.461540 158.583330 42.0 839536778.508540 0.0 0.0 0.0 0.0 0.0 0.0 0.0 -3.27680 -3.27680 -3.27680 -3.27680 -3.27680 -3.27680
13.64 13.659260 0.0 60.650 14.9660 0.0960 0.1020 1.0 38.307690 200.0 38.0 500.0 197.0 38.0 2020.0 889603.0 158.666670 42.0 839537793.558410 0.0 0.0 0.0 0.0 0.0 0.0 0.0 -3.27680 -3.27680 -3.27680 -3.27680 -3.27680 -3.27680
13.63 13.646660 0.0 60.70 14.960 0.0960 0.1020 1.0 38.384620 200.0 39.50 500.0 197.0 39.50 2019.0 889604.083330 158.750 42.0 839539835.7650 0.0 0.0 0.0 0.0 0.0 0.0 0.0 -3.27680 -3.27680 -3.27680 -3.27680 -3.27680 -3.27680
13.62 13.638520 0.0 60.733330 14.9540 0.0960 0.1020 1.0 38.461540 200.0 41.0 500.0 197.0 41.0 2018.0 889605.166670 158.833330 42.0 839541877.97160 0.0 0.0 0.0 0.0 0.0 0.0 0.0 -3.27680 -3.27680 -3.27680 -3.27680 -3.27680 -3.27680
13.61 13.630380 0.0 60.766670 14.9480 0.0960 0.1020 1.0 38.538460 200.0 42.50 500.0 197.0 42.50 2017.0 889606.250 158.916670 42.0 839543920.17820 0.0 0.0 0.0 0.0 0.0 0.0 0.0 -3.27680 -3.27680 -3.27680 -3.27680 -3.27680 -3.27680
13.60 13.622240 0.0 60.80 14.9420 0.0960 0.1020 1.0 38.615380 200.0 44.0 500.0 197.0 44.0 2016.0 889607.333330 159.0 42.0 839545962.384790 0.0 0.0 0.0 0.0 0.0 0.0 0.0 -3.27680 -3.27680 -3.27680 -3.27680 -3.27680 -3.27680
13.59 13.609640 0.0 60.850 14.9360 0.0960 0.1020 1.0 38.692310 200.0 43.538460 500.0 197.0 43.538460 2015.0 889608.416670 158.923080 42.0 839548004.591390 0.0 0.0 0.0 0.0 0.0 0.0 0.0 -3.27680 -3.27680 -3.27680 -3.27680 -3.27680 -3.27680
