~VERSION INFORMATION SECTION
VERS. 2.0 : CWLS LAS-VERSION 2.0
WRAP. NO : One line per depth step
~WELL INFORMATION SECTION
# MNEM.UNIT VALUE/NAME DESCRIPTION
#-------- -------------- ---------------------
STRT.Metres 26 : Start
STOP.Metres -2.05 : Stop
STEP.Metres -0.01 : Step
NULL.  -999.25 :NULL VALUE
DATE. 2026-48-09 : DATE
~CURVE INFORMATION SECTION
DEPTH.Metres : 0 Depth
Depth. : 1 Depth
Tension. : 2 Tension
Time. : 3 Time
Speed. : 4 Speed
Voltage. : 5 Voltage
Current. : 6 Current
WET. : 7 WET
Sig. : 8 Sig
Vth. : 9 Vth
GR.CPS : 10 GR
Timebase.ms : 11 Timebase
HeadVoltage.V : 12 Head Voltage
API.API : 13 API
Conductivity.uS : 14 Conductivity
PT100.Ohms : 15 PT100
Vmon.mV : 16 Vmon
Status. : 17 Status
Temperature.C : 18 Temperature
Incline.Deg : 19 Incline
Azimuth.Deg : 20 Azimuth
RelativeBearing.Deg : 21 Relative Bearing
MagneticToolFace.Deg : 22 Magnetic Tool Face
GravityMagnitude.G : 23 Gravity Magnitude
MagnetometerMagnitude.H : 24 Magnetometer Magnitude
Temperature.C : 25 Temperature
GX. : 26 GX
GY. : 27 GY
GZ. : 28 GZ
HX. : 29 HX
HY. : 30 HY
HZ. : 31 HZ
~PARAMETER INFORMATION SECTION
~OTHER
#-------------------------------------------------
#Produced By: GeoVista Logger - Version 7.1.107.0
Verticality Sonde - 9605
Temperature and Conductivity Sonde - Inline - 8974
Natural Gamma Sonde - 9931
WLIS - 10021
#-------------------------------------------------
~ASCII LOG DATA
# ...
14.52 14.543470 0.0 56.666670 14.996670 0.0960 0.1020 1.0 26.0 200.0 18.307690 505.0 197.0 18.307690 2942.750 889518.923080 149.692310 41.0 839379307.639760 0.0 0.0 0.0 0.0 0.0 0.0 0.0 -3.27680 -3.27680 -3.27680 -3.27680 -3.27680 -3.27680
14.51 14.535070 0.0 56.70 14.993330 0.0960 0.1020 1.0 26.0 200.0 17.230770 505.833330 197.0 17.230770 2940.50 889519.846150 149.769230 41.0 839381047.577750 0.0 0.0 0.0 0.0 0.0 0.0 0.0 -3.27680 -3.27680 -3.27680 -3.27680 -3.27680 -3.27680
14.50 14.522460 0.0 56.750 14.990 0.0960 0.1020 1.0 26.0 200.0 16.153850 506.666670 197.0 16.153850 2938.250 889520.769230 149.846150 41.0 839382787.515750 0.0 0.0 0.0 0.0 0.0 0.0 0.0 -3.27680 -3.27680 -3.27680 -3.27680 -3.27680 -3.27680
14.49 14.509860 0.0 56.80 14.986670 0.0960 0.1020 1.0 26.0 200.0 15.076920 507.50 197.0 15.076920 2936.0 889521.692310 149.923080 41.0 839384527.453750 0.0 0.0 0.0 0.0 0.0 0.0 0.0 -3.27680 -3.27680 -3.27680 -3.27680 -3.27680 -3.27680
14.48 14.501460 0.0 56.833330 14.983330 0.0960 0.1020 1.0 26.0 200.0 14.0 508.333330 197.0 14.0 2933.750 889522.615380 150.0 41.0 839386267.391740 0.0 0.0 0.0 0.0 0.0 0.0 0.0 -3.27680 -3.27680 -3.27680 -3.27680 -3.27680 -3.27680
14.47 14.493060 0.0 56.866670 14.980 0.0960 0.1020 1.0 26.0 200.0 14.467320 509.166670 197.0 14.467320 2931.50 889523.538460 150.0 41.0 839388007.329740 0.0 0.0 0.0 0.0 0.0 0.0 0.0 -3.27680 -3.27680 -3.27680 -3.27680 -3.27680 -3.27680
14.46 14.484660 0.0 56.90 14.976670 0.0960 0.1020 1.0 26.0 200.0 14.934640 510.0 197.0 14.934640 2929.250 889524.461540 150.0 41.0 839389747.267740 0.0 0.0 0.0 0.0 0.0 0.0 0.0 -3.27680 -3.27680 -3.27680 -3.27680 -3.27680 -3.27680
14.45 14.472060 0.0 56.950 14.973330 0.0960 0.1020 1.0 26.0 200.0 15.401960 509.166670 197.0 15.401960 2927.0 889525.384620 150.0 41.0 839391487.205730 0.0 0.0 0.0 0.0 0.0 0.0 0.0 -3.27680 -3.27680 -3.27680 -3.27680 -3.27680 -3.27680
14.44 14.459460 0.0 57.0 14.970 0.0960 0.1020 1.0 26.0 200.0 15.869280 508.333330 197.0 15.869280 2924.750 889526.307690 150.0 41.0 839393227.143730 0.0 0.0 0.0 0.0 0.0 0.0 0.0 -3.27680 -3.27680 -3.27680 -3.27680 -3.27680 -3.27680
14.43 14.451060 0.0 57.033330 14.976670 0.0960 0.1020 1.0 26.0 200.0 16.33660 507.50 197.0 16.33660 2922.50 889527.230770 150.0 41.0 839394967.081730 0.0 0.0 0.0 0.0 0.0 0.0 0.0 -3.27680 -3.27680 -3.27680 -3.27680 -3.27680 -3.27680
14.42 14.442650 0.0 57.066670 14.983330 0.0960 0.1020 1.0 26.0 200.0 16.803920 506.666670 197.0 16.803920 2920.250 889528.153850 150.0 41.0 839396707.019720 0.0 0.0 0.0 0.0 0.0 0.0 0.0 -3.27680 -3.27680 -3.27680 -3.27680 -3.27680 -3.27680
14.41 14.434250 0.0 57.10 14.990 0.0960 0.1020 1.0 26.0 200.0 17.271240 505.833330 197.0 17.271240 2918.0 889529.076920 150.0 41.0 839398446.957720 0.0 0.0 0.0 0.0 0.0 0.0 0.0 -3.27680 -3.27680 -3.27680 -3.27680 -3.27680 -3.27680
14.40 14.421650 0.0 57.150 14.996670 0.0960 0.1020 1.0 26.0 200.0 17.738560 505.0 197.0 17.738560 2914.384620 889530.0 150.0 41.0 839400186.895720 0.0 0.0 0.0 0.0 0.0 0.0 0.0 -3.27680 -3.27680 -3.27680 -3.27680 -3.27680 -3.27680
14.39 14.409050 0.0 57.20 15.003330 0.0960 0.1020 1.0 26.0 200.0 18.205880 504.166670 197.0 18.205880 2910.769230 889530.750 150.0 41.0 839401600.6120 0.0 0.0 0.0 0.0 0.0 0.0 0.0 -3.27680 -3.27680 -3.27680 -3.27680 -3.27680 -3.27680
14.38 14.400910 0.0 57.233330 15.010 0.0960 0.1020 1.0 26.0 200.0 18.67320 503.333330 197.0 18.67320 2907.153850 889531.50 150.0 41.0 839403014.328290 0.0 0.0 0.0 0.0 0.0 0.0 0.0 -3.27680 -3.27680 -3.27680 -3.27680 -3.27680 -3.27680
14.37 14.392770 0.0 57.266670 15.016670 0.0960 0.1020 1.0 26.0 200.0 19.140520 502.50 197.0 19.140520 2903.538460 889532.250 150.0 41.0 839404428.044580 0.0 0.0 0.0 0.0 0.0 0.0 0.0 -3.27680 -3.27680 -3.27680 -3.27680 -3.27680 -3.27680
14.36 14.384640 0.0 57.30 15.023330 0.0960 0.1020 1.0 26.0 200.0 19.607840 501.666670 197.0 19.607840 2899.923080 889533.0 150.0 41.0 839405841.760870 0.0 0.0 0.0 0.0 0.0 0.0 0.0 -3.27680 -3.27680 -3.27680 -3.27680 -3.27680 -3.27680
14.35 14.371640 0.0 57.350 15.030 0.0960 0.1020 1.0 26.0 200.0 20.307190 500.833330 197.0 20.307190 2896.307690 889533.750 150.0 41.0 839407255.477160 0.0 0.0 0.0 0.0 0.0 0.0 0.0 -3.27680 -3.27680 -3.27680 -3.27680 -3.27680 -3.27680
14.34 14.358640 0.0 57.40 15.036670 0.0960 0.1020 1.0 26.0 200.0 21.006540 500.0 197.0 21.006540 2892.692310 889534.50 150.0 41.0 839408669.193450 0.0 0.0 0.0 0.0 0.0 0.0 0.0 -3.27680 -3.27680 -3.27680 -3.27680 -3.27680 -3.27680
14.33 14.350510 0.0 57.433330 15.043330 0.0960 0.1020 1.0 26.0 200.0 21.705880 500.0 197.0 21.705880 2889.076920 889535.250 150.0 41.0 839410082.909740 0.0 0.0 0.0 0.0 0.0 0.0 0.0 -3.27680 -3.27680 -3.27680 -3.27680 -3.27680 -3.27680
14.32 14.342370 0.0 57.466670 15.050 0.0960 0.1020 1.0 26.0 200.0 22.405230 500.0 197.0 22.405230 2885.461540 889536.0 150.0 41.0 839411496.626030 0.0 0.0 0.0 0.0 0.0 0.0 0.0 -3.27680 -3.27680 -3.27680 -3.27680 -3.27680 -3.27680
14.31 14.334230 0.0 57.50 15.056670 0.0960 0.1020 1.0 26.0 200.0 23.104580 500.0 197.0 23.104580 2881.846150 889536.750 150.0 41.0 839412910.342310 0.0 0.0 0.0 0.0 0.0 0.0 0.0 -3.27680 -3.27680 -3.27680 -3.27680 -3.27680 -3.27680
14.30 14.322020 0.0 57.550 15.063330 0.0960 0.1020 1.0 26.166670 200.0 23.803920 500.0 197.0 23.803920 2878.230770 889537.50 150.0 41.0 839414324.05860 0.0 0.0 0.0 0.0 0.0 0.0 0.0 -3.27680 -3.27680 -3.27680 -3.27680 -3.27680 -3.27680
14.29 14.309810 0.0 57.60 15.070 0.0960 0.1020 1.0 26.333330 200.0 24.503270 500.0 197.0 24.503270 2874.615380 889538.250 150.0 41.0 839415737.774890 0.0 0.0 0.0 0.0 0.0 0.0 0.0 -3.27680 -3.27680 -3.27680 -3.27680 -3.27680 -3.27680
14.28 14.297210 0.0 57.650 15.057330 0.0960 0.1020 1.0 26.50 200.0 25.202610 500.0 197.0 25.202610 2871.0 889539.0 150.0 41.0 839417151.491180 0.0 0.0 0.0 0.0 0.0 0.0 0.0 -3.27680 -3.27680 -3.27680 -3.27680 -3.27680 -3.27680
14.27 14.284610 0.0 57.70 15.044670 0.0960 0.1020 1.0 26.666670 200.0 25.901960 500.0 197.0 25.901960 2866.083330 889540.0 150.0 41.0 839419036.469510 0.0 0.0 0.0 0.0 0.0 0.0 0.0 -3.27680 -3.27680 -3.27680 -3.27680 -3.27680 -3.27680
14.26 14.276470 0.0 57.733330 15.0320 0.0960 0.1020 1.0 26.833330 200.0 26.601310 500.0 197.0 26.601310 2861.166670 889541.0 150.0 41.0 839420921.447850 0.0 0.0 0.0 0.0 0.0 0.0 0.0 -3.27680 -3.27680 -3.27680 -3.27680 -3.27680 -3.27680
14.25 14.268330 0.0 57.766670 15.019330 0.0960 0.1020 1.0 27.0 200.0 27.300650 500.0 197.0 27.300650 2856.250 889542.0 150.0 41.0 839422806.426180 0.0 0.0 0.0 0.0 0.0 0.0 0.0 -3.27680 -3.27680 -3.27680 -3.27680 -3.27680 -3.27680
14.24 14.26020 0.0 57.80 15.006670 0.0960 0.1020 1.0 27.166670 200.0 28.0 500.0 197.0 28.0 2851.333330 889543.0 150.0 41.0 839424691.404510 0.0 0.0 0.0 0.0 0.0 0.0 0.0 -3.27680 -3.27680 -3.27680 -3.27680 -3.27680 -3.27680
14.23 14.251790 0.0 57.833330 14.9940 0.0960 0.1020 1.0 27.333330 200.0 27.230770 500.0 197.0 27.230770 2846.416670 889544.0 150.0 41.0 839426576.382840 0.0 0.0 0.0 0.0 0.0 0.0 0.0 -3.27680 -3.27680 -3.27680 -3.27680 -3.27680 -3.27680
14.22 14.243390 0.0 57.866670 14.981330 0.0960 0.1020 1.0 27.50 200.0 26.461540 500.0 197.0 26.461540 2841.50 889545.0 150.0 41.0 839428461.361170 0.0 0.0 0.0 0.0 0.0 0.0 0.0 -3.27680 -3.27680 -3.27680 -3.27680 -3.27680 -3.27680
14.21 14.234990 0.0 57.90 14.968670 0.0960 0.1020 1.0 27.666670 200.0 25.692310 500.0 197.0 25.692310 2836.583330 889546.0 150.0 41.0 839430346.339510 0.0 0.0 0.0 0.0 0.0 0.0 0.0 -3.27680 -3.27680 -3.27680 -3.27680 -3.27680 -3.27680
14.20 14.222390 0.0 57.950 14.9560 0.0960 0.1020 1.0 27.833330 200.0 24.923080 500.0 197.0 24.923080 2831.666670 889547.0 150.0 41.0 839432231.317840 0.0 0.0 0.0 0.0 0.0 0.0 0.0 -3.27680 -3.27680 -3.27680 -3.27680 -3.27680 -3.27680
14.19 14.209790 0.0 58.0 14.943330 0.0960 0.1020 1.0 28.0 200.0 24.153850 500.0 197.0 24.153850 2826.750 889548.0 150.0 41.0 839434116.296170 0.0 0.0 0.0 0.0 0.0 0.0 0.0 -3.27680 -3.27680 -3.27680 -3.27680 -3.27680 -3.27680
14.18 14.197580 0.0 58.050 14.930670 0.0960 0.1020 1.0 28.0 200.0 23.384620 500.0 197.0 23.384620 2821.833330 889549.0 150.0 41.0 839436001.27450 0.0 0.0 0.0 0.0 0.0 0.0 0.0 -3.27680 -3.27680 -3.27680 -3.27680 -3.27680 -3.27680
