~VERSION INFORMATION SECTION
VERS. 2.0 : CWLS LAS-VERSION 2.0
WRAP. NO : One line per depth step
~WELL INFORMATION SECTION
# MNEM.UNIT VALUE/NAME DESCRIPTION
#-------- -------------- ---------------------
STRT.Metres 26 : Start
STOP.Metres -2.05 : Stop
STEP.Metres -0.01 : Step
NULL.  -999.25 :NULL VALUE
DATE. 2026-48-09 : DATE
~CURVE INFORMATION SECTION
DEPTH.Metres : 0 Depth
Depth. : 1 Depth
Tension. : 2 Tension
Time. : 3 Time
Speed. : 4 Speed
Voltage. : 5 Voltage
Current. : 6 Current
WET. : 7 WET
Sig. : 8 Sig
Vth. : 9 Vth
GR.CPS : 10 GR
Timebase.ms : 11 Timebase
HeadVoltage.V : 12 Head Voltage
API.API : 13 API
Conductivity.uS : 14 Conductivity
PT100.Ohms : 15 PT100
Vmon.mV : 16 Vmon
Status. : 17 Status
Temperature.C : 18 Temperature
Incline.Deg : 19 Incline
Azimuth.Deg : 20 Azimuth
RelativeBearing.Deg : 21 Relative Bearing
MagneticToolFace.Deg : 22 Magnetic Tool Face
GravityMagnitude.G : 23 Gravity Magnitude
MagnetometerMagnitude.H : 24 Magnetometer Magnitude
Temperature.C : 25 Temperature
GX. : 26 GX
GY. : 27 GY
GZ. : 28 GZ
HX. : 29 HX
HY. : 30 HY
HZ. : 31 HZ
~PARAMETER INFORMATION SECTION
~OTHER
#-------------------------------------------------
#Produced By: GeoVista Logger - Version 7.1.107.0
Verticality Sonde - 9605
Temperature and Conductivity Sonde - Inline - 8974
Natural Gamma Sonde - 9931
WLIS - 10021
#-------------------------------------------------
~ASCII LOG DATA
# ...
7.42 7.44330 0.0 85.066670 14.980 0.0960 0.1020 1.0 42.0 200.0 15.846150 503.333330 197.0 15.846150 1873.307690 890336.666670 153.0 41.0 840921398.224830 0.0 0.0 0.0 0.0 0.0 0.0 0.0 -3.27680 -3.27680 -3.27680 -3.27680 -3.27680 -3.27680
7.41 7.43490 0.0 85.10 14.976670 0.0960 0.1020 1.0 42.0 200.0 15.538460 504.166670 197.0 15.538460 1872.0 890338.0 153.0 41.0 840923913.743020 0.0 0.0 0.0 0.0 0.0 0.0 0.0 -3.27680 -3.27680 -3.27680 -3.27680 -3.27680 -3.27680
7.40 7.42230 0.0 85.150 14.973330 0.0960 0.1020 1.0 42.0 200.0 15.230770 505.0 197.0 15.230770 1872.0 890339.692310 153.0 41.0 840927106.584170 0.0 0.0 0.0 0.0 0.0 0.0 0.0 -3.27680 -3.27680 -3.27680 -3.27680 -3.27680 -3.27680
7.39 7.409690 0.0 85.20 14.970 0.0960 0.1020 1.0 42.0 200.0 14.923080 505.833330 197.0 14.923080 1872.0 890341.384620 153.0 41.0 840930299.425320 0.0 0.0 0.0 0.0 0.0 0.0 0.0 -3.27680 -3.27680 -3.27680 -3.27680 -3.27680 -3.27680
7.38 7.397090 0.0 85.250 14.970 0.0960 0.1020 1.0 42.0 200.0 14.615380 506.666670 197.0 14.615380 1872.0 890343.076920 153.0 41.0 840933492.266460 0.0 0.0 0.0 0.0 0.0 0.0 0.0 -3.27680 -3.27680 -3.27680 -3.27680 -3.27680 -3.27680
7.37 7.384490 0.0 85.30 14.970 0.0960 0.1020 1.0 42.0 200.0 14.307690 507.50 197.0 14.307690 1872.0 890344.769230 153.0 41.0 840936685.107610 0.0 0.0 0.0 0.0 0.0 0.0 0.0 -3.27680 -3.27680 -3.27680 -3.27680 -3.27680 -3.27680
7.36 7.376350 0.0 85.333330 14.970 0.0960 0.1020 1.0 42.0 200.0 14.0 508.333330 197.0 14.0 1872.0 890346.461540 153.0 41.0 840939877.948760 0.0 0.0 0.0 0.0 0.0 0.0 0.0 -3.27680 -3.27680 -3.27680 -3.27680 -3.27680 -3.27680
7.35 7.368210 0.0 85.366670 14.970 0.0960 0.1020 1.0 42.0 200.0 13.813730 509.166670 197.0 13.813730 1872.0 890348.153850 153.0 41.0 840943070.789910 0.0 0.0 0.0 0.0 0.0 0.0 0.0 -3.27680 -3.27680 -3.27680 -3.27680 -3.27680 -3.27680
7.34 7.360080 0.0 85.40 14.970 0.0960 0.1020 1.0 42.0 200.0 13.627450 510.0 197.0 13.627450 1872.0 890349.846150 153.0 41.0 840946263.631050 0.0 0.0 0.0 0.0 0.0 0.0 0.0 -3.27680 -3.27680 -3.27680 -3.27680 -3.27680 -3.27680
7.33 7.351670 0.0 85.433330 14.970 0.0960 0.1020 1.0 42.0 200.0 13.441180 509.230770 197.0 13.441180 1872.0 890351.538460 153.0 41.0 840949456.47220 0.0 0.0 0.0 0.0 0.0 0.0 0.0 -3.27680 -3.27680 -3.27680 -3.27680 -3.27680 -3.27680
7.32 7.343270 0.0 85.466670 14.970 0.0960 0.1020 1.0 42.0 200.0 13.25490 508.461540 197.0 13.25490 1872.0 890353.230770 153.0 41.0 840952649.313350 0.0 0.0 0.0 0.0 0.0 0.0 0.0 -3.27680 -3.27680 -3.27680 -3.27680 -3.27680 -3.27680
7.31 7.334870 0.0 85.50 14.970 0.0960 0.1020 1.0 42.0 200.0 13.068630 507.692310 197.0 13.068630 1872.0 890354.923080 153.0 41.0 840955842.154490 0.0 0.0 0.0 0.0 0.0 0.0 0.0 -3.27680 -3.27680 -3.27680 -3.27680 -3.27680 -3.27680
7.30 7.322270 0.0 85.550 14.970 0.0960 0.1020 1.0 42.0 200.0 12.882350 506.923080 197.0 12.882350 1872.0 890356.615380 153.0 41.0 840959034.995640 0.0 0.0 0.0 0.0 0.0 0.0 0.0 -3.27680 -3.27680 -3.27680 -3.27680 -3.27680 -3.27680
7.29 7.309670 0.0 85.60 14.970 0.0960 0.1020 1.0 42.0 200.0 12.696080 506.153850 197.0 12.696080 1872.0 890358.307690 153.0 41.0 840962227.836790 0.0 0.0 0.0 0.0 0.0 0.0 0.0 -3.27680 -3.27680 -3.27680 -3.27680 -3.27680 -3.27680
7.28 7.301270 0.0 85.633330 14.970 0.0960 0.1020 1.0 42.0 200.0 12.50980 505.384620 197.0 12.50980 1871.076920 890360.0 153.0 41.0 840965420.677940 0.0 0.0 0.0 0.0 0.0 0.0 0.0 -3.27680 -3.27680 -3.27680 -3.27680 -3.27680 -3.27680
7.27 7.292870 0.0 85.666670 14.970 0.0960 0.1020 1.0 42.0 200.0 12.323530 504.615380 197.0 12.323530 1870.153850 890361.50 153.0 41.0 840968250.759720 0.0 0.0 0.0 0.0 0.0 0.0 0.0 -3.27680 -3.27680 -3.27680 -3.27680 -3.27680 -3.27680
7.26 7.284470 0.0 85.70 14.970 0.0960 0.1020 1.0 42.0 200.0 12.137250 503.846150 197.0 12.137250 1869.230770 890363.0 153.0 41.0 840971080.84150 0.0 0.0 0.0 0.0 0.0 0.0 0.0 -3.27680 -3.27680 -3.27680 -3.27680 -3.27680 -3.27680
7.25 7.271860 0.0 85.750 14.970 0.0960 0.1020 1.0 42.0 200.0 11.950980 503.076920 197.0 11.950980 1868.307690 890364.50 153.0 41.0 840973910.923280 0.0 0.0 0.0 0.0 0.0 0.0 0.0 -3.27680 -3.27680 -3.27680 -3.27680 -3.27680 -3.27680
7.24 7.259260 0.0 85.80 14.970 0.0960 0.1020 1.0 42.0 200.0 11.764710 502.307690 197.0 11.764710 1867.384620 890366.0 153.0 41.0 840976741.005060 0.0 0.0 0.0 0.0 0.0 0.0 0.0 -3.27680 -3.27680 -3.27680 -3.27680 -3.27680 -3.27680
7.23 7.250860 0.0 85.833330 14.976670 0.0960 0.1020 1.0 42.0 200.0 11.628960 501.538460 197.0 11.628960 1866.461540 890367.50 153.0 41.0 840979571.086840 0.0 0.0 0.0 0.0 0.0 0.0 0.0 -3.27680 -3.27680 -3.27680 -3.27680 -3.27680 -3.27680
7.22 7.242460 0.0 85.866670 14.983330 0.0960 0.1020 1.0 42.0 200.0 11.493210 500.769230 197.0 11.493210 1865.538460 890369.0 153.0 41.0 840982401.168620 0.0 0.0 0.0 0.0 0.0 0.0 0.0 -3.27680 -3.27680 -3.27680 -3.27680 -3.27680 -3.27680
7.21 7.234060 0.0 85.90 14.990 0.0960 0.1020 1.0 42.0 200.0 11.357470 500.0 197.0 11.357470 1864.615380 890370.50 153.0 41.0 840985231.25040 0.0 0.0 0.0 0.0 0.0 0.0 0.0 -3.27680 -3.27680 -3.27680 -3.27680 -3.27680 -3.27680
7.20 7.221460 0.0 85.950 14.996670 0.0960 0.1020 1.0 42.0 200.0 11.221720 500.0 197.0 11.221720 1863.692310 890372.0 153.0 41.0 840988061.332190 0.0 0.0 0.0 0.0 0.0 0.0 0.0 -3.27680 -3.27680 -3.27680 -3.27680 -3.27680 -3.27680
7.19 7.208860 0.0 86.0 15.003330 0.0960 0.1020 1.0 42.0 200.0 11.085970 500.0 197.0 11.085970 1862.769230 890373.50 153.0 41.0 840990891.413970 0.0 0.0 0.0 0.0 0.0 0.0 0.0 -3.27680 -3.27680 -3.27680 -3.27680 -3.27680 -3.27680
7.18 7.200460 0.0 86.033330 15.010 0.0960 0.1020 1.0 42.0 200.0 10.950230 500.0 197.0 10.950230 1861.846150 890375.0 153.0 41.0 840993721.495750 0.0 0.0 0.0 0.0 0.0 0.0 0.0 -3.27680 -3.27680 -3.27680 -3.27680 -3.27680 -3.27680
7.17 7.192060 0.0 86.066670 15.016670 0.0960 0.1020 1.0 42.0 200.0 10.814480 500.0 197.0 10.814480 1860.923080 890376.50 153.0 41.0 840996551.577530 0.0 0.0 0.0 0.0 0.0 0.0 0.0 -3.27680 -3.27680 -3.27680 -3.27680 -3.27680 -3.27680
7.16 7.183650 0.0 86.10 15.023330 0.0960 0.1020 1.0 42.0 200.0 10.678730 500.0 197.0 10.678730 1860.0 890378.0 153.0 41.0 840999381.659310 0.0 0.0 0.0 0.0 0.0 0.0 0.0 -3.27680 -3.27680 -3.27680 -3.27680 -3.27680 -3.27680
7.15 7.171450 0.0 86.150 15.030 0.0960 0.1020 1.0 42.0 200.0 10.542990 500.0 197.0 10.542990 1861.416670 890379.307690 153.0 41.0 841001848.958530 0.0 0.0 0.0 0.0 0.0 0.0 0.0 -3.27680 -3.27680 -3.27680 -3.27680 -3.27680 -3.27680
7.14 7.159240 0.0 86.20 15.036670 0.0960 0.1020 1.0 42.0 200.0 10.407240 500.0 197.0 10.407240 1862.833330 890380.615380 153.0 41.0 841004316.257750 0.0 0.0 0.0 0.0 0.0 0.0 0.0 -3.27680 -3.27680 -3.27680 -3.27680 -3.27680 -3.27680
7.13 7.150840 0.0 86.233330 15.043330 0.0960 0.1020 1.0 42.0 200.0 10.271490 500.0 197.0 10.271490 1864.250 890381.923080 153.0 41.0 841006783.556960 0.0 0.0 0.0 0.0 0.0 0.0 0.0 -3.27680 -3.27680 -3.27680 -3.27680 -3.27680 -3.27680
7.12 7.142440 0.0 86.266670 15.050 0.0960 0.1020 1.0 42.0 200.0 10.135750 500.0 197.0 10.135750 1865.666670 890383.230770 153.0 41.0 841009250.856180 0.0 0.0 0.0 0.0 0.0 0.0 0.0 -3.27680 -3.27680 -3.27680 -3.27680 -3.27680 -3.27680
7.11 7.134040 0.0 86.30 15.056670 0.0960 0.1020 1.0 42.0 200.0 10.0 500.0 197.0 10.0 1867.083330 890384.538460 153.0 41.0 841011718.15540 0.0 0.0 0.0 0.0 0.0 0.0 0.0 -3.27680 -3.27680 -3.27680 -3.27680 -3.27680 -3.27680
7.10 7.121430 0.0 86.350 15.063330 0.0960 0.1020 1.0 42.0 200.0 9.833330 500.0 197.0 9.833330 1868.50 890385.846150 153.0 41.0 841014185.454610 0.0 0.0 0.0 0.0 0.0 0.0 0.0 -3.27680 -3.27680 -3.27680 -3.27680 -3.27680 -3.27680
7.09 7.108830 0.0 86.40 15.070 0.0960 0.1020 1.0 42.0 200.0 9.666670 500.0 197.0 9.666670 1869.916670 890387.153850 153.0 41.0 841016652.753830 0.0 0.0 0.0 0.0 0.0 0.0 0.0 -3.27680 -3.27680 -3.27680 -3.27680 -3.27680 -3.27680
7.08 7.100690 0.0 86.433330 15.066670 0.0960 0.1020 1.0 42.0 200.0 9.50 500.0 197.0 9.50 1871.333330 890388.461540 153.0 41.0 841019120.053050 0.0 0.0 0.0 0.0 0.0 0.0 0.0 -3.27680 -3.27680 -3.27680 -3.27680 -3.27680 -3.27680
7.07 7.092560 0.0 86.466670 15.063330 0.0960 0.1020 1.0 42.0 200.0 9.333330 500.0 197.0 9.333330 1872.750 890389.769230 153.0 41.0 841021587.352260 0.0 0.0 0.0 0.0 0.0 0.0 0.0 -3.27680 -3.27680 -3.27680 -3.27680 -3.27680 -3.27680
