~VERSION INFORMATION SECTION
VERS. 2.0 : CWLS LAS-VERSION 2.0
WRAP. NO : One line per depth step
~WELL INFORMATION SECTION
# MNEM.UNIT VALUE/NAME DESCRIPTION
#-------- -------------- ---------------------
STRT.Metres 23 : Start
STOP.Metres -2.05 : Stop
STEP.Metres -0.01 : Step
NULL.  -999.25 :NULL VALUE
DATE. 2026-45-09 : DATE
~CURVE INFORMATION SECTION
DEPTH.Metres : 0 Depth
Depth. : 1 Depth
Tension. : 2 Tension
Time. : 3 Time
Speed. : 4 Speed
Voltage. : 5 Voltage
Current. : 6 Current
WET. : 7 WET
Sig. : 8 Sig
Vth. : 9 Vth
GR.CPS : 10 GR
Timebase.ms : 11 Timebase
HeadVoltage.V : 12 Head Voltage
API.API : 13 API
Conductivity.uS : 14 Conductivity
PT100.Ohms : 15 PT100
Vmon.mV : 16 Vmon
Status. : 17 Status
Temperature.C : 18 Temperature
Incline.Deg : 19 Incline
Azimuth.Deg : 20 Azimuth
RelativeBearing.Deg : 21 Relative Bearing
MagneticToolFace.Deg : 22 Magnetic Tool Face
GravityMagnitude.G : 23 Gravity Magnitude
MagnetometerMagnitude.H : 24 Magnetometer Magnitude
Temperature.C : 25 Temperature
GX. : 26 GX
GY. : 27 GY
GZ. : 28 GZ
HX. : 29 HX
HY. : 30 HY
HZ. : 31 HZ
~PARAMETER INFORMATION SECTION
~OTHER
#-------------------------------------------------
#Produced By: GeoVista Logger - Version 7.1.107.0
Verticality Sonde - 9605
Temperature and Conductivity Sonde - Inline - 8974
Natural Gamma Sonde - 9931
WLIS - 10021
#-------------------------------------------------
~ASCII LOG DATA
# ...
14.72 14.737480 0.0 43.250 14.970 0.0960 0.1020 1.0 26.384620 200.0 22.0 500.0 197.0 22.0 2881.769230 889519.750 153.0 42.0 839380866.336060 0.0 0.0 0.0 0.0 0.0 0.0 0.0 -3.27680 -3.27680 -3.27680 -3.27680 -3.27680 -3.27680
14.71 14.724880 0.0 43.30 14.970 0.0960 0.1020 1.0 26.538460 200.0 22.0 500.0 197.0 22.0 2877.230770 889520.50 153.0 42.0 839382280.030130 0.0 0.0 0.0 0.0 0.0 0.0 0.0 -3.27680 -3.27680 -3.27680 -3.27680 -3.27680 -3.27680
14.70 14.716740 0.0 43.333330 14.970 0.0960 0.1020 1.0 26.692310 200.0 22.0 500.0 197.0 22.0 2872.692310 889521.250 153.0 42.0 839383693.72420 0.0 0.0 0.0 0.0 0.0 0.0 0.0 -3.27680 -3.27680 -3.27680 -3.27680 -3.27680 -3.27680
14.69 14.70860 0.0 43.366670 14.970 0.0960 0.1020 1.0 26.846150 200.0 22.0 500.0 197.0 22.0 2868.153850 889522.0 153.0 42.0 839385107.418260 0.0 0.0 0.0 0.0 0.0 0.0 0.0 -3.27680 -3.27680 -3.27680 -3.27680 -3.27680 -3.27680
14.68 14.700460 0.0 43.40 14.970 0.0960 0.1020 1.0 27.0 200.0 22.0 500.0 197.0 22.0 2863.615380 889522.750 153.0 42.0 839386521.112330 0.0 0.0 0.0 0.0 0.0 0.0 0.0 -3.27680 -3.27680 -3.27680 -3.27680 -3.27680 -3.27680
14.67 14.687860 0.0 43.450 14.970 0.0960 0.1020 1.0 27.0 200.0 22.0 500.0 197.0 22.0 2859.076920 889523.50 153.0 42.0 839387934.80640 0.0 0.0 0.0 0.0 0.0 0.0 0.0 -3.27680 -3.27680 -3.27680 -3.27680 -3.27680 -3.27680
14.66 14.675260 0.0 43.50 14.970 0.0960 0.1020 1.0 27.0 200.0 22.0 500.0 197.0 22.0 2854.538460 889524.250 153.0 42.0 839389348.500460 0.0 0.0 0.0 0.0 0.0 0.0 0.0 -3.27680 -3.27680 -3.27680 -3.27680 -3.27680 -3.27680
14.65 14.666860 0.0 43.533330 14.970 0.0960 0.1020 1.0 27.0 200.0 22.0 500.0 197.0 22.0 2850.0 889525.0 153.0 42.0 839390762.194530 0.0 0.0 0.0 0.0 0.0 0.0 0.0 -3.27680 -3.27680 -3.27680 -3.27680 -3.27680 -3.27680
14.64 14.658460 0.0 43.566670 14.970 0.0960 0.1020 1.0 27.0 200.0 22.0 500.0 197.0 22.0 2847.416670 889525.461540 153.0 42.0 839391632.167440 0.0 0.0 0.0 0.0 0.0 0.0 0.0 -3.27680 -3.27680 -3.27680 -3.27680 -3.27680 -3.27680
14.63 14.650050 0.0 43.60 14.970 0.0960 0.1020 1.0 27.0 200.0 22.0 500.0 197.0 22.0 2844.833330 889525.923080 153.0 42.0 839392502.140340 0.0 0.0 0.0 0.0 0.0 0.0 0.0 -3.27680 -3.27680 -3.27680 -3.27680 -3.27680 -3.27680
14.62 14.637450 0.0 43.650 14.973330 0.0960 0.1020 1.0 27.0 200.0 22.0 500.0 197.0 22.0 2842.250 889526.384620 153.0 42.0 839393372.113250 0.0 0.0 0.0 0.0 0.0 0.0 0.0 -3.27680 -3.27680 -3.27680 -3.27680 -3.27680 -3.27680
14.61 14.624850 0.0 43.70 14.976670 0.0960 0.1020 1.0 27.0 200.0 22.0 500.0 197.0 22.0 2839.666670 889526.846150 153.0 42.0 839394242.086150 0.0 0.0 0.0 0.0 0.0 0.0 0.0 -3.27680 -3.27680 -3.27680 -3.27680 -3.27680 -3.27680
14.60 14.616710 0.0 43.733330 14.980 0.0960 0.1020 1.0 27.0 200.0 22.0 500.0 197.0 22.0 2837.083330 889527.307690 153.0 42.0 839395112.059060 0.0 0.0 0.0 0.0 0.0 0.0 0.0 -3.27680 -3.27680 -3.27680 -3.27680 -3.27680 -3.27680
14.59 14.608570 0.0 43.766670 14.983330 0.0960 0.1020 1.0 27.0 200.0 21.0 500.0 197.0 21.0 2834.50 889527.769230 153.0 42.0 839395982.031960 0.0 0.0 0.0 0.0 0.0 0.0 0.0 -3.27680 -3.27680 -3.27680 -3.27680 -3.27680 -3.27680
14.58 14.600440 0.0 43.80 14.986670 0.0960 0.1020 1.0 27.0 200.0 20.0 500.0 197.0 20.0 2831.916670 889528.230770 153.0 42.0 839396852.004870 0.0 0.0 0.0 0.0 0.0 0.0 0.0 -3.27680 -3.27680 -3.27680 -3.27680 -3.27680 -3.27680
14.57 14.587830 0.0 43.850 14.990 0.0960 0.1020 1.0 27.0 200.0 19.0 500.0 197.0 19.0 2829.333330 889528.692310 153.0 42.0 839397721.977770 0.0 0.0 0.0 0.0 0.0 0.0 0.0 -3.27680 -3.27680 -3.27680 -3.27680 -3.27680 -3.27680
14.56 14.575230 0.0 43.90 14.993330 0.0960 0.1020 1.0 27.0 200.0 18.0 500.0 197.0 18.0 2826.750 889529.153850 153.0 42.0 839398591.950680 0.0 0.0 0.0 0.0 0.0 0.0 0.0 -3.27680 -3.27680 -3.27680 -3.27680 -3.27680 -3.27680
14.55 14.566830 0.0 43.933330 14.996670 0.0960 0.1020 1.0 27.0 200.0 17.0 500.0 197.0 17.0 2824.166670 889529.615380 153.0 42.0 839399461.923580 0.0 0.0 0.0 0.0 0.0 0.0 0.0 -3.27680 -3.27680 -3.27680 -3.27680 -3.27680 -3.27680
14.54 14.558430 0.0 43.966670 15.0 0.0960 0.1020 1.0 27.0 200.0 16.0 500.0 197.0 16.0 2821.583330 889530.076920 153.0 42.0 839400331.896490 0.0 0.0 0.0 0.0 0.0 0.0 0.0 -3.27680 -3.27680 -3.27680 -3.27680 -3.27680 -3.27680
14.53 14.550030 0.0 44.0 15.003330 0.0960 0.1020 1.0 27.0 200.0 15.0 500.0 197.0 15.0 2819.0 889530.538460 153.0 42.0 839401201.869390 0.0 0.0 0.0 0.0 0.0 0.0 0.0 -3.27680 -3.27680 -3.27680 -3.27680 -3.27680 -3.27680
14.52 14.541630 0.0 44.033330 15.006670 0.0960 0.1020 1.0 27.0 200.0 14.0 500.0 197.0 14.0 2816.307690 889531.0 153.0 42.0 839402071.84230 0.0 0.0 0.0 0.0 0.0 0.0 0.0 -3.27680 -3.27680 -3.27680 -3.27680 -3.27680 -3.27680
14.51 14.533230 0.0 44.066670 15.010 0.0960 0.1020 1.0 27.0 200.0 13.0 500.0 197.0 13.0 2813.615380 889531.750 153.0 42.0 839403485.560180 0.0 0.0 0.0 0.0 0.0 0.0 0.0 -3.27680 -3.27680 -3.27680 -3.27680 -3.27680 -3.27680
14.50 14.524830 0.0 44.10 15.013330 0.0960 0.1020 1.0 27.0 200.0 12.0 500.0 197.0 12.0 2810.923080 889532.50 153.0 42.0 839404899.278050 0.0 0.0 0.0 0.0 0.0 0.0 0.0 -3.27680 -3.27680 -3.27680 -3.27680 -3.27680 -3.27680
14.49 14.512230 0.0 44.150 15.016670 0.0960 0.1020 1.0 27.0 200.0 11.0 500.0 197.0 11.0 2808.230770 889533.250 153.0 42.0 839406312.995930 0.0 0.0 0.0 0.0 0.0 0.0 0.0 -3.27680 -3.27680 -3.27680 -3.27680 -3.27680 -3.27680
14.48 14.499620 0.0 44.20 15.020 0.0960 0.1020 1.0 27.0 200.0 10.0 500.0 197.0 10.0 2805.538460 889534.0 153.0 42.0 839407726.71380 0.0 0.0 0.0 0.0 0.0 0.0 0.0 -3.27680 -3.27680 -3.27680 -3.27680 -3.27680 -3.27680
14.47 14.491220 0.0 44.233330 15.023330 0.0960 0.1020 1.0 27.0 200.0 11.692310 500.0 197.0 11.692310 2802.846150 889534.750 153.0 42.0 839409140.431680 0.0 0.0 0.0 0.0 0.0 0.0 0.0 -3.27680 -3.27680 -3.27680 -3.27680 -3.27680 -3.27680
14.46 14.482820 0.0 44.266670 15.026670 0.0960 0.1020 1.0 27.0 200.0 13.384620 500.0 197.0 13.384620 2800.153850 889535.50 153.0 42.0 839410554.149560 0.0 0.0 0.0 0.0 0.0 0.0 0.0 -3.27680 -3.27680 -3.27680 -3.27680 -3.27680 -3.27680
14.45 14.474420 0.0 44.30 15.030 0.0960 0.1020 1.0 27.0 200.0 15.076920 500.0 197.0 15.076920 2797.461540 889536.250 153.0 42.0 839411967.867430 0.0 0.0 0.0 0.0 0.0 0.0 0.0 -3.27680 -3.27680 -3.27680 -3.27680 -3.27680 -3.27680
14.44 14.461820 0.0 44.350 15.033330 0.0960 0.1020 1.0 27.0 200.0 16.769230 500.0 197.0 16.769230 2794.769230 889537.0 153.0 42.0 839413381.585310 0.0 0.0 0.0 0.0 0.0 0.0 0.0 -3.27680 -3.27680 -3.27680 -3.27680 -3.27680 -3.27680
14.43 14.449220 0.0 44.40 15.036670 0.0960 0.1020 1.0 27.0 200.0 18.461540 500.0 197.0 18.461540 2792.076920 889537.750 153.0 42.0 839414795.303190 0.0 0.0 0.0 0.0 0.0 0.0 0.0 -3.27680 -3.27680 -3.27680 -3.27680 -3.27680 -3.27680
14.42 14.441080 0.0 44.433330 15.040 0.0960 0.1020 1.0 27.076920 200.0 20.153850 500.0 197.0 20.153850 2789.384620 889538.50 153.0 42.0 839416209.021060 0.0 0.0 0.0 0.0 0.0 0.0 0.0 -3.27680 -3.27680 -3.27680 -3.27680 -3.27680 -3.27680
14.41 14.432940 0.0 44.466670 15.043330 0.0960 0.1020 1.0 27.153850 200.0 21.846150 500.0 197.0 21.846150 2786.692310 889539.250 153.0 42.0 839417622.738940 0.0 0.0 0.0 0.0 0.0 0.0 0.0 -3.27680 -3.27680 -3.27680 -3.27680 -3.27680 -3.27680
14.40 14.42480 0.0 44.50 15.046670 0.0960 0.1020 1.0 27.230770 200.0 23.538460 500.0 197.0 23.538460 2784.0 889540.0 153.0 42.0 839419036.456810 0.0 0.0 0.0 0.0 0.0 0.0 0.0 -3.27680 -3.27680 -3.27680 -3.27680 -3.27680 -3.27680
14.39 14.41220 0.0 44.550 15.050 0.0960 0.1020 1.0 27.307690 200.0 25.230770 500.0 197.0 25.230770 2778.50 889540.769230 153.0 42.0 839420486.439330 0.0 0.0 0.0 0.0 0.0 0.0 0.0 -3.27680 -3.27680 -3.27680 -3.27680 -3.27680 -3.27680
14.38 14.39960 0.0 44.60 15.053330 0.0960 0.1020 1.0 27.384620 200.0 26.923080 500.0 197.0 26.923080 2773.0 889541.538460 153.0 42.0 839421936.421850 0.0 0.0 0.0 0.0 0.0 0.0 0.0 -3.27680 -3.27680 -3.27680 -3.27680 -3.27680 -3.27680
14.37 14.39120 0.0 44.633330 15.056670 0.0960 0.1020 1.0 27.461540 200.0 28.615380 500.0 197.0 28.615380 2767.50 889542.307690 153.0 42.0 839423386.404370 0.0 0.0 0.0 0.0 0.0 0.0 0.0 -3.27680 -3.27680 -3.27680 -3.27680 -3.27680 -3.27680
