~VERSION INFORMATION SECTION
VERS. 2.0 : CWLS LAS-VERSION 2.0
WRAP. NO : One line per depth step
~WELL INFORMATION SECTION
# MNEM.UNIT VALUE/NAME DESCRIPTION
#-------- -------------- ---------------------
STRT.Metres 2 : Start
STOP.Metres 22.45 : Stop
STEP.Metres 0.01 : Step
NULL.  -999.25 :NULL VALUE
DATE. 2026-02-09 : DATE
~CURVE INFORMATION SECTION
DEPTH.Metres : 0 Depth
Depth. : 1 Depth
Tension. : 2 Tension
Time. : 3 Time
Speed. : 4 Speed
Voltage. : 5 Voltage
Current. : 6 Current
WET. : 7 WET
Sig. : 8 Sig
Vth. : 9 Vth
GR.CPS : 10 GR
Timebase.ms : 11 Timebase
HeadVoltage.V : 12 Head Voltage
API.API : 13 API
Conductivity.uS : 14 Conductivity
PT100.Ohms : 15 PT100
Vmon.mV : 16 Vmon
Status. : 17 Status
Temperature.C : 18 Temperature
Incline.Deg : 19 Incline
Azimuth.Deg : 20 Azimuth
RelativeBearing.Deg : 21 Relative Bearing
MagneticToolFace.Deg : 22 Magnetic Tool Face
GravityMagnitude.G : 23 Gravity Magnitude
MagnetometerMagnitude.H : 24 Magnetometer Magnitude
Temperature.C : 25 Temperature
GX. : 26 GX
GY. : 27 GY
GZ. : 28 GZ
HX. : 29 HX
HY. : 30 HY
HZ. : 31 HZ
~PARAMETER INFORMATION SECTION
~OTHER
#-------------------------------------------------
#Produced By: GeoVista Logger - Version 7.1.107.0
Verticality Sonde - 6292
Temperature and Conductivity Sonde - Inline - 8974
Natural Gamma Sonde - 9931
WLIS - 10024
#-------------------------------------------------
~ASCII LOG DATA
# ...
4.33 4.326260 0.0 25.10 10.030 0.0960 0.1040 1.0 32.444440 100.0 28.058820 500.0 196.0 28.058820 83.373210 109.241210 154.0 44.0 23.725610 0.30 50.233330 70.222220 119.955560 1.790 6.013440 21.320 0.003050 0.0090 1.78990 0.125030 -0.21890 -0.546030
4.34 4.334530 0.0 25.150 10.040 0.0960 0.1040 1.0 32.222220 100.0 28.735290 500.0 196.0 28.735290 83.373210 109.248060 154.0 44.0 23.743260 0.30 49.966670 70.477780 119.944440 1.790 6.013560 21.320 0.003080 0.0090 1.78990 0.124840 -0.2190 -0.546040
4.35 4.34280 0.0 25.20 10.050 0.0960 0.1040 1.0 32.0 100.0 29.411760 500.0 196.0 29.411760 83.373210 109.254920 154.0 44.0 23.760920 0.30 49.70 70.733330 119.933330 1.790 6.013670 21.320 0.00310 0.0090 1.78990 0.124650 -0.21910 -0.546050
4.36 4.360130 0.0 25.30 10.060 0.0960 0.1040 1.0 32.0 100.0 29.485290 500.0 196.0 29.485290 83.373210 109.259410 154.1250 44.0 23.772480 0.30 49.433330 70.988890 119.922220 1.790 6.013780 21.320 0.003130 0.0090 1.78990 0.124460 -0.21920 -0.546060
4.37 4.36840 0.0 25.350 10.060 0.0960 0.1040 1.0 32.0 100.0 29.558820 500.0 196.0 29.558820 83.373210 109.263890 154.250 44.0 23.784030 0.30 49.166670 71.244440 119.911110 1.790 6.013890 21.320 0.003150 0.0090 1.78990 0.124280 -0.21930 -0.546080
4.38 4.376670 0.0 25.40 10.060 0.0960 0.1040 1.0 32.0 100.0 29.632350 501.250 196.0 29.632350 83.373210 109.268380 154.3750 44.0 23.795590 0.30 48.90 71.50 119.90 1.790 6.0140 21.320 0.003180 0.0090 1.78990 0.124090 -0.21940 -0.546090
4.39 4.384940 0.0 25.450 10.060 0.0960 0.1030 1.0 32.0 100.0 29.705880 502.50 196.0 29.705880 83.373210 109.272870 154.50 44.0 23.807150 0.30 49.20 71.18750 119.8750 1.790 6.0140 21.320 0.00320 0.0090 1.78990 0.12390 -0.21950 -0.54610
4.40 4.39320 0.0 25.50 10.060 0.0960 0.1020 1.0 32.0 100.0 29.779410 503.750 196.0 29.779410 83.373210 109.277360 154.6250 44.0 23.81870 0.30 49.50 70.8750 119.850 1.790 6.0140 21.320 0.003260 0.009030 1.78990 0.124370 -0.219290 -0.545990
4.41 4.410530 0.0 25.60 10.060 0.0960 0.1040 1.0 32.0 100.0 29.852940 505.0 196.0 29.852940 83.32920 109.281840 154.750 43.8750 23.830260 0.30 49.80 70.56250 119.8250 1.790 6.0140 21.320 0.003310 0.009070 1.78990 0.124830 -0.219080 -0.545880
4.42 4.41880 0.0 25.650 10.060 0.0960 0.1030 1.0 32.0 100.0 29.926470 506.250 196.0 29.926470 83.285190 109.286330 154.8750 43.750 23.841820 0.30 50.10 70.250 119.80 1.790 6.0140 21.320 0.003370 0.00910 1.78990 0.12530 -0.218870 -0.545770
4.43 4.427070 0.0 25.70 10.060 0.0960 0.1020 1.0 32.0 100.0 30.0 507.50 196.0 30.0 83.241180 109.290820 155.0 43.6250 23.853370 0.30 50.40 69.93750 119.7750 1.790 6.0140 21.320 0.003420 0.009130 1.78990 0.125770 -0.218660 -0.545660
4.44 4.435340 0.0 25.750 10.060 0.0960 0.1030 1.0 32.0 100.0 30.666670 508.750 196.0 30.666670 83.197170 109.29530 155.0 43.50 23.864930 0.30 50.70 69.6250 119.750 1.790 6.0140 21.320 0.003480 0.009170 1.78990 0.126230 -0.218440 -0.545540
4.45 4.443610 0.0 25.80 10.060 0.0960 0.1040 1.0 32.0 100.0 31.333330 510.0 196.0 31.333330 83.153160 109.299640 155.0 43.3750 23.876090 0.30 51.0 69.31250 119.7250 1.790 6.0140 21.320 0.003530 0.00920 1.78990 0.12670 -0.218230 -0.545430
4.46 4.460150 0.0 25.90 10.060 0.0960 0.1040 1.0 32.0 100.0 32.0 508.750 196.0 32.0 83.109150 109.303970 155.0 43.250 23.887250 0.30 51.30 69.0 119.70 1.790 6.0140 21.320 0.003590 0.009230 1.78990 0.127170 -0.218020 -0.545320
4.47 4.468810 0.0 25.950 10.060 0.0960 0.1040 1.0 32.0 100.0 32.666670 507.50 196.0 32.666670 83.065140 109.30830 155.0 43.1250 23.89840 0.30 51.51250 68.88750 119.80 1.790 6.013130 21.320 0.003640 0.009270 1.78990 0.127630 -0.217810 -0.545210
4.48 4.477480 0.0 26.0 10.060 0.0960 0.1040 1.0 32.0 100.0 33.333330 506.250 196.0 33.333330 83.021130 109.312630 155.0 43.0 23.909560 0.30 51.7250 68.7750 119.90 1.790 6.012250 21.320 0.00370 0.00930 1.78990 0.12810 -0.21760 -0.54510
4.49 4.485750 0.0 26.050 10.060 0.0960 0.1040 1.0 32.0 100.0 34.0 505.0 196.0 34.0 83.145010 109.316960 155.0 43.0 23.920720 0.30 51.93750 68.66250 120.0 1.790 6.011380 21.320 0.003560 0.009190 1.78990 0.128010 -0.217740 -0.545180
4.50 4.494020 0.0 26.10 10.060 0.0960 0.1040 1.0 32.0 100.0 34.666670 503.750 196.0 34.666670 83.268890 109.32130 155.0 43.0 23.931880 0.30 52.150 68.550 120.10 1.790 6.01050 21.320 0.003420 0.009080 1.78990 0.127930 -0.217880 -0.545250
4.51 4.510560 0.0 26.20 10.060 0.0960 0.1020 1.0 32.0 100.0 35.333330 502.50 196.0 35.333330 83.392770 109.325630 155.0 43.0 23.943040 0.30 52.36250 68.43750 120.20 1.790 6.009630 21.320 0.003290 0.008960 1.78990 0.127840 -0.218010 -0.545330
4.52 4.518830 0.0 26.250 10.060 0.0960 0.1030 1.0 31.888890 100.0 36.0 501.250 196.0 36.0 83.516650 109.329960 155.0 43.0 23.954190 0.30 52.5750 68.3250 120.30 1.790 6.008750 21.320 0.003150 0.008850 1.78990 0.127750 -0.218150 -0.54540
4.53 4.52710 0.0 26.30 10.060 0.0960 0.1040 1.0 31.777780 100.0 35.750 500.0 196.0 35.750 83.640530 109.333240 154.8750 43.0 23.962650 0.30 52.78750 68.21250 120.40 1.790 6.007880 21.320 0.003010 0.008740 1.78990 0.127660 -0.218290 -0.545480
4.54 4.535760 0.0 26.350 10.060 0.0960 0.1040 1.0 31.666670 100.0 35.50 500.0 196.0 35.50 83.764410 109.336520 154.750 43.0 23.97110 0.30 53.0 68.10 120.50 1.790 6.0070 21.320 0.002880 0.008620 1.78990 0.127580 -0.218430 -0.545550
4.55 4.544420 0.0 26.40 10.060 0.0960 0.1040 1.0 31.555560 100.0 35.250 500.0 196.0 35.250 83.888290 109.339810 154.6250 43.0 23.979550 0.30 52.755560 68.288890 120.444440 1.790 6.009110 21.320 0.002740 0.008510 1.78990 0.127490 -0.218560 -0.545630
4.56 4.560180 0.0 26.50 10.060 0.0960 0.1040 1.0 31.444440 100.0 35.0 500.0 196.0 35.0 84.012170 109.343090 154.50 43.0 23.9880 0.30 52.511110 68.477780 120.388890 1.790 6.011220 21.320 0.00260 0.00840 1.78990 0.12740 -0.21870 -0.54570
4.57 4.568440 0.0 26.550 10.050 0.0960 0.1040 1.0 31.333330 100.0 34.750 500.0 196.0 34.750 84.136050 109.346370 154.3750 43.0 23.996450 0.30 52.266670 68.666670 120.333330 1.790 6.013330 21.320 0.002690 0.008420 1.78990 0.127650 -0.218650 -0.545860
4.58 4.576710 0.0 26.60 10.040 0.0960 0.1040 1.0 31.222220 100.0 34.50 500.0 196.0 34.50 84.06270 109.349650 154.250 43.0 24.004910 0.30 52.022220 68.855560 120.277780 1.790 6.015440 21.320 0.002780 0.008450 1.78990 0.12790 -0.21860 -0.546030
4.59 4.584980 0.0 26.650 10.030 0.0960 0.1030 1.0 31.111110 100.0 34.250 500.0 196.0 34.250 83.989350 109.352930 154.1250 43.0 24.013360 0.30 51.777780 69.044440 120.222220 1.790 6.017560 21.320 0.002860 0.008470 1.78990 0.128150 -0.218550 -0.546190
4.60 4.593250 0.0 26.70 10.020 0.0960 0.1020 1.0 31.0 100.0 34.0 500.0 196.0 34.0 83.9160 109.356210 154.0 43.0 24.021810 0.30 51.533330 69.233330 120.166670 1.790 6.019670 21.320 0.002950 0.00850 1.78990 0.12840 -0.21850 -0.546350
4.61 4.610580 0.0 26.80 10.010 0.0960 0.1040 1.0 31.1250 100.0 37.750 500.0 196.0 37.750 83.842650 109.35950 153.6250 43.0 24.030260 0.30 51.288890 69.422220 120.111110 1.790 6.021780 21.320 0.003040 0.008520 1.78990 0.128650 -0.218450 -0.546510
4.62 4.618850 0.0 26.850 10.0 0.0960 0.1030 1.0 31.250 100.0 41.50 500.0 196.0 41.50 83.76930 109.363260 153.250 43.0 24.039970 0.30 51.044440 69.611110 120.055560 1.790 6.023890 21.320 0.003120 0.008550 1.78990 0.12890 -0.21840 -0.546680
4.63 4.627120 0.0 26.90 9.990 0.0960 0.1020 1.0 31.3750 100.0 45.250 500.0 196.0 45.250 83.695950 109.367030 152.8750 43.0 24.049670 0.30 50.80 69.80 120.0 1.790 6.0260 21.320 0.003210 0.008570 1.78990 0.129150 -0.218350 -0.546840
4.64 4.635390 0.0 26.950 9.980 0.0960 0.1020 1.0 31.50 100.0 49.0 500.0 196.0 49.0 83.62260 109.37080 152.50 43.0 24.059370 0.30 51.0 69.6750 120.08750 1.790 6.02650 21.320 0.00330 0.00860 1.78990 0.12940 -0.21830 -0.5470
4.65 4.643660 0.0 27.0 9.970 0.0960 0.1020 1.0 31.6250 100.0 52.750 500.0 196.0 52.750 83.549250 109.374560 152.1250 43.0 24.069080 0.30 51.20 69.550 120.1750 1.790 6.0270 21.320 0.003240 0.008580 1.78990 0.129470 -0.218210 -0.546930
4.66 4.66020 0.0 27.10 9.960 0.0960 0.1020 1.0 31.750 100.0 56.50 500.0 196.0 56.50 83.468570 109.378330 151.750 43.0 24.078780 0.30 51.40 69.4250 120.26250 1.790 6.02750 21.320 0.003190 0.008560 1.78990 0.129530 -0.218120 -0.546870
