~VERSION INFORMATION SECTION
VERS. 2.0 : CWLS LAS-VERSION 2.0
WRAP. NO : One line per depth step
~WELL INFORMATION SECTION
# MNEM.UNIT VALUE/NAME DESCRIPTION
#-------- -------------- ---------------------
STRT.Metres 23 : Start
STOP.Metres -2.05 : Stop
STEP.Metres -0.01 : Step
NULL.  -999.25 :NULL VALUE
DATE. 2026-45-09 : DATE
~CURVE INFORMATION SECTION
DEPTH.Metres : 0 Depth
Depth. : 1 Depth
Tension. : 2 Tension
Time. : 3 Time
Speed. : 4 Speed
Voltage. : 5 Voltage
Current. : 6 Current
WET. : 7 WET
Sig. : 8 Sig
Vth. : 9 Vth
GR.CPS : 10 GR
Timebase.ms : 11 Timebase
HeadVoltage.V : 12 Head Voltage
API.API : 13 API
Conductivity.uS : 14 Conductivity
PT100.Ohms : 15 PT100
Vmon.mV : 16 Vmon
Status. : 17 Status
Temperature.C : 18 Temperature
Incline.Deg : 19 Incline
Azimuth.Deg : 20 Azimuth
RelativeBearing.Deg : 21 Relative Bearing
MagneticToolFace.Deg : 22 Magnetic Tool Face
GravityMagnitude.G : 23 Gravity Magnitude
MagnetometerMagnitude.H : 24 Magnetometer Magnitude
Temperature.C : 25 Temperature
GX. : 26 GX
GY. : 27 GY
GZ. : 28 GZ
HX. : 29 HX
HY. : 30 HY
HZ. : 31 HZ
~PARAMETER INFORMATION SECTION
~OTHER
#-------------------------------------------------
#Produced By: GeoVista Logger - Version 7.1.107.0
Verticality Sonde - 9605
Temperature and Conductivity Sonde - Inline - 8974
Natural Gamma Sonde - 9931
WLIS - 10021
#-------------------------------------------------
~ASCII LOG DATA
# ...
22.34 22.360350 0.0 12.766670 14.9920 0.0960 0.1020 1.0 0.0 200.0 18.81210 116.666670 196.538460 18.81210 1661.571430 -999.25 137.0 6.0 -999.25 -999.25 -999.25 -999.25 -999.25 -999.25 -999.25 -999.25 -999.25 -999.25 -999.25 -999.25 -999.25 -999.25
22.33 22.351950 0.0 12.80 14.973330 0.0960 0.1020 1.0 0.0 200.0 18.112010 90.0 196.461540 18.112010 3323.142860 -999.25 137.0 12.0 -999.25 -999.25 -999.25 -999.25 -999.25 -999.25 -999.25 -999.25 -999.25 -999.25 -999.25 -999.25 -999.25 -999.25
22.32 22.339740 0.0 12.850 14.954670 0.0960 0.1020 1.0 0.0 200.0 17.411920 122.307690 196.384620 17.411920 4984.714290 -999.25 137.0 18.0 -999.25 -999.25 -999.25 -999.25 -999.25 -999.25 -999.25 -999.25 -999.25 -999.25 -999.25 -999.25 -999.25 -999.25
22.31 22.327530 0.0 12.90 14.9360 0.0960 0.1020 1.0 0.0 200.0 16.711830 154.615380 196.307690 16.711830 6646.285710 -999.25 137.0 24.0 -999.25 -999.25 -999.25 -999.25 -999.25 -999.25 -999.25 -999.25 -999.25 -999.25 -999.25 -999.25 -999.25 -999.25
22.30 22.319130 0.0 12.933330 14.917330 0.0960 0.1020 1.0 0.076920 200.0 16.011740 186.923080 196.230770 16.011740 8307.857140 -999.25 137.0 30.0 -999.25 -999.25 -999.25 -999.25 -999.25 -999.25 -999.25 -999.25 -999.25 -999.25 -999.25 -999.25 -999.25 -999.25
22.29 22.310730 0.0 12.966670 14.898670 0.0960 0.1020 1.0 0.153850 200.0 15.311650 219.230770 196.153850 15.311650 9969.428570 -999.25 137.0 36.0 -999.25 -999.25 -999.25 -999.25 -999.25 -999.25 -999.25 -999.25 -999.25 -999.25 -999.25 -999.25 -999.25 -999.25
22.28 22.302330 0.0 13.0 14.880 0.0960 0.1020 1.0 0.230770 200.0 14.611560 251.538460 196.076920 14.611560 11631.0 -999.25 137.0 42.0 -999.25 -999.25 -999.25 -999.25 -999.25 -999.25 -999.25 -999.25 -999.25 -999.25 -999.25 -999.25 -999.25 -999.25
22.27 22.289730 0.0 13.050 14.8860 0.0960 0.1020 1.0 0.307690 200.0 13.911470 283.846150 196.0 13.911470 11961.461540 -999.25 137.0 42.0 -999.25 -999.25 -999.25 -999.25 -999.25 -999.25 -999.25 -999.25 -999.25 -999.25 -999.25 -999.25 -999.25 -999.25
22.26 22.277120 0.0 13.10 14.8920 0.0960 0.1020 1.0 0.384620 200.0 13.211380 316.153850 196.083330 13.211380 12291.923080 -999.25 137.0 42.0 -999.25 -999.25 -999.25 -999.25 -999.25 -999.25 -999.25 -999.25 -999.25 -999.25 -999.25 -999.25 -999.25 -999.25
22.25 22.268990 0.0 13.133330 14.8980 0.0960 0.1020 1.0 0.461540 200.0 12.511290 348.461540 196.166670 12.511290 12622.384620 -999.25 137.0 42.0 -999.25 -999.25 -999.25 -999.25 -999.25 -999.25 -999.25 -999.25 -999.25 -999.25 -999.25 -999.25 -999.25 -999.25
22.24 22.260850 0.0 13.166670 14.9040 0.0960 0.1020 1.0 0.538460 200.0 11.81120 380.769230 196.250 11.81120 12952.846150 -999.25 137.0 42.0 -999.25 -999.25 -999.25 -999.25 -999.25 -999.25 -999.25 -999.25 -999.25 -999.25 -999.25 -999.25 -999.25 -999.25
22.23 22.252710 0.0 13.20 14.910 0.0960 0.1020 1.0 0.615380 200.0 11.111110 413.076920 196.333330 11.111110 13283.307690 -999.25 137.0 42.0 -999.25 -999.25 -999.25 -999.25 -999.25 -999.25 -999.25 -999.25 -999.25 -999.25 -999.25 -999.25 -999.25 -999.25
22.22 22.240110 0.0 13.250 14.9160 0.0960 0.1020 1.0 0.692310 200.0 11.312220 445.384620 196.416670 11.312220 13613.769230 -999.25 137.076920 42.0 -999.25 -999.25 -999.25 -999.25 -999.25 -999.25 -999.25 -999.25 -999.25 -999.25 -999.25 -999.25 -999.25 -999.25
22.21 22.227510 0.0 13.30 14.9220 0.0960 0.1020 1.0 0.769230 200.0 11.513320 477.692310 196.50 11.513320 13944.230770 127035.285710 137.153850 42.0 119838118.865920 -999.25 -999.25 -999.25 -999.25 -999.25 -999.25 -999.25 -999.25 -999.25 -999.25 -999.25 -999.25 -999.25
22.20 22.218840 0.0 13.333330 14.9280 0.0960 0.1020 1.0 0.846150 200.0 11.714430 510.0 196.583330 11.714430 14274.692310 254070.571430 137.230770 42.0 239676237.731850 -999.25 -999.25 -999.25 -999.25 -999.25 -999.25 -999.25 -999.25 -999.25 -999.25 -999.25 -999.25 -999.25
22.19 22.210180 0.0 13.366670 14.9340 0.0960 0.1020 1.0 0.923080 200.0 11.915540 509.166670 196.666670 11.915540 14605.153850 381105.857140 137.307690 42.0 359514356.597770 -999.25 -999.25 -999.25 -999.25 -999.25 -999.25 -999.25 -999.25 -999.25 -999.25 -999.25 -999.25 -999.25
22.18 22.201520 0.0 13.40 14.940 0.0960 0.1020 1.0 1.0 200.0 12.116640 508.333330 196.750 12.116640 14935.615380 508141.142860 137.384620 42.0 479352475.46370 -999.25 -999.25 -999.25 -999.25 -999.25 -999.25 -999.25 -999.25 -999.25 -999.25 -999.25 -999.25 -999.25
22.17 22.188910 0.0 13.450 14.9460 0.0960 0.1020 1.0 1.0 200.0 12.317750 507.50 196.833330 12.317750 15266.076920 635176.428570 137.461540 42.0 599190594.329620 -999.25 -999.25 -999.25 -999.25 -999.25 -999.25 -999.25 -999.25 -999.25 -999.25 -999.25 -999.25 -999.25
22.16 22.176310 0.0 13.50 14.9520 0.0960 0.1020 1.0 1.0 200.0 12.518850 506.666670 196.916670 12.518850 15596.538460 762211.714290 137.538460 42.0 719028713.195550 -999.25 -999.25 -999.25 -999.25 -999.25 -999.25 -999.25 -999.25 -999.25 -999.25 -999.25 -999.25 -999.25
22.15 22.168170 0.0 13.533330 14.9580 0.0960 0.1020 1.0 1.0 200.0 12.719960 505.833330 197.0 12.719960 15927.0 889247.0 137.615380 42.0 838866832.061470 -999.25 -999.25 -999.25 -999.25 -999.25 -999.25 -999.25 -999.25 -999.25 -999.25 -999.25 -999.25 -999.25
22.14 22.160040 0.0 13.566670 14.9640 0.0960 0.1020 1.0 1.0 200.0 12.921070 505.0 197.0 12.921070 15915.083330 889241.461540 137.692310 42.0 838856396.102350 -999.25 -999.25 -999.25 -999.25 -999.25 -999.25 -999.25 -999.25 -999.25 -999.25 -999.25 -999.25 -999.25
22.13 22.15190 0.0 13.60 14.970 0.0960 0.1020 1.0 1.0 200.0 13.122170 504.166670 197.0 13.122170 15903.166670 889235.923080 137.769230 42.0 838845960.143230 -999.25 -999.25 -999.25 -999.25 -999.25 -999.25 -999.25 -999.25 -999.25 -999.25 -999.25 -999.25 -999.25
22.12 22.13930 0.0 13.650 14.980 0.0960 0.1020 1.0 1.0 200.0 13.323280 503.333330 197.0 13.323280 15891.250 889230.384620 137.846150 42.0 838835524.184110 -999.25 -999.25 -999.25 -999.25 -999.25 -999.25 -999.25 -999.25 -999.25 -999.25 -999.25 -999.25 -999.25
22.11 22.126690 0.0 13.70 14.990 0.0960 0.1020 1.0 1.0 200.0 13.524380 502.50 197.0 13.524380 15879.333330 889224.846150 137.923080 42.0 838825088.2250 -999.25 -999.25 -999.25 -999.25 -999.25 -999.25 -999.25 -999.25 -999.25 -999.25 -999.25 -999.25 -999.25
22.10 22.118290 0.0 13.733330 15.0 0.0960 0.1020 1.0 1.0 200.0 13.725490 501.666670 197.0 13.725490 15867.416670 889219.307690 138.0 42.0 838814652.265880 -999.25 -999.25 -999.25 -999.25 -999.25 -999.25 -999.25 -999.25 -999.25 -999.25 -999.25 -999.25 -999.25
22.09 22.109890 0.0 13.766670 15.010 0.0960 0.1020 1.0 1.0 200.0 13.58170 500.833330 197.0 13.58170 15855.50 889213.769230 137.916670 42.0 838804216.306760 -999.25 -999.25 -999.25 -999.25 -999.25 -999.25 -999.25 -999.25 -999.25 -999.25 -999.25 -999.25 -999.25
22.08 22.101490 0.0 13.80 15.020 0.0960 0.1020 1.0 1.0 200.0 13.437910 500.0 197.0 13.437910 15843.583330 889208.230770 137.833330 42.0 838793780.347640 -999.25 -999.25 -999.25 -999.25 -999.25 -999.25 -999.25 -999.25 -999.25 -999.25 -999.25 -999.25 -999.25
22.07 22.088890 0.0 13.850 15.030 0.0960 0.1020 1.0 1.0 200.0 13.294120 500.0 197.0 13.294120 15831.666670 889202.692310 137.750 42.0 838783344.388520 -999.25 -999.25 -999.25 -999.25 -999.25 -999.25 -999.25 -999.25 -999.25 -999.25 -999.25 -999.25 -999.25
22.06 22.076290 0.0 13.90 15.040 0.0960 0.1020 1.0 1.0 200.0 13.150330 500.0 197.0 13.150330 15819.750 889197.153850 137.666670 42.0 838772908.42940 -999.25 -999.25 -999.25 -999.25 -999.25 -999.25 -999.25 -999.25 -999.25 -999.25 -999.25 -999.25 -999.25
22.05 22.068150 0.0 13.933330 15.050 0.0960 0.1020 1.0 1.076920 200.0 13.006540 500.0 197.0 13.006540 15807.833330 889191.615380 137.583330 42.0 838762472.470290 -999.25 -999.25 -999.25 -999.25 -999.25 -999.25 -999.25 -999.25 -999.25 -999.25 -999.25 -999.25 -999.25
22.04 22.060010 0.0 13.966670 15.060 0.0960 0.1020 1.0 1.153850 200.0 12.862750 500.0 197.0 12.862750 15795.916670 889186.076920 137.50 42.0 838752036.511170 -999.25 -999.25 -999.25 -999.25 -999.25 -999.25 -999.25 -999.25 -999.25 -999.25 -999.25 -999.25 -999.25
22.03 22.051870 0.0 14.0 15.070 0.0960 0.1020 1.0 1.230770 200.0 12.718950 500.0 197.0 12.718950 15784.0 889180.538460 137.416670 42.0 838741600.552050 -999.25 -999.25 -999.25 -999.25 -999.25 -999.25 -999.25 -999.25 -999.25 -999.25 -999.25 -999.25 -999.25
