~VERSION INFORMATION SECTION
VERS. 2.0 : CWLS LAS-VERSION 2.0
WRAP. NO : One line per depth step
~WELL INFORMATION SECTION
# MNEM.UNIT VALUE/NAME DESCRIPTION
#-------- -------------- ---------------------
STRT.Metres 19 : Start
STOP.Metres -2.05 : Stop
STEP.Metres -0.01 : Step
NULL.  -999.25 :NULL VALUE
DATE. 2026-03-09 : DATE
~CURVE INFORMATION SECTION
DEPTH.Metres : 0 Depth
Depth. : 1 Depth
Tension. : 2 Tension
Time. : 3 Time
Speed. : 4 Speed
Voltage. : 5 Voltage
Current. : 6 Current
WET. : 7 WET
Sig. : 8 Sig
Vth. : 9 Vth
GR.CPS : 10 GR
Timebase.ms : 11 Timebase
HeadVoltage.V : 12 Head Voltage
API.API : 13 API
Conductivity.uS : 14 Conductivity
PT100.Ohms : 15 PT100
Vmon.mV : 16 Vmon
Status. : 17 Status
Temperature.C : 18 Temperature
Incline.Deg : 19 Incline
Azimuth.Deg : 20 Azimuth
RelativeBearing.Deg : 21 Relative Bearing
MagneticToolFace.Deg : 22 Magnetic Tool Face
GravityMagnitude.G : 23 Gravity Magnitude
MagnetometerMagnitude.H : 24 Magnetometer Magnitude
Temperature.C : 25 Temperature
GX. : 26 GX
GY. : 27 GY
GZ. : 28 GZ
HX. : 29 HX
HY. : 30 HY
HZ. : 31 HZ
~PARAMETER INFORMATION SECTION
~OTHER
#-------------------------------------------------
#Produced By: GeoVista Logger - Version 7.1.107.0
Verticality Sonde - 9605
Temperature and Conductivity Sonde - Inline - 8974
Natural Gamma Sonde - 9931
WLIS - 10021
#-------------------------------------------------
~ASCII LOG DATA
# ...
0.04 0.045680 0.0 253.30 4.9280 0.0960 0.1020 0.0 993.80 200.0 22.0 500.0 197.0 22.0 36.750 890508.750 2.0 41.0 841246091.040550 0.0 0.0 0.0 0.0 0.0 0.0 0.0 -3.27680 -3.27680 -3.27680 -3.27680 -3.27680 -3.27680
0.03 0.037020 0.0 253.40 4.910 0.0960 0.1020 0.0 994.0 200.0 20.0 502.50 197.0 20.0 33.50 890507.50 1.333330 41.0 841243732.272660 0.0 0.0 0.0 0.0 0.0 0.0 0.0 -3.27680 -3.27680 -3.27680 -3.27680 -3.27680 -3.27680
0.02 0.024420 0.0 253.550 4.926670 0.0960 0.1020 0.0 994.0 200.0 18.0 505.0 197.0 18.0 30.250 890506.250 0.666670 41.0 841241373.504780 0.0 0.0 0.0 0.0 0.0 0.0 0.0 -3.27680 -3.27680 -3.27680 -3.27680 -3.27680 -3.27680
0.01 0.011810 0.0 253.70 4.943330 0.0960 0.1020 0.0 994.0 200.0 20.0 507.50 197.0 20.0 27.0 890505.0 0.0 41.0 841239014.736890 0.0 0.0 0.0 0.0 0.0 0.0 0.0 -3.27680 -3.27680 -3.27680 -3.27680 -3.27680 -3.27680
0.00 -0.000390 0.0 253.850 4.960 0.0960 0.1010 0.0 994.0 200.0 22.0 510.0 197.0 22.0 25.666670 890504.750 0.0 41.0 841238542.98490 0.0 0.0 0.0 0.0 0.0 0.0 0.0 -3.27680 -3.27680 -3.27680 -3.27680 -3.27680 -3.27680
-0.01 -0.016540 0.0 254.050 4.770 0.0960 0.1010 0.0 993.50 200.0 24.0 507.50 197.0 24.0 24.333330 890504.50 0.0 41.0 841238071.232910 0.0 0.0 0.0 0.0 0.0 0.0 0.0 -3.27680 -3.27680 -3.27680 -3.27680 -3.27680 -3.27680
-0.02 -999.25 -999.25 -999.25 -999.25 -999.25 -999.25 0.0 993.0 200.0 22.0 505.0 197.0 22.0 23.0 890504.250 0.0 41.0 841237599.480920 0.0 0.0 0.0 0.0 0.0 0.0 0.0 -3.27680 -3.27680 -3.27680 -3.27680 -3.27680 -3.27680
-0.03 -999.25 -999.25 -999.25 -999.25 -999.25 -999.25 0.0 992.50 200.0 20.0 502.50 197.0 20.0 19.750 890504.0 0.0 41.0 841237127.728930 0.0 0.0 0.0 0.0 0.0 0.0 0.0 -3.27680 -3.27680 -3.27680 -3.27680 -3.27680 -3.27680
-0.04 -999.25 -999.25 -999.25 -999.25 -999.25 -999.25 0.0 992.0 200.0 18.0 500.0 197.0 18.0 16.50 890503.0 0.0 41.0 841235240.726260 0.0 0.0 0.0 0.0 0.0 0.0 0.0 -3.27680 -3.27680 -3.27680 -3.27680 -3.27680 -3.27680
-0.05 -999.25 -999.25 -999.25 -999.25 -999.25 -999.25 0.0 992.50 200.0 16.0 500.0 197.0 16.0 13.250 890502.0 0.0 41.0 841233353.723590 0.0 0.0 0.0 0.0 0.0 0.0 0.0 -3.27680 -3.27680 -3.27680 -3.27680 -3.27680 -3.27680
-0.06 -999.25 -999.25 -999.25 -999.25 -999.25 -999.25 0.0 993.0 200.0 17.898040 500.0 197.0 17.898040 10.0 890501.0 0.0 41.0 841231466.720920 0.0 0.0 0.0 0.0 0.0 0.0 0.0 -3.27680 -3.27680 -3.27680 -3.27680 -3.27680 -3.27680
-0.07 -999.25 -999.25 -999.25 -999.25 -999.25 -999.25 -999.25 -999.25 200.0 19.796080 500.0 197.0 19.796080 12.40 890500.0 0.0 41.0 841229579.718250 0.0 0.0 0.0 0.0 0.0 0.0 0.0 -3.27680 -3.27680 -3.27680 -3.27680 -3.27680 -3.27680
-0.08 -999.25 -999.25 -999.25 -999.25 -999.25 -999.25 -999.25 -999.25 200.0 21.694120 500.0 197.0 21.694120 14.80 890499.750 0.0 41.0 841229107.968910 0.0 0.0 0.0 0.0 0.0 0.0 0.0 -3.27680 -3.27680 -3.27680 -3.27680 -3.27680 -3.27680
-0.09 -999.25 -999.25 -999.25 -999.25 -999.25 -999.25 -999.25 -999.25 200.0 23.592160 500.0 197.0 23.592160 17.20 890499.50 0.0 41.0 841228636.219570 0.0 0.0 0.0 0.0 0.0 0.0 0.0 -3.27680 -3.27680 -3.27680 -3.27680 -3.27680 -3.27680
-0.10 -999.25 -999.25 -999.25 -999.25 -999.25 -999.25 -999.25 -999.25 200.0 25.49020 500.0 197.0 25.49020 19.60 890499.250 0.0 41.0 841228164.470220 0.0 0.0 0.0 0.0 0.0 0.0 0.0 -3.27680 -3.27680 -3.27680 -3.27680 -3.27680 -3.27680
-0.11 -999.25 -999.25 -999.25 -999.25 -999.25 -999.25 -999.25 -999.25 200.0 26.117650 500.0 197.0 26.117650 22.0 890499.0 0.0 41.0 841227692.720880 0.0 0.0 0.0 0.0 0.0 0.0 0.0 -3.27680 -3.27680 -3.27680 -3.27680 -3.27680 -3.27680
-0.12 -999.25 -999.25 -999.25 -999.25 -999.25 -999.25 -999.25 -999.25 200.0 26.74510 500.0 197.0 26.74510 25.750 890498.50 0.0 41.0 841226749.223780 0.0 0.0 0.0 0.0 0.0 0.0 0.0 -3.27680 -3.27680 -3.27680 -3.27680 -3.27680 -3.27680
-0.13 -999.25 -999.25 -999.25 -999.25 -999.25 -999.25 -999.25 -999.25 200.0 27.372550 500.0 197.0 27.372550 29.50 890498.0 0.0 41.0 841225805.726670 0.0 0.0 0.0 0.0 0.0 0.0 0.0 -3.27680 -3.27680 -3.27680 -3.27680 -3.27680 -3.27680
-0.14 -999.25 -999.25 -999.25 -999.25 -999.25 -999.25 -999.25 -999.25 200.0 28.0 500.0 197.0 28.0 33.250 890497.50 0.0 41.0 841224862.229570 0.0 0.0 0.0 0.0 0.0 0.0 0.0 -3.27680 -3.27680 -3.27680 -3.27680 -3.27680 -3.27680
-0.15 -999.25 -999.25 -999.25 -999.25 -999.25 -999.25 -999.25 -999.25 200.0 23.50 500.0 197.0 23.50 37.0 890497.0 0.0 41.0 841223918.732470 0.0 0.0 0.0 0.0 0.0 0.0 0.0 -3.27680 -3.27680 -3.27680 -3.27680 -3.27680 -3.27680
-0.16 -999.25 -999.25 -999.25 -999.25 -999.25 -999.25 -999.25 -999.25 200.0 19.0 500.0 197.0 19.0 29.750 890495.750 0.0 41.0 841221559.998980 0.0 0.0 0.0 0.0 0.0 0.0 0.0 -3.27680 -3.27680 -3.27680 -3.27680 -3.27680 -3.27680
-0.17 -999.25 -999.25 -999.25 -999.25 -999.25 -999.25 -999.25 -999.25 200.0 14.50 500.0 197.0 14.50 22.50 890494.50 0.0 41.0 841219201.265480 0.0 0.0 0.0 0.0 0.0 0.0 0.0 -3.27680 -3.27680 -3.27680 -3.27680 -3.27680 -3.27680
-0.18 -999.25 -999.25 -999.25 -999.25 -999.25 -999.25 -999.25 -999.25 200.0 10.0 500.0 197.0 10.0 15.250 890493.250 0.0 41.0 841216842.531990 0.0 0.0 0.0 0.0 0.0 0.0 0.0 -3.27680 -3.27680 -3.27680 -3.27680 -3.27680 -3.27680
-0.19 -999.25 -999.25 -999.25 -999.25 -999.25 -999.25 -999.25 -999.25 200.0 12.0 500.0 197.0 12.0 8.0 890492.0 0.0 41.0 841214483.798490 0.0 0.0 0.0 0.0 0.0 0.0 0.0 -3.27680 -3.27680 -3.27680 -3.27680 -3.27680 -3.27680
-0.20 -999.25 -999.25 -999.25 -999.25 -999.25 -999.25 -999.25 -999.25 200.0 14.0 500.0 197.0 14.0 11.250 890491.0 0.0 41.0 841212596.822280 0.0 0.0 0.0 0.0 0.0 0.0 0.0 -3.27680 -3.27680 -3.27680 -3.27680 -3.27680 -3.27680
-0.21 -999.25 -999.25 -999.25 -999.25 -999.25 -999.25 -999.25 -999.25 200.0 16.0 500.0 197.0 16.0 14.50 890490.0 0.0 41.0 841210709.846060 0.0 0.0 0.0 0.0 0.0 0.0 0.0 -3.27680 -3.27680 -3.27680 -3.27680 -3.27680 -3.27680
-0.22 -999.25 -999.25 -999.25 -999.25 -999.25 -999.25 -999.25 -999.25 -999.25 18.0 500.0 197.0 18.0 17.750 890489.0 0.0 41.0 841208822.869850 0.0 0.0 0.0 0.0 0.0 0.0 0.0 -3.27680 -3.27680 -3.27680 -3.27680 -3.27680 -3.27680
-0.23 -999.25 -999.25 -999.25 -999.25 -999.25 -999.25 -999.25 -999.25 -999.25 20.0 500.0 197.0 20.0 21.0 890488.0 0.0 41.0 841206935.893640 0.0 0.0 0.0 0.0 0.0 0.0 0.0 -3.27680 -3.27680 -3.27680 -3.27680 -3.27680 -3.27680
-0.24 -999.25 -999.25 -999.25 -999.25 -999.25 -999.25 -999.25 -999.25 -999.25 22.0 500.0 197.0 22.0 18.50 890487.0 0.0 41.0 841205048.917420 0.0 0.0 0.0 0.0 0.0 0.0 0.0 -3.27680 -3.27680 -3.27680 -3.27680 -3.27680 -3.27680
-0.25 -999.25 -999.25 -999.25 -999.25 -999.25 -999.25 -999.25 -999.25 -999.25 24.0 500.0 197.0 24.0 16.0 890486.50 0.0 41.0 841204105.433020 0.0 0.0 0.0 0.0 0.0 0.0 0.0 -3.27680 -3.27680 -3.27680 -3.27680 -3.27680 -3.27680
-0.26 -999.25 -999.25 -999.25 -999.25 -999.25 -999.25 -999.25 -999.25 -999.25 26.0 500.0 197.0 26.0 13.50 890486.0 0.0 41.0 841203161.948620 0.0 0.0 0.0 0.0 0.0 0.0 0.0 -3.27680 -3.27680 -3.27680 -3.27680 -3.27680 -3.27680
-0.27 -999.25 -999.25 -999.25 -999.25 -999.25 -999.25 -999.25 -999.25 -999.25 22.50 500.0 197.0 22.50 11.0 890485.50 0.0 41.0 841202218.464210 0.0 0.0 0.0 0.0 0.0 0.0 0.0 -3.27680 -3.27680 -3.27680 -3.27680 -3.27680 -3.27680
-0.28 -999.25 -999.25 -999.25 -999.25 -999.25 -999.25 -999.25 -999.25 -999.25 19.0 500.0 197.0 19.0 12.50 890485.0 0.0 41.0 841201274.979810 0.0 0.0 0.0 0.0 0.0 0.0 0.0 -3.27680 -3.27680 -3.27680 -3.27680 -3.27680 -3.27680
-0.29 -999.25 -999.25 -999.25 -999.25 -999.25 -999.25 -999.25 -999.25 -999.25 15.50 500.0 197.0 15.50 14.0 890484.250 0.0 41.0 841199859.757170 0.0 0.0 0.0 0.0 0.0 0.0 0.0 -3.27680 -3.27680 -3.27680 -3.27680 -3.27680 -3.27680
-0.30 -999.25 -999.25 -999.25 -999.25 -999.25 -999.25 -999.25 -999.25 -999.25 12.0 500.0 197.0 12.0 15.50 890483.50 0.0 41.0 841198444.534540 0.0 0.0 0.0 0.0 0.0 0.0 0.0 -3.27680 -3.27680 -3.27680 -3.27680 -3.27680 -3.27680
-0.31 -999.25 -999.25 -999.25 -999.25 -999.25 -999.25 -999.25 -999.25 -999.25 17.50 500.0 197.0 17.50 17.0 890482.750 0.0 41.0 841197029.31190 0.0 0.0 0.0 0.0 0.0 0.0 0.0 -3.27680 -3.27680 -3.27680 -3.27680 -3.27680 -3.27680
