~VERSION INFORMATION SECTION
VERS. 2.0 : CWLS LAS-VERSION 2.0
WRAP. NO : One line per depth step
~WELL INFORMATION SECTION
# MNEM.UNIT VALUE/NAME DESCRIPTION
#-------- -------------- ---------------------
STRT.Metres 25 : Start
STOP.Metres -2.12 : Stop
STEP.Metres -0.01 : Step
NULL.  -999.25 :NULL VALUE
DATE. 2026-13-09 : DATE
~CURVE INFORMATION SECTION
DEPTH.Metres : 0 Depth
Depth. : 1 Depth
Tension. : 2 Tension
Time. : 3 Time
Speed. : 4 Speed
Voltage. : 5 Voltage
Current. : 6 Current
WET. : 7 WET
Sig. : 8 Sig
Vth. : 9 Vth
GR.CPS : 10 GR
Timebase.ms : 11 Timebase
HeadVoltage.V : 12 Head Voltage
API.API : 13 API
Conductivity.uS : 14 Conductivity
PT100.Ohms : 15 PT100
Vmon.mV : 16 Vmon
Status. : 17 Status
Temperature.C : 18 Temperature
Incline.Deg : 19 Incline
Azimuth.Deg : 20 Azimuth
RelativeBearing.Deg : 21 Relative Bearing
MagneticToolFace.Deg : 22 Magnetic Tool Face
GravityMagnitude.G : 23 Gravity Magnitude
MagnetometerMagnitude.H : 24 Magnetometer Magnitude
Temperature.C : 25 Temperature
GX. : 26 GX
GY. : 27 GY
GZ. : 28 GZ
HX. : 29 HX
HY. : 30 HY
HZ. : 31 HZ
~PARAMETER INFORMATION SECTION
~OTHER
#-------------------------------------------------
#Produced By: GeoVista Logger - Version 7.1.107.0
Verticality Sonde - 9605
Temperature and Conductivity Sonde - Inline - 8974
Natural Gamma Sonde - 9931
WLIS - 10021
#-------------------------------------------------
~ASCII LOG DATA
# ...
1.90 1.920160 0.0 107.60 15.020 0.0960 0.1020 1.0 42.0 200.0 36.633990 506.153850 197.0 36.633990 1684.0 890764.50 155.0 42.0 841728764.839420 0.0 0.0 0.0 0.0 0.0 0.0 0.0 -3.27680 -3.27680 -3.27680 -3.27680 -3.27680 -3.27680
1.89 1.911760 0.0 107.633330 15.020 0.0960 0.101330 1.0 42.0 200.0 35.58170 505.384620 197.0 35.58170 1685.384620 890764.0 155.0 42.0 841727821.057670 0.0 0.0 0.0 0.0 0.0 0.0 0.0 -3.27680 -3.27680 -3.27680 -3.27680 -3.27680 -3.27680
1.88 1.903350 0.0 107.666670 15.020 0.0960 0.100670 1.0 42.0 200.0 34.529410 504.615380 197.0 34.529410 1686.769230 890763.666670 155.0 42.0 841727191.873350 0.0 0.0 0.0 0.0 0.0 0.0 0.0 -3.27680 -3.27680 -3.27680 -3.27680 -3.27680 -3.27680
1.87 1.894950 0.0 107.70 15.020 0.0960 0.10 1.0 42.0 200.0 33.477120 503.846150 197.0 33.477120 1688.153850 890763.333330 155.0 42.0 841726562.689040 0.0 0.0 0.0 0.0 0.0 0.0 0.0 -3.27680 -3.27680 -3.27680 -3.27680 -3.27680 -3.27680
1.86 1.882350 0.0 107.750 15.023570 0.0960 0.10 1.0 42.0 200.0 32.424840 503.076920 197.0 32.424840 1689.538460 890763.0 155.0 42.0 841725933.504730 0.0 0.0 0.0 0.0 0.0 0.0 0.0 -3.27680 -3.27680 -3.27680 -3.27680 -3.27680 -3.27680
1.85 1.869750 0.0 107.80 15.027140 0.0960 0.10 1.0 42.0 200.0 31.372550 502.307690 197.0 31.372550 1690.923080 890762.666670 155.0 42.0 841725304.320420 0.0 0.0 0.0 0.0 0.0 0.0 0.0 -3.27680 -3.27680 -3.27680 -3.27680 -3.27680 -3.27680
1.84 1.857150 0.0 107.850 15.030710 0.0960 0.1010 1.0 42.0 200.0 32.497740 501.538460 197.0 32.497740 1692.307690 890762.333330 155.0 42.0 841724675.136110 0.0 0.0 0.0 0.0 0.0 0.0 0.0 -3.27680 -3.27680 -3.27680 -3.27680 -3.27680 -3.27680
1.83 1.844550 0.0 107.90 15.034290 0.0960 0.1020 1.0 42.0 200.0 33.622930 500.769230 197.0 33.622930 1693.692310 890762.0 155.0 42.0 841724045.95180 0.0 0.0 0.0 0.0 0.0 0.0 0.0 -3.27680 -3.27680 -3.27680 -3.27680 -3.27680 -3.27680
1.82 1.836410 0.0 107.933330 15.037860 0.0960 0.1020 1.0 42.0 200.0 34.748110 500.0 197.0 34.748110 1695.076920 890761.666670 155.0 42.0 841723416.767490 0.0 0.0 0.0 0.0 0.0 0.0 0.0 -3.27680 -3.27680 -3.27680 -3.27680 -3.27680 -3.27680
1.81 1.828270 0.0 107.966670 15.041430 0.0960 0.1020 1.0 42.0 200.0 35.87330 500.0 197.0 35.87330 1696.461540 890761.333330 155.0 42.0 841722787.583180 0.0 0.0 0.0 0.0 0.0 0.0 0.0 -3.27680 -3.27680 -3.27680 -3.27680 -3.27680 -3.27680
1.80 1.820130 0.0 108.0 15.0450 0.0960 0.1020 1.0 42.0 200.0 36.998490 500.0 197.0 36.998490 1697.846150 890761.0 155.0 42.0 841722158.398870 0.0 0.0 0.0 0.0 0.0 0.0 0.0 -3.27680 -3.27680 -3.27680 -3.27680 -3.27680 -3.27680
1.79 1.807530 0.0 108.050 15.048570 0.0960 0.1020 1.0 42.0 200.0 38.123680 500.0 197.0 38.123680 1699.230770 890760.666670 155.0 42.0 841721529.214560 0.0 0.0 0.0 0.0 0.0 0.0 0.0 -3.27680 -3.27680 -3.27680 -3.27680 -3.27680 -3.27680
1.78 1.794930 0.0 108.10 15.052140 0.0960 0.1020 1.0 42.0 200.0 39.248870 500.0 197.0 39.248870 1700.615380 890760.333330 155.0 42.0 841720900.030250 0.0 0.0 0.0 0.0 0.0 0.0 0.0 -3.27680 -3.27680 -3.27680 -3.27680 -3.27680 -3.27680
1.77 1.786790 0.0 108.133330 15.055710 0.0960 0.1020 1.0 42.0 200.0 40.374060 500.0 197.0 40.374060 1702.0 890760.0 155.0 42.0 841720270.845930 0.0 0.0 0.0 0.0 0.0 0.0 0.0 -3.27680 -3.27680 -3.27680 -3.27680 -3.27680 -3.27680
1.76 1.778650 0.0 108.166670 15.059290 0.0960 0.1020 1.0 42.0 200.0 41.499250 500.0 197.0 41.499250 1701.583330 890759.846150 155.0 42.0 841719980.454150 0.0 0.0 0.0 0.0 0.0 0.0 0.0 -3.27680 -3.27680 -3.27680 -3.27680 -3.27680 -3.27680
1.75 1.770510 0.0 108.20 15.062860 0.0960 0.1020 1.0 42.0 200.0 42.624430 500.0 197.0 42.624430 1701.166670 890759.692310 155.0 42.0 841719690.062370 0.0 0.0 0.0 0.0 0.0 0.0 0.0 -3.27680 -3.27680 -3.27680 -3.27680 -3.27680 -3.27680
1.74 1.757910 0.0 108.250 15.066430 0.0960 0.1020 1.0 42.0 200.0 43.749620 500.0 197.0 43.749620 1700.750 890759.538460 155.0 42.0 841719399.670590 0.0 0.0 0.0 0.0 0.0 0.0 0.0 -3.27680 -3.27680 -3.27680 -3.27680 -3.27680 -3.27680
1.73 1.745310 0.0 108.30 15.070 0.0960 0.1020 1.0 42.0 200.0 44.874810 500.0 197.0 44.874810 1700.333330 890759.384620 155.0 42.0 841719109.278810 0.0 0.0 0.0 0.0 0.0 0.0 0.0 -3.27680 -3.27680 -3.27680 -3.27680 -3.27680 -3.27680
1.72 1.737170 0.0 108.333330 15.057330 0.0960 0.1020 1.0 42.0 200.0 46.0 500.0 197.0 46.0 1699.916670 890759.230770 155.0 42.0 841718818.887020 0.0 0.0 0.0 0.0 0.0 0.0 0.0 -3.27680 -3.27680 -3.27680 -3.27680 -3.27680 -3.27680
1.71 1.729030 0.0 108.366670 15.044670 0.0960 0.1020 1.0 42.0 200.0 44.333330 500.0 197.0 44.333330 1699.50 890759.076920 155.0 42.0 841718528.495240 0.0 0.0 0.0 0.0 0.0 0.0 0.0 -3.27680 -3.27680 -3.27680 -3.27680 -3.27680 -3.27680
1.70 1.72090 0.0 108.40 15.0320 0.0960 0.1020 1.0 42.0 200.0 42.666670 500.0 197.0 42.666670 1699.083330 890758.923080 155.0 42.0 841718238.103460 0.0 0.0 0.0 0.0 0.0 0.0 0.0 -3.27680 -3.27680 -3.27680 -3.27680 -3.27680 -3.27680
1.69 1.708290 0.0 108.450 15.019330 0.0960 0.1020 1.0 42.0 200.0 41.0 500.0 197.0 41.0 1698.666670 890758.769230 155.0 42.0 841717947.711680 0.0 0.0 0.0 0.0 0.0 0.0 0.0 -3.27680 -3.27680 -3.27680 -3.27680 -3.27680 -3.27680
1.68 1.695690 0.0 108.50 15.006670 0.0960 0.1020 1.0 42.0 200.0 39.333330 500.0 197.0 39.333330 1698.250 890758.615380 155.0 42.0 841717657.31990 0.0 0.0 0.0 0.0 0.0 0.0 0.0 -3.27680 -3.27680 -3.27680 -3.27680 -3.27680 -3.27680
1.67 1.687290 0.0 108.533330 14.9940 0.0960 0.1020 1.0 41.923080 200.0 37.666670 500.0 197.0 37.666670 1697.833330 890758.461540 155.0 42.0 841717366.928110 0.0 0.0 0.0 0.0 0.0 0.0 0.0 -3.27680 -3.27680 -3.27680 -3.27680 -3.27680 -3.27680
1.66 1.678890 0.0 108.566670 14.981330 0.0960 0.1020 1.0 41.846150 200.0 36.0 500.0 197.0 36.0 1697.416670 890758.307690 155.0 42.0 841717076.536330 0.0 0.0 0.0 0.0 0.0 0.0 0.0 -3.27680 -3.27680 -3.27680 -3.27680 -3.27680 -3.27680
1.65 1.670490 0.0 108.60 14.968670 0.0960 0.1020 1.0 41.769230 200.0 34.333330 500.0 197.0 34.333330 1697.0 890758.153850 155.0 42.0 841716786.144550 0.0 0.0 0.0 0.0 0.0 0.0 0.0 -3.27680 -3.27680 -3.27680 -3.27680 -3.27680 -3.27680
1.64 1.658280 0.0 108.650 14.9560 0.0960 0.1020 1.0 41.692310 200.0 32.666670 500.0 197.0 32.666670 1696.461540 890758.0 155.0 42.0 841716495.752770 0.0 0.0 0.0 0.0 0.0 0.0 0.0 -3.27680 -3.27680 -3.27680 -3.27680 -3.27680 -3.27680
1.63 1.646070 0.0 108.70 14.943330 0.0960 0.1020 1.0 41.615380 200.0 31.0 500.0 197.0 31.0 1695.923080 890757.666670 155.0 42.0 841715866.572690 0.0 0.0 0.0 0.0 0.0 0.0 0.0 -3.27680 -3.27680 -3.27680 -3.27680 -3.27680 -3.27680
1.62 1.637670 0.0 108.733330 14.930670 0.0960 0.1020 1.0 41.538460 200.0 29.333330 500.0 197.0 29.333330 1695.384620 890757.333330 155.0 42.0 841715237.392610 0.0 0.0 0.0 0.0 0.0 0.0 0.0 -3.27680 -3.27680 -3.27680 -3.27680 -3.27680 -3.27680
1.61 1.629270 0.0 108.766670 14.9180 0.0960 0.1020 1.0 41.461540 200.0 27.666670 500.0 197.0 27.666670 1694.846150 890757.0 155.0 42.0 841714608.212530 0.0 0.0 0.0 0.0 0.0 0.0 0.0 -3.27680 -3.27680 -3.27680 -3.27680 -3.27680 -3.27680
1.60 1.620870 0.0 108.80 14.905330 0.0960 0.1020 1.0 41.384620 200.0 26.0 500.0 197.0 26.0 1694.307690 890756.666670 155.0 42.0 841713979.032460 0.0 0.0 0.0 0.0 0.0 0.0 0.0 -3.27680 -3.27680 -3.27680 -3.27680 -3.27680 -3.27680
1.59 1.608660 0.0 108.850 14.892670 0.0960 0.1020 1.0 41.307690 200.0 26.153850 500.0 197.0 26.153850 1693.769230 890756.333330 154.153850 42.0 841713349.852380 0.0 0.0 0.0 0.0 0.0 0.0 0.0 -3.27680 -3.27680 -3.27680 -3.27680 -3.27680 -3.27680
1.58 1.596460 0.0 108.90 14.880 0.0960 0.1020 1.0 41.230770 200.0 26.307690 500.0 197.0 26.307690 1693.230770 890756.0 153.307690 42.0 841712720.67230 0.0 0.0 0.0 0.0 0.0 0.0 0.0 -3.27680 -3.27680 -3.27680 -3.27680 -3.27680 -3.27680
1.57 1.587790 0.0 108.933330 14.8860 0.0960 0.1020 1.0 41.153850 200.0 26.461540 500.0 197.0 26.461540 1692.692310 890755.666670 152.461540 42.0 841712091.492220 0.0 0.0 0.0 0.0 0.0 0.0 0.0 -3.27680 -3.27680 -3.27680 -3.27680 -3.27680 -3.27680
1.56 1.579130 0.0 108.966670 14.8920 0.0960 0.1020 1.0 41.076920 200.0 26.615380 500.0 197.0 26.615380 1692.153850 890755.333330 151.615380 42.0 841711462.312140 0.0 0.0 0.0 0.0 0.0 0.0 0.0 -3.27680 -3.27680 -3.27680 -3.27680 -3.27680 -3.27680
