~VERSION INFORMATION SECTION
VERS. 2.0 : CWLS LAS-VERSION 2.0
WRAP. NO : One line per depth step
~WELL INFORMATION SECTION
# MNEM.UNIT VALUE/NAME DESCRIPTION
#-------- -------------- ---------------------
STRT.Metres 26 : Start
STOP.Metres -2.05 : Stop
STEP.Metres -0.01 : Step
NULL.  -999.25 :NULL VALUE
DATE. 2026-29-09 : DATE
~CURVE INFORMATION SECTION
DEPTH.Metres : 0 Depth
Depth. : 1 Depth
Tension. : 2 Tension
Time. : 3 Time
Speed. : 4 Speed
Voltage. : 5 Voltage
Current. : 6 Current
WET. : 7 WET
Sig. : 8 Sig
Vth. : 9 Vth
GR.CPS : 10 GR
Timebase.ms : 11 Timebase
HeadVoltage.V : 12 Head Voltage
API.API : 13 API
Conductivity.uS : 14 Conductivity
PT100.Ohms : 15 PT100
Vmon.mV : 16 Vmon
Status. : 17 Status
Temperature.C : 18 Temperature
Incline.Deg : 19 Incline
Azimuth.Deg : 20 Azimuth
RelativeBearing.Deg : 21 Relative Bearing
MagneticToolFace.Deg : 22 Magnetic Tool Face
GravityMagnitude.G : 23 Gravity Magnitude
MagnetometerMagnitude.H : 24 Magnetometer Magnitude
Temperature.C : 25 Temperature
GX. : 26 GX
GY. : 27 GY
GZ. : 28 GZ
HX. : 29 HX
HY. : 30 HY
HZ. : 31 HZ
~PARAMETER INFORMATION SECTION
~OTHER
#-------------------------------------------------
#Produced By: GeoVista Logger - Version 7.1.107.0
Verticality Sonde - 9605
Temperature and Conductivity Sonde - Inline - 8974
Natural Gamma Sonde - 9931
WLIS - 10021
#-------------------------------------------------
~ASCII LOG DATA
# ...
16.37 16.392480 0.0 137.266670 15.063330 0.0960 0.1020 1.0 13.0 200.0 21.538460 500.0 197.0 21.538460 3672.583330 889336.307690 156.307690 43.0 839035127.147910 0.0 0.0 0.0 0.0 0.0 0.0 0.0 -3.27680 -3.27680 -3.27680 -3.27680 -3.27680 -3.27680
16.36 16.384340 0.0 137.30 15.070 0.0960 0.1020 1.0 13.0 200.0 22.153850 500.0 197.0 22.153850 3667.166670 889336.615380 156.230770 43.0 839035707.006120 0.0 0.0 0.0 0.0 0.0 0.0 0.0 -3.27680 -3.27680 -3.27680 -3.27680 -3.27680 -3.27680
16.35 16.372130 0.0 137.350 15.062860 0.0960 0.1020 1.0 13.0 200.0 22.769230 500.0 197.0 22.769230 3661.750 889336.923080 156.153850 43.0 839036286.864330 0.0 0.0 0.0 0.0 0.0 0.0 0.0 -3.27680 -3.27680 -3.27680 -3.27680 -3.27680 -3.27680
16.34 16.359920 0.0 137.40 15.055710 0.0960 0.1020 1.0 13.0 200.0 23.384620 500.0 197.0 23.384620 3656.333330 889337.230770 156.076920 43.0 839036866.722530 0.0 0.0 0.0 0.0 0.0 0.0 0.0 -3.27680 -3.27680 -3.27680 -3.27680 -3.27680 -3.27680
16.33 16.347720 0.0 137.450 15.048570 0.0960 0.1020 1.0 13.0 200.0 24.0 500.0 197.0 24.0 3650.916670 889337.538460 156.0 43.0 839037446.580740 0.0 0.0 0.0 0.0 0.0 0.0 0.0 -3.27680 -3.27680 -3.27680 -3.27680 -3.27680 -3.27680
16.32 16.335510 0.0 137.50 15.041430 0.0960 0.1020 1.0 13.0 200.0 23.666670 500.0 197.0 23.666670 3645.50 889337.846150 156.083330 43.0 839038026.438950 0.0 0.0 0.0 0.0 0.0 0.0 0.0 -3.27680 -3.27680 -3.27680 -3.27680 -3.27680 -3.27680
16.31 16.327110 0.0 137.533330 15.034290 0.0960 0.1020 1.0 13.0 200.0 23.333330 500.0 197.0 23.333330 3640.083330 889338.153850 156.166670 43.0 839038606.297160 0.0 0.0 0.0 0.0 0.0 0.0 0.0 -3.27680 -3.27680 -3.27680 -3.27680 -3.27680 -3.27680
16.30 16.318710 0.0 137.566670 15.027140 0.0960 0.1020 1.0 13.0 200.0 23.0 500.0 197.0 23.0 3634.666670 889338.461540 156.250 43.0 839039186.155370 0.0 0.0 0.0 0.0 0.0 0.0 0.0 -3.27680 -3.27680 -3.27680 -3.27680 -3.27680 -3.27680
16.29 16.31030 0.0 137.60 15.020 0.0960 0.1020 1.0 13.0 200.0 22.666670 500.0 197.0 22.666670 3629.250 889338.769230 156.333330 43.0 839039766.013580 0.0 0.0 0.0 0.0 0.0 0.0 0.0 -3.27680 -3.27680 -3.27680 -3.27680 -3.27680 -3.27680
16.28 16.30190 0.0 137.633330 15.012860 0.0960 0.1020 1.0 13.250 200.0 22.333330 500.0 197.0 22.333330 3623.833330 889339.076920 156.416670 43.0 839040345.871790 0.0 0.0 0.0 0.0 0.0 0.0 0.0 -3.27680 -3.27680 -3.27680 -3.27680 -3.27680 -3.27680
16.27 16.29350 0.0 137.666670 15.005710 0.0960 0.1020 1.0 13.50 200.0 22.0 500.0 197.0 22.0 3618.416670 889339.384620 156.50 43.0 839040925.730 0.0 0.0 0.0 0.0 0.0 0.0 0.0 -3.27680 -3.27680 -3.27680 -3.27680 -3.27680 -3.27680
16.26 16.28510 0.0 137.70 14.998570 0.0960 0.1020 1.0 13.750 200.0 21.666670 500.0 197.0 21.666670 3613.0 889339.692310 156.583330 43.0 839041505.588210 0.0 0.0 0.0 0.0 0.0 0.0 0.0 -3.27680 -3.27680 -3.27680 -3.27680 -3.27680 -3.27680
16.25 16.27250 0.0 137.750 14.991430 0.0960 0.1020 1.0 14.0 200.0 21.333330 500.0 197.0 21.333330 3602.538460 889340.0 156.666670 43.0 839042085.446410 0.0 0.0 0.0 0.0 0.0 0.0 0.0 -3.27680 -3.27680 -3.27680 -3.27680 -3.27680 -3.27680
16.24 16.25990 0.0 137.80 14.984290 0.0960 0.1020 1.0 14.250 200.0 21.0 500.0 197.0 21.0 3592.076920 889341.166670 156.750 43.0 839044284.097680 0.0 0.0 0.0 0.0 0.0 0.0 0.0 -3.27680 -3.27680 -3.27680 -3.27680 -3.27680 -3.27680
16.23 16.24730 0.0 137.850 14.977140 0.0960 0.1020 1.0 14.50 200.0 20.666670 500.0 197.0 20.666670 3581.615380 889342.333330 156.833330 43.0 839046482.748940 0.0 0.0 0.0 0.0 0.0 0.0 0.0 -3.27680 -3.27680 -3.27680 -3.27680 -3.27680 -3.27680
16.22 16.23470 0.0 137.90 14.970 0.0960 0.1020 1.0 14.750 200.0 20.333330 500.0 197.0 20.333330 3571.153850 889343.50 156.916670 43.0 839048681.400210 0.0 0.0 0.0 0.0 0.0 0.0 0.0 -3.27680 -3.27680 -3.27680 -3.27680 -3.27680 -3.27680
16.21 16.226820 0.0 137.933330 14.970 0.0960 0.1020 1.0 15.0 200.0 20.0 500.0 197.0 20.0 3560.692310 889344.666670 157.0 43.0 839050880.051470 0.0 0.0 0.0 0.0 0.0 0.0 0.0 -3.27680 -3.27680 -3.27680 -3.27680 -3.27680 -3.27680
16.20 16.218940 0.0 137.966670 14.970 0.0960 0.1020 1.0 15.250 200.0 19.833330 500.0 197.0 19.833330 3550.230770 889345.833330 157.0 43.0 839053078.702740 0.0 0.0 0.0 0.0 0.0 0.0 0.0 -3.27680 -3.27680 -3.27680 -3.27680 -3.27680 -3.27680
16.19 16.211070 0.0 138.0 14.970 0.0960 0.1020 1.0 15.50 200.0 19.666670 500.0 197.0 19.666670 3539.769230 889347.0 157.0 43.0 839055277.3540 0.0 0.0 0.0 0.0 0.0 0.0 0.0 -3.27680 -3.27680 -3.27680 -3.27680 -3.27680 -3.27680
16.18 16.202670 0.0 138.033330 14.970 0.0960 0.1020 1.0 15.750 200.0 19.50 500.0 197.0 19.50 3529.307690 889348.166670 157.0 43.0 839057476.005270 0.0 0.0 0.0 0.0 0.0 0.0 0.0 -3.27680 -3.27680 -3.27680 -3.27680 -3.27680 -3.27680
16.17 16.194270 0.0 138.066670 14.970 0.0960 0.1020 1.0 16.0 200.0 19.333330 500.0 197.0 19.333330 3518.846150 889349.333330 157.0 43.0 839059674.656530 0.0 0.0 0.0 0.0 0.0 0.0 0.0 -3.27680 -3.27680 -3.27680 -3.27680 -3.27680 -3.27680
16.16 16.185860 0.0 138.10 14.970 0.0960 0.1020 1.0 16.153850 200.0 19.166670 500.0 197.0 19.166670 3508.384620 889350.50 157.0 43.0 839061873.30780 0.0 0.0 0.0 0.0 0.0 0.0 0.0 -3.27680 -3.27680 -3.27680 -3.27680 -3.27680 -3.27680
16.15 16.172870 0.0 138.150 14.970 0.0960 0.1020 1.0 16.307690 200.0 19.0 500.0 197.0 19.0 3497.923080 889351.666670 157.0 43.0 839064071.959060 0.0 0.0 0.0 0.0 0.0 0.0 0.0 -3.27680 -3.27680 -3.27680 -3.27680 -3.27680 -3.27680
16.14 16.159870 0.0 138.20 14.970 0.0960 0.1020 1.0 16.461540 200.0 18.833330 500.0 197.0 18.833330 3487.461540 889352.833330 157.0 43.0 839066270.610330 0.0 0.0 0.0 0.0 0.0 0.0 0.0 -3.27680 -3.27680 -3.27680 -3.27680 -3.27680 -3.27680
16.13 16.151740 0.0 138.233330 14.970 0.0960 0.1020 1.0 16.615380 200.0 18.666670 500.0 197.0 18.666670 3477.0 889354.0 157.0 43.0 839068469.261590 0.0 0.0 0.0 0.0 0.0 0.0 0.0 -3.27680 -3.27680 -3.27680 -3.27680 -3.27680 -3.27680
16.12 16.14360 0.0 138.266670 14.970 0.0960 0.1020 1.0 16.769230 200.0 18.50 500.0 197.0 18.50 3470.416670 889354.846150 157.0 43.0 839070063.910170 0.0 0.0 0.0 0.0 0.0 0.0 0.0 -3.27680 -3.27680 -3.27680 -3.27680 -3.27680 -3.27680
16.11 16.135460 0.0 138.30 14.970 0.0960 0.1020 1.0 16.923080 200.0 18.333330 500.0 197.0 18.333330 3463.833330 889355.692310 157.0 43.0 839071658.558740 0.0 0.0 0.0 0.0 0.0 0.0 0.0 -3.27680 -3.27680 -3.27680 -3.27680 -3.27680 -3.27680
16.10 16.122460 0.0 138.350 14.970 0.0960 0.1020 1.0 17.076920 200.0 18.166670 500.0 197.0 18.166670 3457.250 889356.538460 157.0 43.0 839073253.207320 0.0 0.0 0.0 0.0 0.0 0.0 0.0 -3.27680 -3.27680 -3.27680 -3.27680 -3.27680 -3.27680
16.09 16.109470 0.0 138.40 14.970 0.0960 0.1020 1.0 17.230770 200.0 18.0 500.0 197.0 18.0 3450.666670 889357.384620 157.0 43.0 839074847.85590 0.0 0.0 0.0 0.0 0.0 0.0 0.0 -3.27680 -3.27680 -3.27680 -3.27680 -3.27680 -3.27680
16.08 16.101330 0.0 138.433330 14.970 0.0960 0.1020 1.0 17.384620 200.0 18.0 500.0 197.0 18.0 3444.083330 889358.230770 157.0 43.0 839076442.504470 0.0 0.0 0.0 0.0 0.0 0.0 0.0 -3.27680 -3.27680 -3.27680 -3.27680 -3.27680 -3.27680
16.07 16.093190 0.0 138.466670 14.970 0.0960 0.1020 1.0 17.538460 200.0 18.0 500.0 197.0 18.0 3437.50 889359.076920 157.0 43.0 839078037.153050 0.0 0.0 0.0 0.0 0.0 0.0 0.0 -3.27680 -3.27680 -3.27680 -3.27680 -3.27680 -3.27680
16.06 16.085050 0.0 138.50 14.970 0.0960 0.1020 1.0 17.692310 200.0 18.0 500.0 197.0 18.0 3430.916670 889359.923080 157.0 43.0 839079631.801630 0.0 0.0 0.0 0.0 0.0 0.0 0.0 -3.27680 -3.27680 -3.27680 -3.27680 -3.27680 -3.27680
16.05 16.072450 0.0 138.550 14.980 0.0960 0.1020 1.0 17.846150 200.0 18.0 500.833330 197.0 18.0 3424.333330 889360.769230 157.0 43.0 839081226.45020 0.0 0.0 0.0 0.0 0.0 0.0 0.0 -3.27680 -3.27680 -3.27680 -3.27680 -3.27680 -3.27680
16.04 16.059850 0.0 138.60 14.990 0.0960 0.1020 1.0 18.0 200.0 18.0 501.666670 197.0 18.0 3417.750 889361.615380 157.0 43.0 839082821.098780 0.0 0.0 0.0 0.0 0.0 0.0 0.0 -3.27680 -3.27680 -3.27680 -3.27680 -3.27680 -3.27680
16.03 16.051190 0.0 138.633330 15.0 0.0960 0.1020 1.0 18.0 200.0 18.0 502.50 197.0 18.0 3411.166670 889362.461540 157.0 43.0 839084415.747360 0.0 0.0 0.0 0.0 0.0 0.0 0.0 -3.27680 -3.27680 -3.27680 -3.27680 -3.27680 -3.27680
