~VERSION INFORMATION SECTION
VERS. 2.0 : CWLS LAS-VERSION 2.0
WRAP. NO : One line per depth step
~WELL INFORMATION SECTION
# MNEM.UNIT VALUE/NAME DESCRIPTION
#-------- -------------- ---------------------
STRT.Metres 26 : Start
STOP.Metres -2.04 : Stop
STEP.Metres -0.01 : Step
NULL.  -999.25 :NULL VALUE
DATE. 2026-36-09 : DATE
~CURVE INFORMATION SECTION
DEPTH.Metres : 0 Depth
Depth. : 1 Depth
Tension. : 2 Tension
Time. : 3 Time
Speed. : 4 Speed
Voltage. : 5 Voltage
Current. : 6 Current
WET. : 7 WET
Sig. : 8 Sig
Vth. : 9 Vth
GR.CPS : 10 GR
Timebase.ms : 11 Timebase
HeadVoltage.V : 12 Head Voltage
API.API : 13 API
Conductivity.uS : 14 Conductivity
PT100.Ohms : 15 PT100
Vmon.mV : 16 Vmon
Status. : 17 Status
Temperature.C : 18 Temperature
Incline.Deg : 19 Incline
Azimuth.Deg : 20 Azimuth
RelativeBearing.Deg : 21 Relative Bearing
MagneticToolFace.Deg : 22 Magnetic Tool Face
GravityMagnitude.G : 23 Gravity Magnitude
MagnetometerMagnitude.H : 24 Magnetometer Magnitude
Temperature.C : 25 Temperature
GX. : 26 GX
GY. : 27 GY
GZ. : 28 GZ
HX. : 29 HX
HY. : 30 HY
HZ. : 31 HZ
~PARAMETER INFORMATION SECTION
~OTHER
#-------------------------------------------------
#Produced By: GeoVista Logger - Version 7.1.107.0
Verticality Sonde - 9605
Temperature and Conductivity Sonde - Inline - 8974
Natural Gamma Sonde - 9931
WLIS - 10021
#-------------------------------------------------
~ASCII LOG DATA
# ...
21.21 21.230150 0.0 51.866670 14.9420 0.0960 0.100670 1.0 1.0 200.0 18.0 500.0 197.0 18.0 17072.0 889061.076920 141.0 43.0 838516525.126330 0.0 0.0 0.0 0.0 0.0 0.0 0.0 -3.27680 -3.27680 -3.27680 -3.27680 -3.27680 -3.27680
21.20 21.221750 0.0 51.90 14.9480 0.0960 0.10 1.0 1.0 200.0 18.0 500.0 197.0 18.0 17056.50 889060.923080 141.0 43.0 838516235.287410 0.0 0.0 0.0 0.0 0.0 0.0 0.0 -3.27680 -3.27680 -3.27680 -3.27680 -3.27680 -3.27680
21.19 21.209150 0.0 51.950 14.9540 0.0960 0.1010 1.0 1.0 200.0 18.0 500.0 197.0 18.0 17041.0 889060.769230 141.0 43.0 838515945.44850 0.0 0.0 0.0 0.0 0.0 0.0 0.0 -3.27680 -3.27680 -3.27680 -3.27680 -3.27680 -3.27680
21.18 21.196540 0.0 52.0 14.960 0.0960 0.1020 1.0 1.0 200.0 18.0 500.0 197.0 18.0 17025.50 889060.615380 141.0 43.0 838515655.609590 0.0 0.0 0.0 0.0 0.0 0.0 0.0 -3.27680 -3.27680 -3.27680 -3.27680 -3.27680 -3.27680
21.17 21.188140 0.0 52.033330 14.9660 0.0960 0.1020 1.0 0.923080 200.0 18.0 500.0 197.0 18.0 17010.0 889060.461540 141.0 43.0 838515365.770670 0.0 0.0 0.0 0.0 0.0 0.0 0.0 -3.27680 -3.27680 -3.27680 -3.27680 -3.27680 -3.27680
21.16 21.179740 0.0 52.066670 14.9720 0.0960 0.1020 1.0 0.846150 200.0 18.0 500.0 197.0 18.0 16994.50 889060.307690 141.0 43.0 838515075.931760 0.0 0.0 0.0 0.0 0.0 0.0 0.0 -3.27680 -3.27680 -3.27680 -3.27680 -3.27680 -3.27680
21.15 21.171340 0.0 52.10 14.9780 0.0960 0.1020 1.0 0.769230 200.0 18.0 500.0 197.0 18.0 16979.0 889060.153850 141.0 43.0 838514786.092850 0.0 0.0 0.0 0.0 0.0 0.0 0.0 -3.27680 -3.27680 -3.27680 -3.27680 -3.27680 -3.27680
21.14 21.158740 0.0 52.150 14.9840 0.0960 0.1020 1.0 0.692310 200.0 18.0 500.0 197.0 18.0 16960.384620 889060.0 141.0 43.0 838514496.253930 0.0 0.0 0.0 0.0 0.0 0.0 0.0 -3.27680 -3.27680 -3.27680 -3.27680 -3.27680 -3.27680
21.13 21.146140 0.0 52.20 14.990 0.0960 0.1020 1.0 0.615380 200.0 18.0 500.0 197.0 18.0 16941.769230 889060.083330 141.0 43.0 838514653.249920 0.0 0.0 0.0 0.0 0.0 0.0 0.0 -3.27680 -3.27680 -3.27680 -3.27680 -3.27680 -3.27680
21.12 21.137740 0.0 52.233330 14.9960 0.0960 0.1020 1.0 0.538460 200.0 18.0 500.0 197.0 18.0 16923.153850 889060.166670 141.0 43.0 838514810.245910 0.0 0.0 0.0 0.0 0.0 0.0 0.0 -3.27680 -3.27680 -3.27680 -3.27680 -3.27680 -3.27680
21.11 21.129340 0.0 52.266670 15.0020 0.0960 0.1020 1.0 0.461540 200.0 18.0 500.0 197.0 18.0 16904.538460 889060.250 141.0 43.0 838514967.24190 0.0 0.0 0.0 0.0 0.0 0.0 0.0 -3.27680 -3.27680 -3.27680 -3.27680 -3.27680 -3.27680
21.10 21.120940 0.0 52.30 15.0080 0.0960 0.1020 1.0 0.384620 200.0 18.0 500.0 197.0 18.0 16885.923080 889060.333330 141.0 43.0 838515124.237890 0.0 0.0 0.0 0.0 0.0 0.0 0.0 -3.27680 -3.27680 -3.27680 -3.27680 -3.27680 -3.27680
21.09 21.108330 0.0 52.350 15.0140 0.0960 0.1020 1.0 0.307690 200.0 18.461540 500.0 197.0 18.461540 16867.307690 889060.416670 141.0 43.0 838515281.233880 0.0 0.0 0.0 0.0 0.0 0.0 0.0 -3.27680 -3.27680 -3.27680 -3.27680 -3.27680 -3.27680
21.08 21.095730 0.0 52.40 15.020 0.0960 0.1020 1.0 0.230770 200.0 18.923080 500.0 197.0 18.923080 16848.692310 889060.50 141.0 43.0 838515438.229870 0.0 0.0 0.0 0.0 0.0 0.0 0.0 -3.27680 -3.27680 -3.27680 -3.27680 -3.27680 -3.27680
21.07 21.087590 0.0 52.433330 15.020 0.0960 0.1020 1.0 0.153850 200.0 19.384620 500.0 197.0 19.384620 16830.076920 889060.583330 141.0 43.0 838515595.225860 0.0 0.0 0.0 0.0 0.0 0.0 0.0 -3.27680 -3.27680 -3.27680 -3.27680 -3.27680 -3.27680
21.06 21.079460 0.0 52.466670 15.020 0.0960 0.1020 1.0 0.076920 200.0 19.846150 500.0 197.0 19.846150 16811.461540 889060.666670 141.0 43.0 838515752.221850 0.0 0.0 0.0 0.0 0.0 0.0 0.0 -3.27680 -3.27680 -3.27680 -3.27680 -3.27680 -3.27680
21.05 21.071320 0.0 52.50 15.020 0.0960 0.1020 1.0 0.0 200.0 20.307690 500.0 197.0 20.307690 16792.846150 889060.750 141.0 43.0 838515909.217840 0.0 0.0 0.0 0.0 0.0 0.0 0.0 -3.27680 -3.27680 -3.27680 -3.27680 -3.27680 -3.27680
21.04 21.058720 0.0 52.550 15.020 0.0960 0.1010 1.0 0.0 200.0 20.769230 500.0 197.0 20.769230 16774.230770 889060.833330 141.0 43.0 838516066.213830 0.0 0.0 0.0 0.0 0.0 0.0 0.0 -3.27680 -3.27680 -3.27680 -3.27680 -3.27680 -3.27680
21.03 21.046110 0.0 52.60 15.020 0.0960 0.10 1.0 0.0 200.0 21.230770 500.0 197.0 21.230770 16755.615380 889060.916670 141.0 43.0 838516223.209820 0.0 0.0 0.0 0.0 0.0 0.0 0.0 -3.27680 -3.27680 -3.27680 -3.27680 -3.27680 -3.27680
21.02 21.037710 0.0 52.633330 15.020 0.0960 0.100670 1.0 0.0 200.0 21.692310 500.0 197.0 21.692310 16737.0 889061.0 141.0 43.0 838516380.205810 0.0 0.0 0.0 0.0 0.0 0.0 0.0 -3.27680 -3.27680 -3.27680 -3.27680 -3.27680 -3.27680
21.01 21.029310 0.0 52.666670 15.020 0.0960 0.101330 1.0 0.0 200.0 22.153850 500.0 197.0 22.153850 16722.0 889061.230770 141.0 43.0 838516814.964920 0.0 0.0 0.0 0.0 0.0 0.0 0.0 -3.27680 -3.27680 -3.27680 -3.27680 -3.27680 -3.27680
21.00 21.020910 0.0 52.70 15.020 0.0960 0.1020 1.0 0.0 200.0 22.615380 500.0 197.0 22.615380 16707.0 889061.461540 141.0 43.0 838517249.724020 0.0 0.0 0.0 0.0 0.0 0.0 0.0 -3.27680 -3.27680 -3.27680 -3.27680 -3.27680 -3.27680
20.99 21.00870 0.0 52.750 15.020 0.0960 0.1020 1.0 0.0 200.0 23.076920 500.0 197.0 23.076920 16692.0 889061.692310 141.0 43.0 838517684.483120 0.0 0.0 0.0 0.0 0.0 0.0 0.0 -3.27680 -3.27680 -3.27680 -3.27680 -3.27680 -3.27680
20.98 20.99650 0.0 52.80 15.020 0.0960 0.1020 1.0 0.0 200.0 23.538460 500.0 197.0 23.538460 16677.0 889061.923080 141.0 43.0 838518119.242220 0.0 0.0 0.0 0.0 0.0 0.0 0.0 -3.27680 -3.27680 -3.27680 -3.27680 -3.27680 -3.27680
20.97 20.988090 0.0 52.833330 15.020 0.0960 0.1020 1.0 0.0 200.0 24.0 500.0 197.0 24.0 16662.0 889062.153850 141.0 43.0 838518554.001330 0.0 0.0 0.0 0.0 0.0 0.0 0.0 -3.27680 -3.27680 -3.27680 -3.27680 -3.27680 -3.27680
20.96 20.979690 0.0 52.866670 15.020 0.0960 0.1020 1.0 0.0 200.0 23.666670 500.0 197.0 23.666670 16647.0 889062.384620 141.0 43.0 838518988.760430 0.0 0.0 0.0 0.0 0.0 0.0 0.0 -3.27680 -3.27680 -3.27680 -3.27680 -3.27680 -3.27680
20.95 20.971290 0.0 52.90 15.020 0.0960 0.1020 1.0 0.0 200.0 23.333330 500.0 197.0 23.333330 16632.0 889062.615380 141.0 43.0 838519423.519530 0.0 0.0 0.0 0.0 0.0 0.0 0.0 -3.27680 -3.27680 -3.27680 -3.27680 -3.27680 -3.27680
20.94 20.959080 0.0 52.950 15.020 0.0960 0.1020 1.0 0.0 200.0 23.0 500.0 197.0 23.0 16617.0 889062.846150 141.0 43.0 838519858.278630 0.0 0.0 0.0 0.0 0.0 0.0 0.0 -3.27680 -3.27680 -3.27680 -3.27680 -3.27680 -3.27680
20.93 20.946880 0.0 53.0 15.020 0.0960 0.1020 1.0 0.0 200.0 22.666670 500.0 197.0 22.666670 16602.0 889063.076920 141.0 43.0 838520293.037740 0.0 0.0 0.0 0.0 0.0 0.0 0.0 -3.27680 -3.27680 -3.27680 -3.27680 -3.27680 -3.27680
20.92 20.938480 0.0 53.033330 15.016670 0.0960 0.1020 1.0 0.0 200.0 22.333330 500.0 197.0 22.333330 16587.0 889063.307690 141.0 43.0 838520727.796840 0.0 0.0 0.0 0.0 0.0 0.0 0.0 -3.27680 -3.27680 -3.27680 -3.27680 -3.27680 -3.27680
20.91 20.930070 0.0 53.066670 15.013330 0.0960 0.1020 1.0 0.0 200.0 22.0 500.0 197.0 22.0 16572.0 889063.538460 141.0 43.0 838521162.555940 0.0 0.0 0.0 0.0 0.0 0.0 0.0 -3.27680 -3.27680 -3.27680 -3.27680 -3.27680 -3.27680
20.90 20.921670 0.0 53.10 15.010 0.0960 0.1020 1.0 0.0 200.0 21.666670 500.0 197.0 21.666670 16557.0 889063.769230 141.0 43.0 838521597.315040 0.0 0.0 0.0 0.0 0.0 0.0 0.0 -3.27680 -3.27680 -3.27680 -3.27680 -3.27680 -3.27680
20.89 20.909070 0.0 53.150 15.006670 0.0960 0.1020 1.0 0.0 200.0 21.333330 500.0 197.0 21.333330 16536.461540 889064.0 141.0 43.0 838522032.074150 0.0 0.0 0.0 0.0 0.0 0.0 0.0 -3.27680 -3.27680 -3.27680 -3.27680 -3.27680 -3.27680
20.88 20.896470 0.0 53.20 15.003330 0.0960 0.1020 1.0 0.0 200.0 21.0 500.0 197.0 21.0 16515.923080 889064.166670 141.0 43.0 838522346.067710 0.0 0.0 0.0 0.0 0.0 0.0 0.0 -3.27680 -3.27680 -3.27680 -3.27680 -3.27680 -3.27680
20.87 20.888330 0.0 53.233330 15.0 0.0960 0.1020 1.0 0.0 200.0 20.666670 500.0 197.0 20.666670 16495.384620 889064.333330 141.0 43.0 838522660.061280 0.0 0.0 0.0 0.0 0.0 0.0 0.0 -3.27680 -3.27680 -3.27680 -3.27680 -3.27680 -3.27680
20.86 20.880190 0.0 53.266670 14.996670 0.0960 0.1020 1.0 0.0 200.0 20.333330 500.0 197.0 20.333330 16474.846150 889064.50 141.0 43.0 838522974.054850 0.0 0.0 0.0 0.0 0.0 0.0 0.0 -3.27680 -3.27680 -3.27680 -3.27680 -3.27680 -3.27680
