~VERSION INFORMATION SECTION
VERS. 2.0 : CWLS LAS-VERSION 2.0
WRAP. NO : One line per depth step
~WELL INFORMATION SECTION
# MNEM.UNIT VALUE/NAME DESCRIPTION
#-------- -------------- ---------------------
STRT.Metres 19 : Start
STOP.Metres -2.05 : Stop
STEP.Metres -0.01 : Step
NULL.  -999.25 :NULL VALUE
DATE. 2026-03-09 : DATE
~CURVE INFORMATION SECTION
DEPTH.Metres : 0 Depth
Depth. : 1 Depth
Tension. : 2 Tension
Time. : 3 Time
Speed. : 4 Speed
Voltage. : 5 Voltage
Current. : 6 Current
WET. : 7 WET
Sig. : 8 Sig
Vth. : 9 Vth
GR.CPS : 10 GR
Timebase.ms : 11 Timebase
HeadVoltage.V : 12 Head Voltage
API.API : 13 API
Conductivity.uS : 14 Conductivity
PT100.Ohms : 15 PT100
Vmon.mV : 16 Vmon
Status. : 17 Status
Temperature.C : 18 Temperature
Incline.Deg : 19 Incline
Azimuth.Deg : 20 Azimuth
RelativeBearing.Deg : 21 Relative Bearing
MagneticToolFace.Deg : 22 Magnetic Tool Face
GravityMagnitude.G : 23 Gravity Magnitude
MagnetometerMagnitude.H : 24 Magnetometer Magnitude
Temperature.C : 25 Temperature
GX. : 26 GX
GY. : 27 GY
GZ. : 28 GZ
HX. : 29 HX
HY. : 30 HY
HZ. : 31 HZ
~PARAMETER INFORMATION SECTION
~OTHER
#-------------------------------------------------
#Produced By: GeoVista Logger - Version 7.1.107.0
Verticality Sonde - 9605
Temperature and Conductivity Sonde - Inline - 8974
Natural Gamma Sonde - 9931
WLIS - 10021
#-------------------------------------------------
~ASCII LOG DATA
# ...
4.25 4.255380 0.0 202.650 5.0 0.0960 0.1020 1.0 43.0 200.0 31.50 506.0 197.0 31.50 1741.0 890663.50 150.0 41.0 841538132.25140 0.0 0.0 0.0 0.0 0.0 0.0 0.0 -3.27680 -3.27680 -3.27680 -3.27680 -3.27680 -3.27680
4.24 4.242770 0.0 202.80 5.0 0.0960 0.1020 1.0 43.0 200.0 27.0 508.0 197.0 27.0 1737.50 890664.0 150.0 41.0 841539075.923110 0.0 0.0 0.0 0.0 0.0 0.0 0.0 -3.27680 -3.27680 -3.27680 -3.27680 -3.27680 -3.27680
4.23 4.234110 0.0 202.90 5.0 0.0960 0.1020 1.0 43.0 200.0 22.50 510.0 197.0 22.50 1734.0 890663.50 150.0 41.0 841538132.25140 0.0 0.0 0.0 0.0 0.0 0.0 0.0 -3.27680 -3.27680 -3.27680 -3.27680 -3.27680 -3.27680
4.22 4.226230 0.0 203.0 5.0 0.0960 0.1020 1.0 43.0 200.0 18.0 507.50 197.0 18.0 1730.50 890663.0 150.0 41.0 841537188.57970 0.0 0.0 0.0 0.0 0.0 0.0 0.0 -3.27680 -3.27680 -3.27680 -3.27680 -3.27680 -3.27680
4.21 4.217570 0.0 203.10 5.0 0.0960 0.1020 1.0 43.0 200.0 19.0 505.0 197.0 19.0 1727.0 890662.50 150.0 41.0 841536244.907990 0.0 0.0 0.0 0.0 0.0 0.0 0.0 -3.27680 -3.27680 -3.27680 -3.27680 -3.27680 -3.27680
4.20 4.205760 0.0 203.250 5.0 0.0960 0.1020 1.0 43.0 200.0 20.0 502.50 197.0 20.0 1723.80 890662.0 150.0 41.0 841535301.236290 0.0 0.0 0.0 0.0 0.0 0.0 0.0 -3.27680 -3.27680 -3.27680 -3.27680 -3.27680 -3.27680
4.19 4.193160 0.0 203.40 5.0 0.0960 0.1020 1.0 43.0 200.0 21.0 500.0 197.0 21.0 1720.60 890663.0 149.750 41.0 841537188.581810 0.0 0.0 0.0 0.0 0.0 0.0 0.0 -3.27680 -3.27680 -3.27680 -3.27680 -3.27680 -3.27680
4.18 4.184490 0.0 203.50 5.0 0.0960 0.1020 1.0 43.250 200.0 22.0 500.0 197.0 22.0 1717.40 890664.0 149.50 41.0 841539075.927340 0.0 0.0 0.0 0.0 0.0 0.0 0.0 -3.27680 -3.27680 -3.27680 -3.27680 -3.27680 -3.27680
4.17 4.176620 0.0 203.60 5.0 0.0960 0.1020 1.0 43.50 200.0 20.737250 500.0 197.0 20.737250 1714.20 890665.0 149.250 41.0 841540963.272860 0.0 0.0 0.0 0.0 0.0 0.0 0.0 -3.27680 -3.27680 -3.27680 -3.27680 -3.27680 -3.27680
4.16 4.167950 0.0 203.70 4.9920 0.0960 0.1020 1.0 43.750 200.0 19.474510 500.0 197.0 19.474510 1711.0 890666.0 149.0 41.0 841542850.618390 0.0 0.0 0.0 0.0 0.0 0.0 0.0 -3.27680 -3.27680 -3.27680 -3.27680 -3.27680 -3.27680
4.15 4.155350 0.0 203.850 4.9840 0.0960 0.1020 1.0 44.0 200.0 18.211760 500.0 197.0 18.211760 1716.50 890666.0 149.20 41.0 841542850.618390 0.0 0.0 0.0 0.0 0.0 0.0 0.0 -3.27680 -3.27680 -3.27680 -3.27680 -3.27680 -3.27680
4.14 4.142750 0.0 204.0 4.9760 0.0960 0.1020 1.0 44.0 200.0 16.949020 500.0 197.0 16.949020 1722.0 890666.0 149.40 41.0 841542850.618390 0.0 0.0 0.0 0.0 0.0 0.0 0.0 -3.27680 -3.27680 -3.27680 -3.27680 -3.27680 -3.27680
4.13 4.134870 0.0 204.10 4.9680 0.0960 0.1020 1.0 44.0 200.0 15.686270 500.0 197.0 15.686270 1727.50 890666.0 149.60 41.0 841542850.618390 0.0 0.0 0.0 0.0 0.0 0.0 0.0 -3.27680 -3.27680 -3.27680 -3.27680 -3.27680 -3.27680
4.12 4.126210 0.0 204.20 4.960 0.0960 0.1020 1.0 44.0 200.0 17.764710 500.0 197.0 17.764710 1733.0 890666.0 149.80 41.0 841542850.618390 0.0 0.0 0.0 0.0 0.0 0.0 0.0 -3.27680 -3.27680 -3.27680 -3.27680 -3.27680 -3.27680
4.11 4.117550 0.0 204.30 4.9680 0.0960 0.1020 1.0 44.0 200.0 19.843140 500.0 197.0 19.843140 1734.750 890665.50 150.0 41.0 841541906.944570 0.0 0.0 0.0 0.0 0.0 0.0 0.0 -3.27680 -3.27680 -3.27680 -3.27680 -3.27680 -3.27680
4.10 4.105340 0.0 204.450 4.9760 0.0960 0.1020 1.0 44.0 200.0 21.921570 500.0 197.0 21.921570 1736.50 890665.0 150.0 41.0 841540963.270750 0.0 0.0 0.0 0.0 0.0 0.0 0.0 -3.27680 -3.27680 -3.27680 -3.27680 -3.27680 -3.27680
4.09 4.093130 0.0 204.60 4.9840 0.0960 0.1020 1.0 44.0 200.0 24.0 500.0 197.0 24.0 1738.250 890664.50 150.0 41.0 841540019.596930 0.0 0.0 0.0 0.0 0.0 0.0 0.0 -3.27680 -3.27680 -3.27680 -3.27680 -3.27680 -3.27680
4.08 4.084470 0.0 204.70 4.9920 0.0960 0.1020 1.0 44.0 200.0 22.50 500.0 197.0 22.50 1740.0 890664.0 150.0 41.0 841539075.923110 0.0 0.0 0.0 0.0 0.0 0.0 0.0 -3.27680 -3.27680 -3.27680 -3.27680 -3.27680 -3.27680
4.07 4.07580 0.0 204.80 5.0 0.0960 0.1020 1.0 44.0 200.0 21.0 500.0 197.0 21.0 1736.0 890664.60 150.0 41.0 841540208.332330 0.0 0.0 0.0 0.0 0.0 0.0 0.0 -3.27680 -3.27680 -3.27680 -3.27680 -3.27680 -3.27680
4.06 4.067930 0.0 204.90 5.0 0.0960 0.1020 1.0 43.80 200.0 19.50 500.0 197.0 19.50 1732.0 890665.20 150.0 41.0 841541340.741550 0.0 0.0 0.0 0.0 0.0 0.0 0.0 -3.27680 -3.27680 -3.27680 -3.27680 -3.27680 -3.27680
4.05 4.055330 0.0 205.050 5.0 0.0960 0.1020 1.0 43.60 200.0 18.0 500.0 197.0 18.0 1728.0 890665.80 150.0 41.0 841542473.150770 0.0 0.0 0.0 0.0 0.0 0.0 0.0 -3.27680 -3.27680 -3.27680 -3.27680 -3.27680 -3.27680
4.04 4.042730 0.0 205.20 5.0 0.0960 0.1020 1.0 43.40 200.0 17.50 500.0 197.0 17.50 1724.0 890666.40 150.0 41.0 841543605.559990 0.0 0.0 0.0 0.0 0.0 0.0 0.0 -3.27680 -3.27680 -3.27680 -3.27680 -3.27680 -3.27680
4.03 4.034850 0.0 205.30 5.0 0.0960 0.1020 1.0 43.20 200.0 17.0 500.0 197.0 17.0 1729.50 890667.0 150.0 41.0 841544737.969210 0.0 0.0 0.0 0.0 0.0 0.0 0.0 -3.27680 -3.27680 -3.27680 -3.27680 -3.27680 -3.27680
4.02 4.026190 0.0 205.40 5.0 0.0960 0.1020 1.0 43.0 200.0 16.50 500.0 197.0 16.50 1735.0 890666.50 150.0 41.0 841543794.294330 0.0 0.0 0.0 0.0 0.0 0.0 0.0 -3.27680 -3.27680 -3.27680 -3.27680 -3.27680 -3.27680
4.01 4.018310 0.0 205.50 4.9920 0.0960 0.1020 1.0 43.0 200.0 16.0 500.0 197.0 16.0 1740.50 890666.0 150.0 41.0 841542850.619450 0.0 0.0 0.0 0.0 0.0 0.0 0.0 -3.27680 -3.27680 -3.27680 -3.27680 -3.27680 -3.27680
4.00 4.005710 0.0 205.650 4.9840 0.0960 0.1020 1.0 43.0 200.0 17.0 500.0 197.0 17.0 1746.0 890665.50 150.0 41.0 841541906.944570 0.0 0.0 0.0 0.0 0.0 0.0 0.0 -3.27680 -3.27680 -3.27680 -3.27680 -3.27680 -3.27680
3.99 3.993110 0.0 205.80 4.9760 0.0960 0.1020 1.0 43.0 200.0 18.0 500.0 197.0 18.0 1744.50 890665.0 150.0 41.0 841540963.269690 0.0 0.0 0.0 0.0 0.0 0.0 0.0 -3.27680 -3.27680 -3.27680 -3.27680 -3.27680 -3.27680
3.98 3.984440 0.0 205.90 4.9680 0.0960 0.1020 1.0 43.0 200.0 19.0 500.0 197.0 19.0 1743.0 890665.0 150.0 41.0 841540963.269690 0.0 0.0 0.0 0.0 0.0 0.0 0.0 -3.27680 -3.27680 -3.27680 -3.27680 -3.27680 -3.27680
3.97 3.976570 0.0 206.0 4.960 0.0960 0.1020 1.0 43.0 200.0 20.0 500.0 197.0 20.0 1741.50 890665.0 150.0 41.0 841540963.269690 0.0 0.0 0.0 0.0 0.0 0.0 0.0 -3.27680 -3.27680 -3.27680 -3.27680 -3.27680 -3.27680
3.96 3.96790 0.0 206.10 4.9680 0.0960 0.1020 1.0 43.0 200.0 24.0 500.0 197.0 24.0 1740.0 890665.0 150.0 41.0 841540963.269690 0.0 0.0 0.0 0.0 0.0 0.0 0.0 -3.27680 -3.27680 -3.27680 -3.27680 -3.27680 -3.27680
3.95 3.95530 0.0 206.250 4.9760 0.0960 0.1020 1.0 43.0 200.0 28.0 500.0 197.0 28.0 1737.40 890665.0 150.0 41.0 841540963.269690 0.0 0.0 0.0 0.0 0.0 0.0 0.0 -3.27680 -3.27680 -3.27680 -3.27680 -3.27680 -3.27680
3.94 3.943490 0.0 206.40 4.9840 0.0960 0.1020 1.0 43.0 200.0 32.0 500.0 197.0 32.0 1734.80 890666.0 150.0 41.0 841542850.621560 0.0 0.0 0.0 0.0 0.0 0.0 0.0 -3.27680 -3.27680 -3.27680 -3.27680 -3.27680 -3.27680
3.93 3.934820 0.0 206.50 4.9920 0.0960 0.1020 1.0 43.250 200.0 36.0 500.0 197.0 36.0 1732.20 890667.0 150.0 41.0 841544737.973440 0.0 0.0 0.0 0.0 0.0 0.0 0.0 -3.27680 -3.27680 -3.27680 -3.27680 -3.27680 -3.27680
3.92 3.926950 0.0 206.60 5.0 0.0960 0.1020 1.0 43.50 200.0 34.0 500.0 197.0 34.0 1729.60 890668.0 150.0 41.0 841546625.325310 0.0 0.0 0.0 0.0 0.0 0.0 0.0 -3.27680 -3.27680 -3.27680 -3.27680 -3.27680 -3.27680
3.91 3.914350 0.0 206.750 4.9920 0.0960 0.1020 1.0 43.750 200.0 32.0 500.0 197.0 32.0 1727.0 890669.0 150.0 41.0 841548512.677190 0.0 0.0 0.0 0.0 0.0 0.0 0.0 -3.27680 -3.27680 -3.27680 -3.27680 -3.27680 -3.27680
3.90 3.901750 0.0 206.90 4.9840 0.0960 0.1020 1.0 44.0 200.0 30.0 500.0 197.0 30.0 1722.250 890668.0 150.0 41.0 841546625.325310 0.0 0.0 0.0 0.0 0.0 0.0 0.0 -3.27680 -3.27680 -3.27680 -3.27680 -3.27680 -3.27680
3.89 3.893080 0.0 207.0 4.9760 0.0960 0.1020 1.0 44.0 200.0 28.0 500.0 197.0 28.0 1717.50 890667.0 150.0 41.0 841544737.973440 0.0 0.0 0.0 0.0 0.0 0.0 0.0 -3.27680 -3.27680 -3.27680 -3.27680 -3.27680 -3.27680
3.88 3.885210 0.0 207.10 4.9680 0.0960 0.1020 1.0 44.0 200.0 26.0 500.0 197.0 26.0 1712.750 890666.0 150.0 41.0 841542850.621560 0.0 0.0 0.0 0.0 0.0 0.0 0.0 -3.27680 -3.27680 -3.27680 -3.27680 -3.27680 -3.27680
