~VERSION INFORMATION SECTION
VERS. 2.0 : CWLS LAS-VERSION 2.0
WRAP. NO : One line per depth step
~WELL INFORMATION SECTION
# MNEM.UNIT VALUE/NAME DESCRIPTION
#-------- -------------- ---------------------
STRT.Metres 2 : Start
STOP.Metres 22.45 : Stop
STEP.Metres 0.01 : Step
NULL.  -999.25 :NULL VALUE
DATE. 2026-02-09 : DATE
~CURVE INFORMATION SECTION
DEPTH.Metres : 0 Depth
Depth. : 1 Depth
Tension. : 2 Tension
Time. : 3 Time
Speed. : 4 Speed
Voltage. : 5 Voltage
Current. : 6 Current
WET. : 7 WET
Sig. : 8 Sig
Vth. : 9 Vth
GR.CPS : 10 GR
Timebase.ms : 11 Timebase
HeadVoltage.V : 12 Head Voltage
API.API : 13 API
Conductivity.uS : 14 Conductivity
PT100.Ohms : 15 PT100
Vmon.mV : 16 Vmon
Status. : 17 Status
Temperature.C : 18 Temperature
Incline.Deg : 19 Incline
Azimuth.Deg : 20 Azimuth
RelativeBearing.Deg : 21 Relative Bearing
MagneticToolFace.Deg : 22 Magnetic Tool Face
GravityMagnitude.G : 23 Gravity Magnitude
MagnetometerMagnitude.H : 24 Magnetometer Magnitude
Temperature.C : 25 Temperature
GX. : 26 GX
GY. : 27 GY
GZ. : 28 GZ
HX. : 29 HX
HY. : 30 HY
HZ. : 31 HZ
~PARAMETER INFORMATION SECTION
~OTHER
#-------------------------------------------------
#Produced By: GeoVista Logger - Version 7.1.107.0
Verticality Sonde - 6292
Temperature and Conductivity Sonde - Inline - 8974
Natural Gamma Sonde - 9931
WLIS - 10024
#-------------------------------------------------
~ASCII LOG DATA
# ...
14.43 14.427170 0.0 85.60 10.010 0.0960 0.1040 1.0 33.0 100.0 18.50 500.0 196.0 18.50 85.91110 109.641680 152.250 43.0 24.757160 0.244440 296.777780 209.855560 147.122220 1.79150 6.062560 21.683330 -0.007070 -0.004050 1.791380 0.218450 -0.143450 -0.546950
14.44 14.435830 0.0 85.650 10.010 0.0960 0.1040 1.0 33.0 100.0 21.250 500.0 196.0 21.250 85.984450 109.641540 152.1250 43.0 24.756820 0.255560 296.522220 209.944440 146.977780 1.79150 6.062440 21.686670 -0.006860 -0.003880 1.791360 0.218530 -0.143330 -0.546980
14.45 14.444490 0.0 85.70 10.010 0.0960 0.1040 1.0 33.0 100.0 24.0 500.0 196.0 24.0 86.05780 109.641410 152.0 43.0 24.756470 0.266670 296.266670 210.033330 146.833330 1.79150 6.062330 21.690 -0.006650 -0.00370 1.791350 0.21860 -0.14320 -0.5470
14.46 14.461820 0.0 85.80 10.010 0.0960 0.1040 1.0 33.0 100.0 22.0 500.0 196.0 22.0 86.131150 109.641280 152.111110 43.0 24.756130 0.277780 296.011110 210.122220 146.688890 1.79150 6.062220 21.693330 -0.006440 -0.003530 1.791340 0.218680 -0.143080 -0.547030
14.47 14.470090 0.0 85.850 10.010 0.0960 0.1040 1.0 33.0 100.0 20.0 500.0 196.0 20.0 86.20450 109.640940 152.222220 43.0 24.755250 0.288890 295.755560 210.211110 146.544440 1.79150 6.062110 21.696670 -0.006220 -0.003350 1.791330 0.218750 -0.142950 -0.547050
14.48 14.478360 0.0 85.90 10.010 0.0960 0.1040 1.0 33.0 100.0 18.0 500.0 196.0 18.0 86.277850 109.64060 152.333330 43.0 24.754380 0.30 295.50 210.30 146.40 1.79150 6.0620 21.70 -0.006010 -0.003180 1.791310 0.218830 -0.142830 -0.547080
14.49 14.486630 0.0 85.950 10.020 0.0960 0.1030 1.0 33.0 100.0 16.0 500.0 196.0 16.0 86.35120 109.640260 152.444440 43.0 24.75350 0.28750 296.0 209.90 146.46250 1.791490 6.062130 21.698750 -0.00580 -0.0030 1.79130 0.21890 -0.14270 -0.54710
14.50 14.49490 0.0 86.0 10.030 0.0960 0.1020 1.0 33.0 100.0 14.0 500.0 196.0 14.0 86.424550 109.639920 152.555560 43.0 24.752630 0.2750 296.50 209.50 146.5250 1.791480 6.062250 21.69750 -0.005680 -0.002890 1.791290 0.219090 -0.142360 -0.547120
14.51 14.511440 0.0 86.10 10.040 0.0960 0.1040 1.0 33.0 100.0 12.0 500.0 196.0 12.0 86.502790 109.639580 152.666670 43.0 24.751760 0.26250 297.0 209.10 146.58750 1.791460 6.062380 21.696250 -0.005560 -0.002780 1.791280 0.219280 -0.142010 -0.547140
14.52 14.519710 0.0 86.150 10.050 0.0960 0.1040 1.0 33.0 100.0 10.0 500.0 196.0 10.0 86.581030 109.639240 152.777780 43.0 24.750880 0.250 297.50 208.70 146.650 1.791450 6.06250 21.6950 -0.005430 -0.002670 1.791270 0.219470 -0.141670 -0.547170
14.53 14.527980 0.0 86.20 10.060 0.0960 0.1040 1.0 33.0 100.0 8.0 500.0 196.0 8.0 86.659270 109.63890 152.888890 43.0 24.750010 0.23750 298.0 208.30 146.71250 1.791440 6.062630 21.693750 -0.005310 -0.002560 1.791260 0.219660 -0.141320 -0.547190
14.54 14.535850 0.0 86.250 10.070 0.0960 0.1040 1.0 33.0 100.0 6.0 500.0 196.0 6.0 86.737510 109.638560 153.0 43.0 24.749140 0.2250 298.50 207.90 146.7750 1.791430 6.062750 21.69250 -0.005190 -0.002440 1.791240 0.219840 -0.140980 -0.547210
14.55 14.543730 0.0 86.30 10.080 0.0960 0.1040 1.0 33.0 100.0 9.0 500.0 196.0 9.0 86.815750 109.638220 153.0 43.0 24.748260 0.21250 299.0 207.50 146.83750 1.791410 6.062880 21.691250 -0.005070 -0.002330 1.791230 0.220030 -0.140630 -0.547230
14.56 14.561060 0.0 86.40 10.090 0.0960 0.1040 1.0 33.0 100.0 12.0 500.0 196.0 12.0 86.893990 109.637890 153.0 43.0 24.747390 0.20 299.50 207.10 146.90 1.79140 6.0630 21.690 -0.004940 -0.002220 1.791220 0.220220 -0.140290 -0.547260
14.57 14.569330 0.0 86.450 10.10 0.0960 0.1040 1.0 33.0 100.0 15.0 500.0 196.0 15.0 86.972230 109.637550 153.0 43.0 24.746520 0.20 299.03750 207.71250 147.06250 1.791410 6.063130 21.691250 -0.004820 -0.002110 1.791210 0.220410 -0.139940 -0.547280
14.58 14.57760 0.0 86.50 10.110 0.0960 0.1040 1.0 33.0 100.0 18.0 500.0 196.0 18.0 87.050460 109.637210 153.0 43.0 24.745640 0.20 298.5750 208.3250 147.2250 1.791430 6.063250 21.69250 -0.00470 -0.0020 1.79120 0.22060 -0.13960 -0.54730
14.59 14.585870 0.0 86.550 10.0950 0.0960 0.1040 1.0 33.0 100.0 21.0 500.0 196.0 21.0 87.12870 109.636870 153.0 43.0 24.744770 0.20 298.11250 208.93750 147.38750 1.791440 6.063380 21.693750 -0.004940 -0.002450 1.791240 0.220760 -0.139230 -0.547340
14.60 14.594140 0.0 86.60 10.080 0.0960 0.1040 1.0 33.0 100.0 24.0 500.0 196.0 24.0 87.048020 109.636530 153.0 43.0 24.74390 0.20 297.650 209.550 147.550 1.791450 6.06350 21.6950 -0.005180 -0.00290 1.791280 0.220930 -0.138850 -0.547380
14.61 14.611460 0.0 86.70 10.0650 0.0960 0.1040 1.0 33.0 100.0 27.0 500.0 196.0 27.0 86.967340 109.636190 153.0 43.0 24.743020 0.20 297.18750 210.16250 147.71250 1.791460 6.063630 21.696250 -0.005410 -0.003350 1.791310 0.221090 -0.138480 -0.547410
14.62 14.619730 0.0 86.750 10.050 0.0960 0.1040 1.0 32.888890 100.0 30.0 500.0 196.0 30.0 86.886650 109.635850 153.0 43.0 24.742150 0.20 296.7250 210.7750 147.8750 1.791480 6.063750 21.69750 -0.005650 -0.00380 1.791350 0.221250 -0.13810 -0.547450
14.63 14.6280 0.0 86.80 10.0350 0.0960 0.1040 1.0 32.777780 100.0 28.455880 500.0 196.0 28.455880 86.805970 109.635650 153.0 43.0 24.741630 0.20 296.26250 211.38750 148.03750 1.791490 6.063880 21.698750 -0.005890 -0.004250 1.791390 0.221410 -0.137730 -0.547490
14.64 14.636670 0.0 86.850 10.020 0.0960 0.1040 1.0 32.666670 100.0 26.911760 500.0 196.0 26.911760 86.725280 109.635450 153.0 43.0 24.741110 0.20 295.80 212.0 148.20 1.79150 6.0640 21.70 -0.006130 -0.00470 1.791430 0.221580 -0.137350 -0.547530
14.65 14.645330 0.0 86.90 10.0050 0.0960 0.1040 1.0 32.555560 100.0 25.367650 500.0 196.0 25.367650 86.64460 109.635250 153.0 43.0 24.74060 0.211110 294.888890 212.911110 148.222220 1.791510 6.064110 21.702220 -0.006360 -0.005150 1.791460 0.221740 -0.136980 -0.547560
14.66 14.661870 0.0 87.0 9.990 0.0960 0.1040 1.0 32.444440 100.0 23.823530 500.0 196.0 23.823530 86.563910 109.635050 153.0 43.0 24.740080 0.222220 293.977780 213.822220 148.244440 1.791520 6.064220 21.704440 -0.00660 -0.00560 1.79150 0.22190 -0.13660 -0.54760
14.67 14.670140 0.0 87.050 9.9750 0.0960 0.1040 1.0 32.333330 100.0 22.279410 500.0 196.0 22.279410 86.483230 109.634850 153.0 43.0 24.739560 0.233330 293.066670 214.733330 148.266670 1.791530 6.064330 21.706670 -0.006610 -0.005540 1.79150 0.221840 -0.13660 -0.547560
14.68 14.678410 0.0 87.10 9.960 0.0960 0.1040 1.0 32.222220 100.0 20.735290 500.0 196.0 20.735290 86.299860 109.634650 153.0 43.0 24.739040 0.244440 292.155560 215.644440 148.288890 1.791540 6.064440 21.708890 -0.006630 -0.005470 1.79150 0.221780 -0.13660 -0.547530
14.69 14.686680 0.0 87.150 9.970 0.0960 0.1040 1.0 32.111110 100.0 19.191180 500.0 196.0 19.191180 86.116480 109.634450 153.0 43.0 24.738530 0.255560 291.244440 216.555560 148.311110 1.791560 6.064560 21.711110 -0.006640 -0.005410 1.79150 0.221710 -0.13660 -0.547490
14.70 14.694950 0.0 87.20 9.980 0.0960 0.1040 1.0 32.0 100.0 17.647060 500.0 196.0 17.647060 85.933110 109.634240 153.0 43.0 24.738010 0.266670 290.333330 217.466670 148.333330 1.791570 6.064670 21.713330 -0.006650 -0.005350 1.79150 0.221650 -0.13660 -0.547450
14.71 14.711490 0.0 87.30 9.990 0.0960 0.1040 1.0 32.1250 100.0 16.797390 500.0 196.0 16.797390 85.749730 109.634040 153.0 43.0 24.737490 0.277780 289.422220 218.377780 148.355560 1.791580 6.064780 21.715560 -0.006660 -0.005290 1.79150 0.221590 -0.13660 -0.547410
14.72 14.719760 0.0 87.350 10.0 0.0960 0.1040 1.0 32.250 100.0 15.947710 500.0 196.0 15.947710 85.566360 109.633820 153.0 43.0 24.736910 0.288890 288.511110 219.288890 148.377780 1.791590 6.064890 21.717780 -0.006670 -0.005230 1.79150 0.221530 -0.13660 -0.547380
14.73 14.728030 0.0 87.40 10.010 0.0960 0.1040 1.0 32.3750 100.0 15.098040 501.250 196.0 15.098040 85.382990 109.633590 153.0 43.0 24.736330 0.30 287.60 220.20 148.40 1.79160 6.0650 21.720 -0.006690 -0.005160 1.79150 0.221460 -0.13660 -0.547340
14.74 14.736690 0.0 87.450 10.020 0.0960 0.1040 1.0 32.50 100.0 14.248370 502.50 196.0 14.248370 85.199610 109.633370 153.0 43.0 24.735740 0.28750 288.38750 219.41250 148.38750 1.791590 6.063880 21.721250 -0.00670 -0.00510 1.79150 0.22140 -0.13660 -0.54730
