~VERSION INFORMATION SECTION
VERS. 2.0 : CWLS LAS-VERSION 2.0
WRAP. NO : One line per depth step
~WELL INFORMATION SECTION
# MNEM.UNIT VALUE/NAME DESCRIPTION
#-------- -------------- ---------------------
STRT.Metres 2 : Start
STOP.Metres 22.45 : Stop
STEP.Metres 0.01 : Step
NULL.  -999.25 :NULL VALUE
DATE. 2026-02-09 : DATE
~CURVE INFORMATION SECTION
DEPTH.Metres : 0 Depth
Depth. : 1 Depth
Tension. : 2 Tension
Time. : 3 Time
Speed. : 4 Speed
Voltage. : 5 Voltage
Current. : 6 Current
WET. : 7 WET
Sig. : 8 Sig
Vth. : 9 Vth
GR.CPS : 10 GR
Timebase.ms : 11 Timebase
HeadVoltage.V : 12 Head Voltage
API.API : 13 API
Conductivity.uS : 14 Conductivity
PT100.Ohms : 15 PT100
Vmon.mV : 16 Vmon
Status. : 17 Status
Temperature.C : 18 Temperature
Incline.Deg : 19 Incline
Azimuth.Deg : 20 Azimuth
RelativeBearing.Deg : 21 Relative Bearing
MagneticToolFace.Deg : 22 Magnetic Tool Face
GravityMagnitude.G : 23 Gravity Magnitude
MagnetometerMagnitude.H : 24 Magnetometer Magnitude
Temperature.C : 25 Temperature
GX. : 26 GX
GY. : 27 GY
GZ. : 28 GZ
HX. : 29 HX
HY. : 30 HY
HZ. : 31 HZ
~PARAMETER INFORMATION SECTION
~OTHER
#-------------------------------------------------
#Produced By: GeoVista Logger - Version 7.1.107.0
Verticality Sonde - 6292
Temperature and Conductivity Sonde - Inline - 8974
Natural Gamma Sonde - 9931
WLIS - 10024
#-------------------------------------------------
~ASCII LOG DATA
# ...
9.45 9.452720 0.0 55.80 9.9480 0.0960 0.1040 1.0 34.0 100.0 9.111110 137.50 196.0 9.111110 83.783970 109.565330 156.0 44.0 24.560480 0.20 337.577780 157.588890 135.266670 1.79060 6.0520 21.347780 -0.00540 0.00170 1.790560 0.186890 -0.181760 -0.54620
9.46 9.460980 0.0 55.850 9.9340 0.0960 0.1040 1.0 34.0 100.0 10.222220 100.0 196.0 10.222220 84.018690 109.566010 156.0 44.0 24.562220 0.20 336.188890 158.944440 135.233330 1.79060 6.0520 21.348890 -0.00560 0.00160 1.790580 0.187430 -0.181280 -0.54620
9.47 9.469250 0.0 55.90 9.920 0.0960 0.1040 1.0 34.0 100.0 11.333330 150.0 196.0 11.333330 84.253410 109.566690 156.0 44.0 24.563970 0.20 334.80 160.30 135.20 1.79060 6.0520 21.350 -0.00580 0.00150 1.790590 0.187960 -0.180790 -0.54620
9.48 9.477520 0.0 55.950 9.9290 0.0960 0.1040 1.0 34.0 100.0 12.444440 200.0 196.0 12.444440 84.488120 109.567370 156.0 44.0 24.565720 0.20 334.18750 161.0250 135.33750 1.790610 6.052130 21.350 -0.0060 0.00140 1.79060 0.18850 -0.18030 -0.54620
9.49 9.485790 0.0 56.0 9.9380 0.0960 0.1040 1.0 34.0 100.0 13.555560 250.0 196.0 13.555560 84.722840 109.568040 156.0 44.0 24.567460 0.20 333.5750 161.750 135.4750 1.790630 6.052250 21.350 -0.006040 0.001330 1.79060 0.188560 -0.180240 -0.54620
9.50 9.503120 0.0 56.10 9.9470 0.0960 0.1040 1.0 34.0 100.0 14.666670 300.0 196.0 14.666670 84.651120 109.568720 156.0 44.0 24.569210 0.20 332.96250 162.4750 135.61250 1.790640 6.052380 21.350 -0.006090 0.001270 1.79060 0.188610 -0.180190 -0.54620
9.51 9.511390 0.0 56.150 9.9560 0.0960 0.1040 1.0 34.0 100.0 15.777780 350.0 196.0 15.777780 84.57940 109.56940 156.0 44.0 24.570960 0.20 332.350 163.20 135.750 1.790650 6.05250 21.350 -0.006130 0.00120 1.79060 0.188670 -0.180130 -0.54620
9.52 9.519660 0.0 56.20 9.9650 0.0960 0.1040 1.0 34.0 100.0 16.888890 400.0 196.0 16.888890 84.507680 109.570080 156.0 44.0 24.57270 0.20 331.73750 163.9250 135.88750 1.790660 6.052630 21.350 -0.006180 0.001130 1.79060 0.188720 -0.180080 -0.54620
9.53 9.527930 0.0 56.250 9.9740 0.0960 0.1040 1.0 34.0 100.0 18.0 450.0 196.0 18.0 84.435960 109.570760 156.0 44.0 24.574450 0.20 331.1250 164.650 136.0250 1.790680 6.052750 21.350 -0.006220 0.001070 1.79060 0.188780 -0.180020 -0.54620
9.54 9.53620 0.0 56.30 9.9830 0.0960 0.1040 1.0 34.0 100.0 17.50 500.0 196.0 17.50 84.364240 109.571430 156.0 44.0 24.57620 0.20 330.51250 165.3750 136.16250 1.790690 6.052880 21.350 -0.006270 0.0010 1.79060 0.188830 -0.179970 -0.54620
9.55 9.552740 0.0 56.40 9.9920 0.0960 0.1040 1.0 34.0 100.0 17.0 500.0 196.0 17.0 84.292520 109.572110 156.0 44.0 24.577940 0.20 329.90 166.10 136.30 1.79070 6.0530 21.350 -0.006310 0.000930 1.79060 0.188890 -0.179910 -0.54620
9.56 9.561010 0.0 56.450 10.0010 0.0960 0.1040 1.0 34.0 100.0 16.50 500.0 196.0 16.50 84.220810 109.572790 156.0 44.0 24.579690 0.20 329.6250 166.33750 136.26250 1.790710 6.0530 21.350 -0.006360 0.000870 1.79060 0.188940 -0.179860 -0.54620
9.57 9.569280 0.0 56.50 10.010 0.0960 0.1040 1.0 34.0 100.0 16.0 500.0 196.0 16.0 84.149090 109.573470 156.0 44.0 24.581440 0.20 329.350 166.5750 136.2250 1.790730 6.0530 21.350 -0.00640 0.00080 1.79060 0.1890 -0.17980 -0.54620
9.58 9.577940 0.0 56.550 10.010 0.0960 0.1040 1.0 34.0 100.0 15.50 500.0 196.0 15.50 84.077370 109.574150 156.0 44.0 24.583180 0.20 329.0750 166.81250 136.18750 1.790740 6.0530 21.350 -0.006340 0.000890 1.790590 0.188590 -0.18020 -0.54620
9.59 9.586610 0.0 56.60 10.010 0.0960 0.1040 1.0 34.0 100.0 15.0 500.0 196.0 15.0 84.114040 109.574820 156.0 44.0 24.584930 0.20 328.80 167.050 136.150 1.790750 6.0530 21.350 -0.006280 0.000970 1.790580 0.188180 -0.18060 -0.54620
9.60 9.603150 0.0 56.70 10.010 0.0960 0.1040 1.0 34.0 100.0 14.50 500.0 196.0 14.50 84.150720 109.57550 156.0 44.0 24.586680 0.20 328.5250 167.28750 136.11250 1.790760 6.0530 21.350 -0.006210 0.001060 1.790560 0.187760 -0.1810 -0.54620
9.61 9.611020 0.0 56.750 10.010 0.0960 0.1040 1.0 34.0 100.0 14.0 500.0 196.0 14.0 84.187390 109.576180 156.0 44.0 24.588420 0.20 328.250 167.5250 136.0750 1.790780 6.0530 21.350 -0.006150 0.001150 1.790550 0.187350 -0.18140 -0.54620
9.62 9.61890 0.0 56.80 10.010 0.0960 0.1040 1.0 33.8750 100.0 13.0 500.0 196.0 13.0 84.224070 109.576750 156.0 44.0 24.589890 0.20 327.9750 167.76250 136.03750 1.790790 6.0530 21.350 -0.006090 0.001240 1.790540 0.186940 -0.18180 -0.54620
9.63 9.627960 0.0 56.850 10.010 0.0960 0.1040 1.0 33.750 100.0 12.0 500.0 196.0 12.0 84.260740 109.577320 156.0 44.0 24.591360 0.20 327.70 168.0 136.0 1.79080 6.0530 21.350 -0.006030 0.001330 1.790530 0.186530 -0.18220 -0.54620
9.64 9.637010 0.0 56.90 10.010 0.0960 0.1040 1.0 33.6250 100.0 11.0 500.0 196.0 11.0 84.297410 109.577890 156.0 44.0 24.592820 0.20 327.955560 167.688890 135.933330 1.790790 6.052890 21.350 -0.005960 0.001410 1.790510 0.186110 -0.18260 -0.54620
9.65 9.645280 0.0 56.950 10.010 0.0960 0.1040 1.0 33.50 100.0 10.0 500.0 196.0 10.0 84.334090 109.578460 156.0 44.0 24.594290 0.20 328.211110 167.377780 135.866670 1.790780 6.052780 21.350 -0.00590 0.00150 1.79050 0.18570 -0.1830 -0.54620
9.66 9.653550 0.0 57.0 10.010 0.0960 0.1040 1.0 33.3750 100.0 9.0 500.0 196.0 9.0 84.370760 109.579030 156.0 44.0 24.595760 0.20 328.466670 167.066670 135.80 1.790770 6.052670 21.350 -0.005860 0.001560 1.790510 0.186130 -0.182590 -0.54620
9.67 9.670090 0.0 57.10 10.010 0.0960 0.1040 1.0 33.250 100.0 8.0 500.0 196.0 8.0 84.334090 109.57960 156.0 44.0 24.597220 0.20 328.722220 166.755560 135.733330 1.790760 6.052560 21.350 -0.005820 0.001620 1.790530 0.186550 -0.182180 -0.54620
9.68 9.678360 0.0 57.150 10.020 0.0960 0.1040 1.0 33.1250 100.0 7.0 500.0 196.0 7.0 84.297410 109.580170 156.0 44.0 24.598690 0.20 328.977780 166.444440 135.666670 1.790740 6.052440 21.350 -0.005790 0.001690 1.790540 0.186980 -0.181760 -0.54620
9.69 9.686630 0.0 57.20 10.030 0.0960 0.1040 1.0 33.0 100.0 6.0 500.0 196.0 6.0 84.260740 109.580730 156.0 44.0 24.600160 0.20 329.233330 166.133330 135.60 1.790730 6.052330 21.350 -0.005750 0.001750 1.790550 0.18740 -0.181350 -0.54620
9.70 9.695290 0.0 57.250 10.040 0.0960 0.1040 1.0 32.8750 100.0 7.111110 500.0 196.0 7.111110 84.224070 109.58130 155.888890 44.0 24.601620 0.20 329.488890 165.822220 135.533330 1.790720 6.052220 21.350 -0.005710 0.001810 1.790560 0.187830 -0.180940 -0.54620
9.71 9.703960 0.0 57.30 10.050 0.0960 0.1040 1.0 32.750 100.0 8.222220 500.0 196.0 8.222220 84.187390 109.582020 155.777780 44.0 24.603470 0.20 329.744440 165.511110 135.466670 1.790710 6.052110 21.350 -0.005670 0.001870 1.790580 0.188250 -0.180530 -0.54620
9.72 9.72050 0.0 57.40 10.060 0.0960 0.1040 1.0 32.6250 100.0 9.333330 500.0 196.0 9.333330 84.150720 109.582740 155.666670 44.0 24.605310 0.20 330.0 165.20 135.40 1.79070 6.0520 21.350 -0.005640 0.001940 1.790590 0.188680 -0.180110 -0.54620
9.73 9.728770 0.0 57.450 10.070 0.0960 0.1040 1.0 32.50 100.0 10.444440 500.0 196.0 10.444440 84.114040 109.583450 155.555560 44.0 24.607150 0.20 330.750 164.66250 135.60 1.79070 6.052250 21.350 -0.00560 0.0020 1.79060 0.18910 -0.17970 -0.54620
9.74 9.737040 0.0 57.50 10.080 0.0960 0.1040 1.0 32.3750 100.0 11.555560 500.0 196.0 11.555560 84.077370 109.584170 155.444440 44.0 24.6090 0.20 331.50 164.1250 135.80 1.79070 6.05250 21.350 -0.005630 0.00190 1.79060 0.189310 -0.17950 -0.54620
9.75 9.745310 0.0 57.550 10.090 0.0960 0.1040 1.0 32.250 100.0 12.666670 500.0 196.0 12.666670 83.979570 109.584880 155.333330 44.0 24.610840 0.20 332.250 163.58750 136.0 1.79070 6.052750 21.350 -0.005670 0.00180 1.79060 0.189520 -0.17930 -0.54620
9.76 9.753580 0.0 57.60 10.10 0.0960 0.1040 1.0 32.1250 100.0 13.777780 500.0 196.0 13.777780 83.881770 109.58560 155.222220 44.0 24.612690 0.20 333.0 163.050 136.20 1.79070 6.0530 21.350 -0.00570 0.00170 1.79060 0.189730 -0.17910 -0.54620
9.77 9.77090 0.0 57.70 10.110 0.0960 0.1040 1.0 32.0 100.0 14.888890 500.0 196.0 14.888890 83.783970 109.586310 155.111110 44.0 24.614530 0.20 333.750 162.51250 136.40 1.79070 6.053250 21.350 -0.005730 0.00160 1.79060 0.189940 -0.17890 -0.54620
9.78 9.779170 0.0 57.750 10.1050 0.0960 0.1040 1.0 32.222220 100.0 16.0 500.0 196.0 16.0 83.686170 109.587030 155.0 44.0 24.616370 0.20 334.50 161.9750 136.60 1.79070 6.05350 21.350 -0.005770 0.00150 1.79060 0.190160 -0.17870 -0.54620
