~VERSION INFORMATION SECTION
VERS. 2.0 : CWLS LAS-VERSION 2.0
WRAP. NO : One line per depth step
~WELL INFORMATION SECTION
# MNEM.UNIT VALUE/NAME DESCRIPTION
#-------- -------------- ---------------------
STRT.Metres 26 : Start
STOP.Metres -2.04 : Stop
STEP.Metres -0.01 : Step
NULL.  -999.25 :NULL VALUE
DATE. 2026-36-09 : DATE
~CURVE INFORMATION SECTION
DEPTH.Metres : 0 Depth
Depth. : 1 Depth
Tension. : 2 Tension
Time. : 3 Time
Speed. : 4 Speed
Voltage. : 5 Voltage
Current. : 6 Current
WET. : 7 WET
Sig. : 8 Sig
Vth. : 9 Vth
GR.CPS : 10 GR
Timebase.ms : 11 Timebase
HeadVoltage.V : 12 Head Voltage
API.API : 13 API
Conductivity.uS : 14 Conductivity
PT100.Ohms : 15 PT100
Vmon.mV : 16 Vmon
Status. : 17 Status
Temperature.C : 18 Temperature
Incline.Deg : 19 Incline
Azimuth.Deg : 20 Azimuth
RelativeBearing.Deg : 21 Relative Bearing
MagneticToolFace.Deg : 22 Magnetic Tool Face
GravityMagnitude.G : 23 Gravity Magnitude
MagnetometerMagnitude.H : 24 Magnetometer Magnitude
Temperature.C : 25 Temperature
GX. : 26 GX
GY. : 27 GY
GZ. : 28 GZ
HX. : 29 HX
HY. : 30 HY
HZ. : 31 HZ
~PARAMETER INFORMATION SECTION
~OTHER
#-------------------------------------------------
#Produced By: GeoVista Logger - Version 7.1.107.0
Verticality Sonde - 9605
Temperature and Conductivity Sonde - Inline - 8974
Natural Gamma Sonde - 9931
WLIS - 10021
#-------------------------------------------------
~ASCII LOG DATA
# ...
9.30 9.318820 0.0 99.50 14.993330 0.0960 0.1020 1.0 40.0 200.0 9.538460 500.0 197.0 9.538460 2017.750 890044.153850 160.0 43.0 840369618.709690 0.0 0.0 0.0 0.0 0.0 0.0 0.0 -3.27680 -3.27680 -3.27680 -3.27680 -3.27680 -3.27680
9.29 9.310690 0.0 99.533330 14.996670 0.0960 0.1020 1.0 40.0 200.0 9.846150 500.0 197.0 9.846150 2017.50 890045.615380 160.0 43.0 840372375.209160 0.0 0.0 0.0 0.0 0.0 0.0 0.0 -3.27680 -3.27680 -3.27680 -3.27680 -3.27680 -3.27680
9.28 9.302550 0.0 99.566670 15.0 0.0960 0.1020 1.0 40.0 200.0 10.153850 500.0 197.0 10.153850 2017.250 890047.076920 160.0 43.0 840375131.708620 0.0 0.0 0.0 0.0 0.0 0.0 0.0 -3.27680 -3.27680 -3.27680 -3.27680 -3.27680 -3.27680
9.27 9.294410 0.0 99.60 15.003330 0.0960 0.1020 1.0 40.0 200.0 10.461540 500.0 197.0 10.461540 2017.0 890048.538460 160.0 43.0 840377888.208090 0.0 0.0 0.0 0.0 0.0 0.0 0.0 -3.27680 -3.27680 -3.27680 -3.27680 -3.27680 -3.27680
9.26 9.281810 0.0 99.650 15.006670 0.0960 0.1020 1.0 40.0 200.0 10.769230 500.0 197.0 10.769230 2016.615380 890050.0 160.0 43.0 840380644.707560 0.0 0.0 0.0 0.0 0.0 0.0 0.0 -3.27680 -3.27680 -3.27680 -3.27680 -3.27680 -3.27680
9.25 9.269210 0.0 99.70 15.010 0.0960 0.1020 1.0 40.0 200.0 11.076920 500.0 197.0 11.076920 2016.230770 890051.833330 160.0 43.0 840384102.501340 0.0 0.0 0.0 0.0 0.0 0.0 0.0 -3.27680 -3.27680 -3.27680 -3.27680 -3.27680 -3.27680
9.24 9.26080 0.0 99.733330 15.013330 0.0960 0.1020 1.0 40.0 200.0 11.384620 500.0 197.0 11.384620 2015.846150 890053.666670 160.0 43.0 840387560.295120 0.0 0.0 0.0 0.0 0.0 0.0 0.0 -3.27680 -3.27680 -3.27680 -3.27680 -3.27680 -3.27680
9.23 9.25240 0.0 99.766670 15.016670 0.0960 0.1020 1.0 40.0 200.0 11.692310 500.0 197.0 11.692310 2015.461540 890055.50 160.0 43.0 840391018.088910 0.0 0.0 0.0 0.0 0.0 0.0 0.0 -3.27680 -3.27680 -3.27680 -3.27680 -3.27680 -3.27680
9.22 9.2440 0.0 99.80 15.020 0.0960 0.1020 1.0 40.0 200.0 12.0 500.0 197.0 12.0 2015.076920 890057.333330 160.0 43.0 840394475.882690 0.0 0.0 0.0 0.0 0.0 0.0 0.0 -3.27680 -3.27680 -3.27680 -3.27680 -3.27680 -3.27680
9.21 9.23140 0.0 99.850 15.023330 0.0960 0.1020 1.0 40.0 200.0 11.50 500.0 197.0 11.50 2014.692310 890059.166670 160.076920 43.0 840397933.676470 0.0 0.0 0.0 0.0 0.0 0.0 0.0 -3.27680 -3.27680 -3.27680 -3.27680 -3.27680 -3.27680
9.20 9.21880 0.0 99.90 15.026670 0.0960 0.1020 1.0 40.0 200.0 11.0 500.0 197.0 11.0 2014.307690 890061.0 160.153850 43.0 840401391.470250 0.0 0.0 0.0 0.0 0.0 0.0 0.0 -3.27680 -3.27680 -3.27680 -3.27680 -3.27680 -3.27680
9.19 9.210660 0.0 99.933330 15.030 0.0960 0.1020 1.0 40.0 200.0 10.50 500.0 197.0 10.50 2013.923080 890062.833330 160.230770 43.0 840404849.264040 0.0 0.0 0.0 0.0 0.0 0.0 0.0 -3.27680 -3.27680 -3.27680 -3.27680 -3.27680 -3.27680
9.18 9.202520 0.0 99.966670 15.033330 0.0960 0.1020 1.0 40.0 200.0 10.0 500.0 197.0 10.0 2013.538460 890064.666670 160.307690 43.0 840408307.057820 0.0 0.0 0.0 0.0 0.0 0.0 0.0 -3.27680 -3.27680 -3.27680 -3.27680 -3.27680 -3.27680
9.17 9.194380 0.0 100.0 15.036670 0.0960 0.1020 1.0 40.0 200.0 9.50 500.0 197.0 9.50 2013.153850 890066.50 160.384620 43.0 840411764.85160 0.0 0.0 0.0 0.0 0.0 0.0 0.0 -3.27680 -3.27680 -3.27680 -3.27680 -3.27680 -3.27680
9.16 9.181780 0.0 100.050 15.040 0.0960 0.1020 1.0 40.083330 200.0 9.0 500.0 197.0 9.0 2012.769230 890068.333330 160.461540 43.0 840415222.645390 0.0 0.0 0.0 0.0 0.0 0.0 0.0 -3.27680 -3.27680 -3.27680 -3.27680 -3.27680 -3.27680
9.15 9.169180 0.0 100.10 15.043330 0.0960 0.1020 1.0 40.166670 200.0 8.50 500.0 197.0 8.50 2012.384620 890070.166670 160.538460 43.0 840418680.439170 0.0 0.0 0.0 0.0 0.0 0.0 0.0 -3.27680 -3.27680 -3.27680 -3.27680 -3.27680 -3.27680
9.14 9.160780 0.0 100.133330 15.046670 0.0960 0.1020 1.0 40.250 200.0 8.0 500.0 197.0 8.0 2012.0 890072.0 160.615380 43.0 840422138.232950 0.0 0.0 0.0 0.0 0.0 0.0 0.0 -3.27680 -3.27680 -3.27680 -3.27680 -3.27680 -3.27680
9.13 9.152380 0.0 100.166670 15.050 0.0960 0.1020 1.0 40.333330 200.0 7.50 500.0 197.0 7.50 2010.083330 890073.615380 160.692310 43.0 840425185.033850 0.0 0.0 0.0 0.0 0.0 0.0 0.0 -3.27680 -3.27680 -3.27680 -3.27680 -3.27680 -3.27680
9.12 9.143980 0.0 100.20 15.053330 0.0960 0.1020 1.0 40.416670 200.0 7.0 500.0 197.0 7.0 2008.166670 890075.230770 160.769230 43.0 840428231.834740 0.0 0.0 0.0 0.0 0.0 0.0 0.0 -3.27680 -3.27680 -3.27680 -3.27680 -3.27680 -3.27680
9.11 9.131770 0.0 100.250 15.056670 0.0960 0.1020 1.0 40.50 200.0 6.50 500.0 197.0 6.50 2006.250 890076.846150 160.846150 43.0 840431278.635640 0.0 0.0 0.0 0.0 0.0 0.0 0.0 -3.27680 -3.27680 -3.27680 -3.27680 -3.27680 -3.27680
9.10 9.119560 0.0 100.30 15.060 0.0960 0.1020 1.0 40.583330 200.0 6.0 500.0 197.0 6.0 2004.333330 890078.461540 160.923080 43.0 840434325.436530 0.0 0.0 0.0 0.0 0.0 0.0 0.0 -3.27680 -3.27680 -3.27680 -3.27680 -3.27680 -3.27680
9.09 9.111160 0.0 100.333330 15.063330 0.0960 0.1020 1.0 40.666670 200.0 6.307690 500.0 197.0 6.307690 2002.416670 890080.076920 161.0 43.0 840437372.237420 0.0 0.0 0.0 0.0 0.0 0.0 0.0 -3.27680 -3.27680 -3.27680 -3.27680 -3.27680 -3.27680
9.08 9.102760 0.0 100.366670 15.066670 0.0960 0.1020 1.0 40.750 200.0 6.615380 500.0 197.0 6.615380 2000.50 890081.692310 161.0 43.0 840440419.038320 0.0 0.0 0.0 0.0 0.0 0.0 0.0 -3.27680 -3.27680 -3.27680 -3.27680 -3.27680 -3.27680
9.07 9.094360 0.0 100.40 15.070 0.0960 0.1020 1.0 40.833330 200.0 6.923080 500.0 197.0 6.923080 1998.583330 890083.307690 161.0 43.0 840443465.839210 0.0 0.0 0.0 0.0 0.0 0.0 0.0 -3.27680 -3.27680 -3.27680 -3.27680 -3.27680 -3.27680
9.06 9.081760 0.0 100.450 15.063330 0.0960 0.1020 1.0 40.916670 200.0 7.230770 500.0 197.0 7.230770 1996.666670 890084.923080 161.0 43.0 840446512.640110 0.0 0.0 0.0 0.0 0.0 0.0 0.0 -3.27680 -3.27680 -3.27680 -3.27680 -3.27680 -3.27680
9.05 9.069160 0.0 100.50 15.056670 0.0960 0.1020 1.0 41.0 200.0 7.538460 500.0 197.0 7.538460 1994.750 890086.538460 161.0 43.0 840449559.4410 0.0 0.0 0.0 0.0 0.0 0.0 0.0 -3.27680 -3.27680 -3.27680 -3.27680 -3.27680 -3.27680
9.04 9.061020 0.0 100.533330 15.050 0.0960 0.1020 1.0 41.0 200.0 7.846150 500.0 197.0 7.846150 1992.833330 890088.153850 161.0 43.0 840452606.241890 0.0 0.0 0.0 0.0 0.0 0.0 0.0 -3.27680 -3.27680 -3.27680 -3.27680 -3.27680 -3.27680
9.03 9.052880 0.0 100.566670 15.043330 0.0960 0.1020 1.0 41.0 200.0 8.153850 500.0 197.0 8.153850 1990.916670 890089.769230 161.0 43.0 840455653.042790 0.0 0.0 0.0 0.0 0.0 0.0 0.0 -3.27680 -3.27680 -3.27680 -3.27680 -3.27680 -3.27680
9.02 9.044740 0.0 100.60 15.036670 0.0960 0.1020 1.0 41.0 200.0 8.461540 500.0 197.0 8.461540 1989.0 890091.384620 161.0 43.0 840458699.843680 0.0 0.0 0.0 0.0 0.0 0.0 0.0 -3.27680 -3.27680 -3.27680 -3.27680 -3.27680 -3.27680
9.01 9.032140 0.0 100.650 15.030 0.0960 0.1020 1.0 41.0 200.0 8.769230 500.0 197.0 8.769230 1987.538460 890093.0 161.0 43.0 840461746.644570 0.0 0.0 0.0 0.0 0.0 0.0 0.0 -3.27680 -3.27680 -3.27680 -3.27680 -3.27680 -3.27680
9.00 9.019540 0.0 100.70 15.023330 0.0960 0.1020 1.0 41.0 200.0 9.076920 500.0 197.0 9.076920 1986.076920 890094.583330 161.0 43.0 840464733.060090 0.0 0.0 0.0 0.0 0.0 0.0 0.0 -3.27680 -3.27680 -3.27680 -3.27680 -3.27680 -3.27680
8.99 9.011140 0.0 100.733330 15.016670 0.0960 0.1020 1.0 41.0 200.0 9.384620 500.0 197.0 9.384620 1984.615380 890096.166670 161.0 43.0 840467719.47560 0.0 0.0 0.0 0.0 0.0 0.0 0.0 -3.27680 -3.27680 -3.27680 -3.27680 -3.27680 -3.27680
8.98 9.002740 0.0 100.766670 15.010 0.0960 0.1020 1.0 41.0 200.0 9.692310 500.0 197.0 9.692310 1983.153850 890097.750 161.0 43.0 840470705.891120 0.0 0.0 0.0 0.0 0.0 0.0 0.0 -3.27680 -3.27680 -3.27680 -3.27680 -3.27680 -3.27680
8.97 8.994330 0.0 100.80 15.003330 0.0960 0.1020 1.0 41.0 200.0 10.0 500.0 197.0 10.0 1981.692310 890099.333330 161.0 43.0 840473692.306630 0.0 0.0 0.0 0.0 0.0 0.0 0.0 -3.27680 -3.27680 -3.27680 -3.27680 -3.27680 -3.27680
8.96 8.982130 0.0 100.850 14.996670 0.0960 0.1020 1.0 41.0 200.0 9.846150 500.0 197.0 9.846150 1980.230770 890100.916670 160.923080 43.0 840476678.722150 0.0 0.0 0.0 0.0 0.0 0.0 0.0 -3.27680 -3.27680 -3.27680 -3.27680 -3.27680 -3.27680
8.95 8.969920 0.0 100.90 14.990 0.0960 0.1020 1.0 41.0 200.0 9.692310 500.0 197.0 9.692310 1978.769230 890102.50 160.846150 43.0 840479665.137660 0.0 0.0 0.0 0.0 0.0 0.0 0.0 -3.27680 -3.27680 -3.27680 -3.27680 -3.27680 -3.27680
