~VERSION INFORMATION SECTION
VERS. 2.0 : CWLS LAS-VERSION 2.0
WRAP. NO : One line per depth step
~WELL INFORMATION SECTION
# MNEM.UNIT VALUE/NAME DESCRIPTION
#-------- -------------- ---------------------
STRT.Metres 26 : Start
STOP.Metres -2.04 : Stop
STEP.Metres -0.01 : Step
NULL.  -999.25 :NULL VALUE
DATE. 2026-36-09 : DATE
~CURVE INFORMATION SECTION
DEPTH.Metres : 0 Depth
Depth. : 1 Depth
Tension. : 2 Tension
Time. : 3 Time
Speed. : 4 Speed
Voltage. : 5 Voltage
Current. : 6 Current
WET. : 7 WET
Sig. : 8 Sig
Vth. : 9 Vth
GR.CPS : 10 GR
Timebase.ms : 11 Timebase
HeadVoltage.V : 12 Head Voltage
API.API : 13 API
Conductivity.uS : 14 Conductivity
PT100.Ohms : 15 PT100
Vmon.mV : 16 Vmon
Status. : 17 Status
Temperature.C : 18 Temperature
Incline.Deg : 19 Incline
Azimuth.Deg : 20 Azimuth
RelativeBearing.Deg : 21 Relative Bearing
MagneticToolFace.Deg : 22 Magnetic Tool Face
GravityMagnitude.G : 23 Gravity Magnitude
MagnetometerMagnitude.H : 24 Magnetometer Magnitude
Temperature.C : 25 Temperature
GX. : 26 GX
GY. : 27 GY
GZ. : 28 GZ
HX. : 29 HX
HY. : 30 HY
HZ. : 31 HZ
~PARAMETER INFORMATION SECTION
~OTHER
#-------------------------------------------------
#Produced By: GeoVista Logger - Version 7.1.107.0
Verticality Sonde - 9605
Temperature and Conductivity Sonde - Inline - 8974
Natural Gamma Sonde - 9931
WLIS - 10021
#-------------------------------------------------
~ASCII LOG DATA
# ...
16.32 16.343380 0.0 71.40 15.053330 0.0960 0.1020 1.0 13.666670 200.0 18.666670 500.0 197.0 18.666670 3803.750 889350.846150 155.0 43.0 839062525.639980 0.0 0.0 0.0 0.0 0.0 0.0 0.0 -3.27680 -3.27680 -3.27680 -3.27680 -3.27680 -3.27680
16.31 16.330780 0.0 71.450 15.056670 0.0960 0.1020 1.0 13.833330 200.0 19.0 500.0 197.0 19.0 3797.0 889351.538460 155.0 43.0 839063830.339260 0.0 0.0 0.0 0.0 0.0 0.0 0.0 -3.27680 -3.27680 -3.27680 -3.27680 -3.27680 -3.27680
16.30 16.318180 0.0 71.50 15.060 0.0960 0.1020 1.0 14.0 200.0 19.333330 500.0 197.0 19.333330 3790.250 889352.230770 155.0 43.0 839065135.038550 0.0 0.0 0.0 0.0 0.0 0.0 0.0 -3.27680 -3.27680 -3.27680 -3.27680 -3.27680 -3.27680
16.29 16.310040 0.0 71.533330 15.063330 0.0960 0.1020 1.0 14.076920 200.0 19.666670 500.0 197.0 19.666670 3783.50 889352.923080 155.0 43.0 839066439.737830 0.0 0.0 0.0 0.0 0.0 0.0 0.0 -3.27680 -3.27680 -3.27680 -3.27680 -3.27680 -3.27680
16.28 16.30190 0.0 71.566670 15.066670 0.0960 0.1020 1.0 14.153850 200.0 20.0 500.0 197.0 20.0 3776.750 889353.615380 155.0 43.0 839067744.437120 0.0 0.0 0.0 0.0 0.0 0.0 0.0 -3.27680 -3.27680 -3.27680 -3.27680 -3.27680 -3.27680
16.27 16.293770 0.0 71.60 15.070 0.0960 0.1020 1.0 14.230770 200.0 20.333330 500.0 197.0 20.333330 3770.0 889354.307690 155.0 43.0 839069049.13640 0.0 0.0 0.0 0.0 0.0 0.0 0.0 -3.27680 -3.27680 -3.27680 -3.27680 -3.27680 -3.27680
16.26 16.281160 0.0 71.650 15.057330 0.0960 0.1020 1.0 14.307690 200.0 20.666670 500.0 197.0 20.666670 3759.846150 889355.0 155.0 43.0 839070353.835690 0.0 0.0 0.0 0.0 0.0 0.0 0.0 -3.27680 -3.27680 -3.27680 -3.27680 -3.27680 -3.27680
16.25 16.268560 0.0 71.70 15.044670 0.0960 0.1020 1.0 14.384620 200.0 21.0 500.0 197.0 21.0 3749.692310 889356.083330 155.0 43.0 839072395.473680 0.0 0.0 0.0 0.0 0.0 0.0 0.0 -3.27680 -3.27680 -3.27680 -3.27680 -3.27680 -3.27680
16.24 16.260160 0.0 71.733330 15.0320 0.0960 0.1020 1.0 14.461540 200.0 21.333330 500.0 197.0 21.333330 3739.538460 889357.166670 155.0 43.0 839074437.111670 0.0 0.0 0.0 0.0 0.0 0.0 0.0 -3.27680 -3.27680 -3.27680 -3.27680 -3.27680 -3.27680
16.23 16.251760 0.0 71.766670 15.019330 0.0960 0.1020 1.0 14.538460 200.0 21.666670 500.0 197.0 21.666670 3729.384620 889358.250 155.0 43.0 839076478.749660 0.0 0.0 0.0 0.0 0.0 0.0 0.0 -3.27680 -3.27680 -3.27680 -3.27680 -3.27680 -3.27680
16.22 16.243360 0.0 71.80 15.006670 0.0960 0.1020 1.0 14.615380 200.0 22.0 500.0 197.0 22.0 3719.230770 889359.333330 155.0 43.0 839078520.387650 0.0 0.0 0.0 0.0 0.0 0.0 0.0 -3.27680 -3.27680 -3.27680 -3.27680 -3.27680 -3.27680
16.21 16.231150 0.0 71.850 14.9940 0.0960 0.1020 1.0 14.692310 200.0 22.461540 500.0 197.0 22.461540 3709.076920 889360.416670 155.0 43.0 839080562.025640 0.0 0.0 0.0 0.0 0.0 0.0 0.0 -3.27680 -3.27680 -3.27680 -3.27680 -3.27680 -3.27680
16.20 16.218940 0.0 71.90 14.981330 0.0960 0.1020 1.0 14.769230 200.0 22.923080 500.0 197.0 22.923080 3698.923080 889361.50 155.0 43.0 839082603.663630 0.0 0.0 0.0 0.0 0.0 0.0 0.0 -3.27680 -3.27680 -3.27680 -3.27680 -3.27680 -3.27680
16.19 16.210540 0.0 71.933330 14.968670 0.0960 0.1020 1.0 14.846150 200.0 23.384620 500.0 197.0 23.384620 3688.769230 889362.583330 155.0 43.0 839084645.301630 0.0 0.0 0.0 0.0 0.0 0.0 0.0 -3.27680 -3.27680 -3.27680 -3.27680 -3.27680 -3.27680
16.18 16.202140 0.0 71.966670 14.9560 0.0960 0.1020 1.0 14.923080 200.0 23.846150 500.0 197.0 23.846150 3678.615380 889363.666670 155.0 43.0 839086686.939620 0.0 0.0 0.0 0.0 0.0 0.0 0.0 -3.27680 -3.27680 -3.27680 -3.27680 -3.27680 -3.27680
16.17 16.193740 0.0 72.0 14.943330 0.0960 0.1020 1.0 15.0 200.0 24.307690 500.0 197.0 24.307690 3668.461540 889364.750 155.0 43.0 839088728.577610 0.0 0.0 0.0 0.0 0.0 0.0 0.0 -3.27680 -3.27680 -3.27680 -3.27680 -3.27680 -3.27680
16.16 16.181530 0.0 72.050 14.930670 0.0960 0.1020 1.0 15.0 200.0 24.769230 500.0 197.0 24.769230 3658.307690 889365.833330 155.0 43.0 839090770.21560 0.0 0.0 0.0 0.0 0.0 0.0 0.0 -3.27680 -3.27680 -3.27680 -3.27680 -3.27680 -3.27680
16.15 16.169330 0.0 72.10 14.9180 0.0960 0.1020 1.0 15.0 200.0 25.230770 500.0 197.0 25.230770 3648.153850 889366.916670 155.0 43.0 839092811.853590 0.0 0.0 0.0 0.0 0.0 0.0 0.0 -3.27680 -3.27680 -3.27680 -3.27680 -3.27680 -3.27680
16.14 16.160920 0.0 72.133330 14.905330 0.0960 0.1020 1.0 15.0 200.0 25.692310 500.0 197.0 25.692310 3638.0 889368.0 155.0 43.0 839094853.491580 0.0 0.0 0.0 0.0 0.0 0.0 0.0 -3.27680 -3.27680 -3.27680 -3.27680 -3.27680 -3.27680
16.13 16.152520 0.0 72.166670 14.892670 0.0960 0.1020 1.0 15.0 200.0 26.153850 500.0 197.0 26.153850 3630.916670 889368.307690 155.0 43.0 839095433.370630 0.0 0.0 0.0 0.0 0.0 0.0 0.0 -3.27680 -3.27680 -3.27680 -3.27680 -3.27680 -3.27680
16.12 16.144120 0.0 72.20 14.880 0.0960 0.1020 1.0 15.0 200.0 26.615380 500.0 197.0 26.615380 3623.833330 889368.615380 155.0 43.0 839096013.249670 0.0 0.0 0.0 0.0 0.0 0.0 0.0 -3.27680 -3.27680 -3.27680 -3.27680 -3.27680 -3.27680
16.11 16.131130 0.0 72.250 14.889330 0.0960 0.1020 1.0 15.0 200.0 27.076920 500.0 197.0 27.076920 3616.750 889368.923080 155.0 43.0 839096593.128720 0.0 0.0 0.0 0.0 0.0 0.0 0.0 -3.27680 -3.27680 -3.27680 -3.27680 -3.27680 -3.27680
16.10 16.118130 0.0 72.30 14.898670 0.0960 0.1020 1.0 15.0 200.0 27.538460 500.0 197.0 27.538460 3609.666670 889369.230770 155.0 43.0 839097173.007770 0.0 0.0 0.0 0.0 0.0 0.0 0.0 -3.27680 -3.27680 -3.27680 -3.27680 -3.27680 -3.27680
16.09 16.109730 0.0 72.333330 14.9080 0.0960 0.1020 1.0 15.0 200.0 28.0 500.0 197.0 28.0 3602.583330 889369.538460 155.0 43.0 839097752.886820 0.0 0.0 0.0 0.0 0.0 0.0 0.0 -3.27680 -3.27680 -3.27680 -3.27680 -3.27680 -3.27680
16.08 16.101330 0.0 72.366670 14.917330 0.0960 0.1020 1.0 15.0 200.0 26.833330 500.0 197.0 26.833330 3595.50 889369.846150 155.0 43.0 839098332.765860 0.0 0.0 0.0 0.0 0.0 0.0 0.0 -3.27680 -3.27680 -3.27680 -3.27680 -3.27680 -3.27680
16.07 16.092930 0.0 72.40 14.926670 0.0960 0.1020 1.0 15.0 200.0 25.666670 500.0 197.0 25.666670 3588.416670 889370.153850 155.0 43.0 839098912.644910 0.0 0.0 0.0 0.0 0.0 0.0 0.0 -3.27680 -3.27680 -3.27680 -3.27680 -3.27680 -3.27680
16.06 16.080330 0.0 72.450 14.9360 0.0960 0.1020 1.0 15.0 200.0 24.50 500.0 197.0 24.50 3581.333330 889370.461540 155.0 43.0 839099492.523960 0.0 0.0 0.0 0.0 0.0 0.0 0.0 -3.27680 -3.27680 -3.27680 -3.27680 -3.27680 -3.27680
16.05 16.067730 0.0 72.50 14.945330 0.0960 0.1020 1.0 15.0 200.0 23.333330 500.0 197.0 23.333330 3574.250 889370.769230 155.0 43.0 839100072.403010 0.0 0.0 0.0 0.0 0.0 0.0 0.0 -3.27680 -3.27680 -3.27680 -3.27680 -3.27680 -3.27680
16.04 16.059320 0.0 72.533330 14.954670 0.0960 0.1020 1.0 15.153850 200.0 22.166670 500.0 197.0 22.166670 3567.166670 889371.076920 155.0 43.0 839100652.282050 0.0 0.0 0.0 0.0 0.0 0.0 0.0 -3.27680 -3.27680 -3.27680 -3.27680 -3.27680 -3.27680
16.03 16.050920 0.0 72.566670 14.9640 0.0960 0.1020 1.0 15.307690 200.0 21.0 500.0 197.0 21.0 3560.083330 889371.384620 155.0 43.0 839101232.16110 0.0 0.0 0.0 0.0 0.0 0.0 0.0 -3.27680 -3.27680 -3.27680 -3.27680 -3.27680 -3.27680
16.02 16.042520 0.0 72.60 14.973330 0.0960 0.1020 1.0 15.461540 200.0 19.833330 500.0 197.0 19.833330 3553.0 889371.692310 155.0 43.0 839101812.040150 0.0 0.0 0.0 0.0 0.0 0.0 0.0 -3.27680 -3.27680 -3.27680 -3.27680 -3.27680 -3.27680
16.01 16.030310 0.0 72.650 14.982670 0.0960 0.1020 1.0 15.615380 200.0 18.666670 500.0 197.0 18.666670 3546.461540 889372.0 155.0 43.0 839102391.91920 0.0 0.0 0.0 0.0 0.0 0.0 0.0 -3.27680 -3.27680 -3.27680 -3.27680 -3.27680 -3.27680
16.00 16.018110 0.0 72.70 14.9920 0.0960 0.1020 1.0 15.769230 200.0 17.50 500.0 197.0 17.50 3539.923080 889372.833330 155.0 43.0 839103962.437290 0.0 0.0 0.0 0.0 0.0 0.0 0.0 -3.27680 -3.27680 -3.27680 -3.27680 -3.27680 -3.27680
15.99 16.009440 0.0 72.733330 15.001330 0.0960 0.1020 1.0 15.923080 200.0 16.333330 500.0 197.0 16.333330 3533.384620 889373.666670 155.0 43.0 839105532.955390 0.0 0.0 0.0 0.0 0.0 0.0 0.0 -3.27680 -3.27680 -3.27680 -3.27680 -3.27680 -3.27680
15.98 16.000780 0.0 72.766670 15.010670 0.0960 0.1020 1.0 16.076920 200.0 15.166670 500.0 197.0 15.166670 3526.846150 889374.50 155.0 43.0 839107103.473490 0.0 0.0 0.0 0.0 0.0 0.0 0.0 -3.27680 -3.27680 -3.27680 -3.27680 -3.27680 -3.27680
