~VERSION INFORMATION SECTION
VERS. 2.0 : CWLS LAS-VERSION 2.0
WRAP. NO : One line per depth step
~WELL INFORMATION SECTION
# MNEM.UNIT VALUE/NAME DESCRIPTION
#-------- -------------- ---------------------
STRT.Metres 19 : Start
STOP.Metres -2.05 : Stop
STEP.Metres -0.01 : Step
NULL.  -999.25 :NULL VALUE
DATE. 2026-03-09 : DATE
~CURVE INFORMATION SECTION
DEPTH.Metres : 0 Depth
Depth. : 1 Depth
Tension. : 2 Tension
Time. : 3 Time
Speed. : 4 Speed
Voltage. : 5 Voltage
Current. : 6 Current
WET. : 7 WET
Sig. : 8 Sig
Vth. : 9 Vth
GR.CPS : 10 GR
Timebase.ms : 11 Timebase
HeadVoltage.V : 12 Head Voltage
API.API : 13 API
Conductivity.uS : 14 Conductivity
PT100.Ohms : 15 PT100
Vmon.mV : 16 Vmon
Status. : 17 Status
Temperature.C : 18 Temperature
Incline.Deg : 19 Incline
Azimuth.Deg : 20 Azimuth
RelativeBearing.Deg : 21 Relative Bearing
MagneticToolFace.Deg : 22 Magnetic Tool Face
GravityMagnitude.G : 23 Gravity Magnitude
MagnetometerMagnitude.H : 24 Magnetometer Magnitude
Temperature.C : 25 Temperature
GX. : 26 GX
GY. : 27 GY
GZ. : 28 GZ
HX. : 29 HX
HY. : 30 HY
HZ. : 31 HZ
~PARAMETER INFORMATION SECTION
~OTHER
#-------------------------------------------------
#Produced By: GeoVista Logger - Version 7.1.107.0
Verticality Sonde - 9605
Temperature and Conductivity Sonde - Inline - 8974
Natural Gamma Sonde - 9931
WLIS - 10021
#-------------------------------------------------
~ASCII LOG DATA
# ...
12.25 12.254190 0.0 106.450 4.950 0.0960 0.1010 1.0 34.0 200.0 16.0 500.0 197.0 16.0 2268.0 889809.250 148.0 41.0 839926640.455230 0.0 0.0 0.0 0.0 0.0 0.0 0.0 -3.27680 -3.27680 -3.27680 -3.27680 -3.27680 -3.27680
12.24 12.242380 0.0 106.60 4.940 0.0960 0.1020 1.0 34.0 200.0 15.0 500.0 197.0 15.0 2272.0 889810.0 148.0 41.0 839928054.606430 0.0 0.0 0.0 0.0 0.0 0.0 0.0 -3.27680 -3.27680 -3.27680 -3.27680 -3.27680 -3.27680
12.23 12.233710 0.0 106.70 4.930 0.0960 0.1020 1.0 34.0 200.0 14.0 500.0 197.0 14.0 2270.0 889810.50 148.0 41.0 839928997.376550 0.0 0.0 0.0 0.0 0.0 0.0 0.0 -3.27680 -3.27680 -3.27680 -3.27680 -3.27680 -3.27680
12.22 12.225840 0.0 106.80 4.920 0.0960 0.1020 1.0 34.0 200.0 13.0 502.0 197.0 13.0 2268.0 889811.0 148.0 41.0 839929940.146670 0.0 0.0 0.0 0.0 0.0 0.0 0.0 -3.27680 -3.27680 -3.27680 -3.27680 -3.27680 -3.27680
12.21 12.217170 0.0 106.90 4.910 0.0960 0.1020 1.0 34.0 200.0 12.0 504.0 197.0 12.0 2266.0 889811.50 148.0 41.0 839930882.916790 0.0 0.0 0.0 0.0 0.0 0.0 0.0 -3.27680 -3.27680 -3.27680 -3.27680 -3.27680 -3.27680
12.20 12.204970 0.0 107.050 4.9280 0.0960 0.1020 1.0 34.0 200.0 10.50 506.0 197.0 10.50 2264.0 889812.0 148.0 41.0 839931825.686910 0.0 0.0 0.0 0.0 0.0 0.0 0.0 -3.27680 -3.27680 -3.27680 -3.27680 -3.27680 -3.27680
12.19 12.192760 0.0 107.20 4.9460 0.0960 0.1020 1.0 34.0 200.0 9.0 508.0 197.0 9.0 2263.0 889812.20 148.0 41.0 839932202.795590 0.0 0.0 0.0 0.0 0.0 0.0 0.0 -3.27680 -3.27680 -3.27680 -3.27680 -3.27680 -3.27680
12.18 12.184090 0.0 107.30 4.9640 0.0960 0.1020 1.0 34.0 200.0 7.50 510.0 197.0 7.50 2262.0 889812.40 148.0 41.0 839932579.904270 0.0 0.0 0.0 0.0 0.0 0.0 0.0 -3.27680 -3.27680 -3.27680 -3.27680 -3.27680 -3.27680
12.17 12.175430 0.0 107.40 4.9820 0.0960 0.1020 1.0 34.0 200.0 6.0 507.50 197.0 6.0 2261.0 889812.60 148.0 41.0 839932957.012950 0.0 0.0 0.0 0.0 0.0 0.0 0.0 -3.27680 -3.27680 -3.27680 -3.27680 -3.27680 -3.27680
12.16 12.167560 0.0 107.50 5.0 0.0960 0.1020 1.0 34.250 200.0 6.0 505.0 197.0 6.0 2260.0 889812.80 148.0 41.0 839933334.121640 0.0 0.0 0.0 0.0 0.0 0.0 0.0 -3.27680 -3.27680 -3.27680 -3.27680 -3.27680 -3.27680
12.15 12.154560 0.0 107.650 5.0 0.0960 0.1020 1.0 34.50 200.0 6.0 502.50 197.0 6.0 2255.50 889813.0 148.0 41.0 839933711.230320 0.0 0.0 0.0 0.0 0.0 0.0 0.0 -3.27680 -3.27680 -3.27680 -3.27680 -3.27680 -3.27680
12.14 12.142350 0.0 107.80 5.0 0.0960 0.1020 1.0 34.750 200.0 6.0 500.0 197.0 6.0 2251.0 889814.50 148.0 41.0 839936539.556550 0.0 0.0 0.0 0.0 0.0 0.0 0.0 -3.27680 -3.27680 -3.27680 -3.27680 -3.27680 -3.27680
12.13 12.134480 0.0 107.90 5.0 0.0960 0.1020 1.0 35.0 200.0 6.0 500.0 197.0 6.0 2246.50 889816.0 148.0 41.0 839939367.882770 0.0 0.0 0.0 0.0 0.0 0.0 0.0 -3.27680 -3.27680 -3.27680 -3.27680 -3.27680 -3.27680
12.12 12.125810 0.0 108.0 5.0 0.0960 0.1020 1.0 34.750 200.0 5.976470 500.0 197.0 5.976470 2242.0 889817.50 148.0 41.0 839942196.2090 0.0 0.0 0.0 0.0 0.0 0.0 0.0 -3.27680 -3.27680 -3.27680 -3.27680 -3.27680 -3.27680
12.11 12.117940 0.0 108.10 5.0 0.0960 0.1020 1.0 34.50 200.0 5.952940 500.0 197.0 5.952940 2233.750 889819.0 148.0 41.0 839945024.535230 0.0 0.0 0.0 0.0 0.0 0.0 0.0 -3.27680 -3.27680 -3.27680 -3.27680 -3.27680 -3.27680
12.10 12.105340 0.0 108.250 4.9920 0.0960 0.1020 1.0 34.250 200.0 5.929410 500.0 197.0 5.929410 2225.50 889819.0 148.0 41.0 839945024.535230 0.0 0.0 0.0 0.0 0.0 0.0 0.0 -3.27680 -3.27680 -3.27680 -3.27680 -3.27680 -3.27680
12.09 12.092730 0.0 108.40 4.9840 0.0960 0.1020 1.0 34.0 200.0 5.905880 500.0 197.0 5.905880 2217.250 889819.0 148.0 41.0 839945024.535230 0.0 0.0 0.0 0.0 0.0 0.0 0.0 -3.27680 -3.27680 -3.27680 -3.27680 -3.27680 -3.27680
12.08 12.084860 0.0 108.50 4.9760 0.0960 0.1020 1.0 34.0 200.0 5.882350 500.0 197.0 5.882350 2209.0 889819.0 148.0 41.0 839945024.535230 0.0 0.0 0.0 0.0 0.0 0.0 0.0 -3.27680 -3.27680 -3.27680 -3.27680 -3.27680 -3.27680
12.07 12.076190 0.0 108.60 4.9680 0.0960 0.1020 1.0 34.0 200.0 7.911760 500.0 197.0 7.911760 2213.80 889819.0 148.0 41.0 839945024.535230 0.0 0.0 0.0 0.0 0.0 0.0 0.0 -3.27680 -3.27680 -3.27680 -3.27680 -3.27680 -3.27680
12.06 12.068320 0.0 108.70 4.960 0.0960 0.1020 1.0 34.0 200.0 9.941180 500.0 197.0 9.941180 2218.60 889820.0 148.0 41.0 839946910.096630 0.0 0.0 0.0 0.0 0.0 0.0 0.0 -3.27680 -3.27680 -3.27680 -3.27680 -3.27680 -3.27680
12.05 12.055720 0.0 108.850 4.960 0.0960 0.1020 1.0 34.0 200.0 11.970590 500.0 197.0 11.970590 2223.40 889821.0 148.0 41.0 839948795.658030 0.0 0.0 0.0 0.0 0.0 0.0 0.0 -3.27680 -3.27680 -3.27680 -3.27680 -3.27680 -3.27680
12.04 12.04390 0.0 109.0 4.960 0.0960 0.1020 1.0 34.250 200.0 14.0 500.0 197.0 14.0 2228.20 889822.0 148.0 41.0 839950681.219430 0.0 0.0 0.0 0.0 0.0 0.0 0.0 -3.27680 -3.27680 -3.27680 -3.27680 -3.27680 -3.27680
12.03 12.035240 0.0 109.10 4.960 0.0960 0.1020 1.0 34.50 200.0 12.50 500.0 197.0 12.50 2233.0 889823.0 148.0 41.0 839952566.780830 0.0 0.0 0.0 0.0 0.0 0.0 0.0 -3.27680 -3.27680 -3.27680 -3.27680 -3.27680 -3.27680
12.02 12.026580 0.0 109.20 4.960 0.0960 0.1020 1.0 34.750 200.0 11.0 500.0 197.0 11.0 2230.250 889823.750 148.0 41.0 839953980.957440 0.0 0.0 0.0 0.0 0.0 0.0 0.0 -3.27680 -3.27680 -3.27680 -3.27680 -3.27680 -3.27680
12.01 12.014370 0.0 109.350 4.960 0.0960 0.1020 1.0 35.0 200.0 9.50 500.0 197.0 9.50 2227.50 889824.50 148.0 41.0 839955395.134040 0.0 0.0 0.0 0.0 0.0 0.0 0.0 -3.27680 -3.27680 -3.27680 -3.27680 -3.27680 -3.27680
12.00 12.001370 0.0 109.50 4.9680 0.0960 0.10 1.0 35.0 200.0 8.0 500.0 197.0 8.0 2224.750 889825.250 148.0 41.0 839956809.310650 0.0 0.0 0.0 0.0 0.0 0.0 0.0 -3.27680 -3.27680 -3.27680 -3.27680 -3.27680 -3.27680
11.99 11.99350 0.0 109.60 4.9760 0.0960 0.1020 1.0 35.0 200.0 9.0 500.0 197.0 9.0 2222.0 889826.0 148.0 41.0 839958223.487250 0.0 0.0 0.0 0.0 0.0 0.0 0.0 -3.27680 -3.27680 -3.27680 -3.27680 -3.27680 -3.27680
11.98 11.984830 0.0 109.70 4.9840 0.0960 0.1020 1.0 35.0 200.0 10.0 500.0 197.0 10.0 2219.0 889826.250 148.0 41.0 839958694.880510 0.0 0.0 0.0 0.0 0.0 0.0 0.0 -3.27680 -3.27680 -3.27680 -3.27680 -3.27680 -3.27680
11.97 11.976960 0.0 109.80 4.9920 0.0960 0.1020 1.0 35.0 200.0 11.0 500.0 197.0 11.0 2216.0 889826.50 148.0 41.0 839959166.273770 0.0 0.0 0.0 0.0 0.0 0.0 0.0 -3.27680 -3.27680 -3.27680 -3.27680 -3.27680 -3.27680
11.96 11.964360 0.0 109.950 5.0 0.0960 0.1020 1.0 35.20 200.0 12.0 500.0 197.0 12.0 2213.0 889826.750 148.0 41.0 839959637.667030 0.0 0.0 0.0 0.0 0.0 0.0 0.0 -3.27680 -3.27680 -3.27680 -3.27680 -3.27680 -3.27680
11.95 11.951750 0.0 110.10 5.0 0.0960 0.1020 1.0 35.40 200.0 11.50 500.0 197.0 11.50 2210.0 889827.0 148.0 41.0 839960109.060290 0.0 0.0 0.0 0.0 0.0 0.0 0.0 -3.27680 -3.27680 -3.27680 -3.27680 -3.27680 -3.27680
11.94 11.943090 0.0 110.20 5.0 0.0960 0.1020 1.0 35.60 200.0 11.0 500.0 197.0 11.0 2205.0 889827.80 148.0 41.0 839961617.522960 0.0 0.0 0.0 0.0 0.0 0.0 0.0 -3.27680 -3.27680 -3.27680 -3.27680 -3.27680 -3.27680
11.93 11.935210 0.0 110.30 5.0 0.0960 0.1020 1.0 35.80 200.0 10.50 500.0 197.0 10.50 2200.0 889828.60 148.0 41.0 839963125.985620 0.0 0.0 0.0 0.0 0.0 0.0 0.0 -3.27680 -3.27680 -3.27680 -3.27680 -3.27680 -3.27680
11.92 11.927340 0.0 110.40 5.0 0.0960 0.1020 1.0 36.0 200.0 10.0 500.0 197.0 10.0 2195.0 889829.40 148.0 41.0 839964634.448290 0.0 0.0 0.0 0.0 0.0 0.0 0.0 -3.27680 -3.27680 -3.27680 -3.27680 -3.27680 -3.27680
11.91 11.914340 0.0 110.550 5.0 0.0960 0.1020 1.0 35.750 200.0 10.50 500.0 197.0 10.50 2190.0 889830.20 148.0 41.0 839966142.910960 0.0 0.0 0.0 0.0 0.0 0.0 0.0 -3.27680 -3.27680 -3.27680 -3.27680 -3.27680 -3.27680
11.90 11.902140 0.0 110.70 4.9920 0.0960 0.1020 1.0 35.50 200.0 11.0 500.0 197.0 11.0 2191.0 889831.0 148.0 41.0 839967651.373620 0.0 0.0 0.0 0.0 0.0 0.0 0.0 -3.27680 -3.27680 -3.27680 -3.27680 -3.27680 -3.27680
11.89 11.893470 0.0 110.80 4.9840 0.0960 0.1020 1.0 35.250 200.0 11.50 500.0 197.0 11.50 2192.0 889831.250 148.0 41.0 839968122.769530 0.0 0.0 0.0 0.0 0.0 0.0 0.0 -3.27680 -3.27680 -3.27680 -3.27680 -3.27680 -3.27680
11.88 11.884810 0.0 110.90 4.9760 0.0960 0.1020 1.0 35.0 200.0 12.0 500.0 197.0 12.0 2193.0 889831.50 148.0 41.0 839968594.165430 0.0 0.0 0.0 0.0 0.0 0.0 0.0 -3.27680 -3.27680 -3.27680 -3.27680 -3.27680 -3.27680
