~VERSION INFORMATION SECTION
VERS. 2.0 : CWLS LAS-VERSION 2.0
WRAP. NO : One line per depth step
~WELL INFORMATION SECTION
# MNEM.UNIT VALUE/NAME DESCRIPTION
#-------- -------------- ---------------------
STRT.Metres 19 : Start
STOP.Metres -2.05 : Stop
STEP.Metres -0.01 : Step
NULL.  -999.25 :NULL VALUE
DATE. 2026-03-09 : DATE
~CURVE INFORMATION SECTION
DEPTH.Metres : 0 Depth
Depth. : 1 Depth
Tension. : 2 Tension
Time. : 3 Time
Speed. : 4 Speed
Voltage. : 5 Voltage
Current. : 6 Current
WET. : 7 WET
Sig. : 8 Sig
Vth. : 9 Vth
GR.CPS : 10 GR
Timebase.ms : 11 Timebase
HeadVoltage.V : 12 Head Voltage
API.API : 13 API
Conductivity.uS : 14 Conductivity
PT100.Ohms : 15 PT100
Vmon.mV : 16 Vmon
Status. : 17 Status
Temperature.C : 18 Temperature
Incline.Deg : 19 Incline
Azimuth.Deg : 20 Azimuth
RelativeBearing.Deg : 21 Relative Bearing
MagneticToolFace.Deg : 22 Magnetic Tool Face
GravityMagnitude.G : 23 Gravity Magnitude
MagnetometerMagnitude.H : 24 Magnetometer Magnitude
Temperature.C : 25 Temperature
GX. : 26 GX
GY. : 27 GY
GZ. : 28 GZ
HX. : 29 HX
HY. : 30 HY
HZ. : 31 HZ
~PARAMETER INFORMATION SECTION
~OTHER
#-------------------------------------------------
#Produced By: GeoVista Logger - Version 7.1.107.0
Verticality Sonde - 9605
Temperature and Conductivity Sonde - Inline - 8974
Natural Gamma Sonde - 9931
WLIS - 10021
#-------------------------------------------------
~ASCII LOG DATA
# ...
9.59 9.597630 0.0 138.40 4.9840 0.0960 0.1020 1.0 39.0 200.0 12.50 500.0 197.0 12.50 1937.50 890046.50 149.0 41.0 840374043.56170 0.0 0.0 0.0 0.0 0.0 0.0 0.0 -3.27680 -3.27680 -3.27680 -3.27680 -3.27680 -3.27680
9.58 9.585030 0.0 138.550 4.9760 0.0960 0.1020 1.0 39.0 200.0 14.0 500.0 197.0 14.0 1931.750 890047.250 149.0 41.0 840375458.090690 0.0 0.0 0.0 0.0 0.0 0.0 0.0 -3.27680 -3.27680 -3.27680 -3.27680 -3.27680 -3.27680
9.57 9.572430 0.0 138.70 4.9680 0.0960 0.1020 1.0 39.0 200.0 12.50 500.0 197.0 12.50 1926.0 890048.0 149.0 41.0 840376872.619680 0.0 0.0 0.0 0.0 0.0 0.0 0.0 -3.27680 -3.27680 -3.27680 -3.27680 -3.27680 -3.27680
9.56 9.564550 0.0 138.80 4.960 0.0960 0.1020 1.0 39.0 200.0 11.0 500.0 197.0 11.0 1920.0 890050.20 149.0 41.0 840381021.937290 0.0 0.0 0.0 0.0 0.0 0.0 0.0 -3.27680 -3.27680 -3.27680 -3.27680 -3.27680 -3.27680
9.55 9.555890 0.0 138.90 4.9680 0.0960 0.1020 1.0 39.0 200.0 9.50 500.0 197.0 9.50 1914.0 890052.40 149.0 41.0 840385171.254910 0.0 0.0 0.0 0.0 0.0 0.0 0.0 -3.27680 -3.27680 -3.27680 -3.27680 -3.27680 -3.27680
9.54 9.548010 0.0 139.0 4.9760 0.0960 0.1020 1.0 39.0 200.0 8.0 500.0 197.0 8.0 1908.0 890054.60 149.0 41.0 840389320.572530 0.0 0.0 0.0 0.0 0.0 0.0 0.0 -3.27680 -3.27680 -3.27680 -3.27680 -3.27680 -3.27680
9.53 9.535020 0.0 139.150 4.9840 0.0960 0.1020 1.0 39.0 200.0 6.50 500.0 197.0 6.50 1902.0 890056.80 149.0 41.0 840393469.890150 0.0 0.0 0.0 0.0 0.0 0.0 0.0 -3.27680 -3.27680 -3.27680 -3.27680 -3.27680 -3.27680
9.52 9.522810 0.0 139.30 4.9920 0.0960 0.1020 1.0 39.0 200.0 5.0 500.0 197.0 5.0 1902.750 890059.0 149.0 41.0 840397619.207770 0.0 0.0 0.0 0.0 0.0 0.0 0.0 -3.27680 -3.27680 -3.27680 -3.27680 -3.27680 -3.27680
9.51 9.514150 0.0 139.40 5.0 0.0960 0.1020 1.0 39.0 200.0 3.50 500.0 197.0 3.50 1903.50 890060.50 149.0 41.0 840400448.314950 0.0 0.0 0.0 0.0 0.0 0.0 0.0 -3.27680 -3.27680 -3.27680 -3.27680 -3.27680 -3.27680
9.50 9.506270 0.0 139.50 4.9920 0.0960 0.1020 1.0 39.250 200.0 2.0 500.0 197.0 2.0 1904.250 890062.0 149.0 41.0 840403277.422130 0.0 0.0 0.0 0.0 0.0 0.0 0.0 -3.27680 -3.27680 -3.27680 -3.27680 -3.27680 -3.27680
9.49 9.497610 0.0 139.60 4.9840 0.0960 0.1020 1.0 39.50 200.0 3.50 500.0 197.0 3.50 1905.0 890063.50 149.0 41.0 840406106.529310 0.0 0.0 0.0 0.0 0.0 0.0 0.0 -3.27680 -3.27680 -3.27680 -3.27680 -3.27680 -3.27680
9.48 9.485010 0.0 139.750 4.9760 0.0960 0.1020 1.0 39.750 200.0 5.0 500.0 197.0 5.0 1906.250 890065.0 149.0 41.0 840408935.636490 0.0 0.0 0.0 0.0 0.0 0.0 0.0 -3.27680 -3.27680 -3.27680 -3.27680 -3.27680 -3.27680
9.47 9.472410 0.0 139.90 4.9680 0.0960 0.1020 1.0 40.0 200.0 6.50 500.0 197.0 6.50 1907.50 890066.50 149.0 41.0 840411764.762720 0.0 0.0 0.0 0.0 0.0 0.0 0.0 -3.27680 -3.27680 -3.27680 -3.27680 -3.27680 -3.27680
9.46 9.464530 0.0 140.0 4.960 0.0960 0.1020 1.0 40.0 200.0 8.0 500.0 197.0 8.0 1908.750 890068.0 149.0 41.0 840414593.888940 0.0 0.0 0.0 0.0 0.0 0.0 0.0 -3.27680 -3.27680 -3.27680 -3.27680 -3.27680 -3.27680
9.45 9.456650 0.0 140.10 4.9680 0.0960 0.1020 1.0 40.0 200.0 9.0 500.0 197.0 9.0 1910.0 890069.50 149.0 41.0 840417423.015170 0.0 0.0 0.0 0.0 0.0 0.0 0.0 -3.27680 -3.27680 -3.27680 -3.27680 -3.27680 -3.27680
9.44 9.447990 0.0 140.20 4.9760 0.0960 0.1040 1.0 40.0 200.0 10.0 500.0 197.0 10.0 1912.40 890071.0 149.0 41.0 840420252.14140 0.0 0.0 0.0 0.0 0.0 0.0 0.0 -3.27680 -3.27680 -3.27680 -3.27680 -3.27680 -3.27680
9.43 9.435390 0.0 140.350 4.9840 0.0960 0.1020 1.0 40.0 200.0 11.0 500.0 197.0 11.0 1914.80 890072.50 149.0 41.0 840423081.286670 0.0 0.0 0.0 0.0 0.0 0.0 0.0 -3.27680 -3.27680 -3.27680 -3.27680 -3.27680 -3.27680
9.42 9.422790 0.0 140.50 4.9920 0.0960 0.1020 1.0 40.0 200.0 12.0 502.50 197.0 12.0 1917.20 890074.0 149.0 41.0 840425910.431950 0.0 0.0 0.0 0.0 0.0 0.0 0.0 -3.27680 -3.27680 -3.27680 -3.27680 -3.27680 -3.27680
9.41 9.414120 0.0 140.60 5.0 0.0960 0.1020 1.0 40.0 200.0 11.60 505.0 197.0 11.60 1919.60 890075.50 149.0 41.0 840428739.577220 0.0 0.0 0.0 0.0 0.0 0.0 0.0 -3.27680 -3.27680 -3.27680 -3.27680 -3.27680 -3.27680
9.40 9.406250 0.0 140.70 4.9920 0.0960 0.1020 1.0 40.0 200.0 11.20 507.50 197.0 11.20 1922.0 890077.0 149.0 41.0 840431568.722490 0.0 0.0 0.0 0.0 0.0 0.0 0.0 -3.27680 -3.27680 -3.27680 -3.27680 -3.27680 -3.27680
9.39 9.397580 0.0 140.80 4.9840 0.0960 0.1020 1.0 40.0 200.0 10.80 510.0 197.0 10.80 1919.250 890078.50 149.0 41.0 840434397.886820 0.0 0.0 0.0 0.0 0.0 0.0 0.0 -3.27680 -3.27680 -3.27680 -3.27680 -3.27680 -3.27680
9.38 9.385380 0.0 140.950 4.9760 0.0960 0.1020 1.0 40.0 200.0 10.40 507.50 197.0 10.40 1916.50 890080.0 149.0 41.0 840437227.051140 0.0 0.0 0.0 0.0 0.0 0.0 0.0 -3.27680 -3.27680 -3.27680 -3.27680 -3.27680 -3.27680
9.37 9.372380 0.0 141.10 4.9680 0.0960 0.1020 1.0 40.0 200.0 10.0 505.0 197.0 10.0 1913.750 890081.50 149.0 41.0 840440056.215460 0.0 0.0 0.0 0.0 0.0 0.0 0.0 -3.27680 -3.27680 -3.27680 -3.27680 -3.27680 -3.27680
9.36 9.36450 0.0 141.20 4.960 0.0960 0.1020 1.0 40.0 200.0 10.0 502.50 197.0 10.0 1911.0 890083.0 149.0 41.0 840442885.379780 0.0 0.0 0.0 0.0 0.0 0.0 0.0 -3.27680 -3.27680 -3.27680 -3.27680 -3.27680 -3.27680
9.35 9.356630 0.0 141.30 4.9680 0.0960 0.1020 1.0 40.0 200.0 10.0 500.0 197.0 10.0 1908.750 890085.0 149.0 41.0 840446657.628510 0.0 0.0 0.0 0.0 0.0 0.0 0.0 -3.27680 -3.27680 -3.27680 -3.27680 -3.27680 -3.27680
9.34 9.347970 0.0 141.40 4.9760 0.0960 0.1020 1.0 40.0 200.0 10.0 500.0 197.0 10.0 1906.50 890087.0 149.0 41.0 840450429.877230 0.0 0.0 0.0 0.0 0.0 0.0 0.0 -3.27680 -3.27680 -3.27680 -3.27680 -3.27680 -3.27680
9.33 9.335360 0.0 141.550 4.9840 0.0960 0.1020 1.0 40.0 200.0 10.0 500.0 197.0 10.0 1904.250 890089.0 149.0 41.0 840454202.125960 0.0 0.0 0.0 0.0 0.0 0.0 0.0 -3.27680 -3.27680 -3.27680 -3.27680 -3.27680 -3.27680
9.32 9.322760 0.0 141.70 4.9920 0.0960 0.10 1.0 40.0 200.0 9.460780 500.0 197.0 9.460780 1902.0 890091.0 149.0 41.0 840457974.374680 0.0 0.0 0.0 0.0 0.0 0.0 0.0 -3.27680 -3.27680 -3.27680 -3.27680 -3.27680 -3.27680
9.31 9.31410 0.0 141.80 5.0 0.0960 0.10 1.0 40.0 200.0 8.921570 500.0 197.0 8.921570 1904.0 890092.0 149.0 41.0 840459860.51280 0.0 0.0 0.0 0.0 0.0 0.0 0.0 -3.27680 -3.27680 -3.27680 -3.27680 -3.27680 -3.27680
9.30 9.306220 0.0 141.90 4.9920 0.0960 0.1020 1.0 40.0 200.0 8.382350 500.0 197.0 8.382350 1906.0 890093.0 149.0 41.0 840461746.650920 0.0 0.0 0.0 0.0 0.0 0.0 0.0 -3.27680 -3.27680 -3.27680 -3.27680 -3.27680 -3.27680
9.29 9.297560 0.0 142.0 4.9840 0.0960 0.10 1.0 40.0 200.0 7.843140 500.0 197.0 7.843140 1908.0 890094.0 149.0 41.0 840463632.789040 0.0 0.0 0.0 0.0 0.0 0.0 0.0 -3.27680 -3.27680 -3.27680 -3.27680 -3.27680 -3.27680
9.28 9.285350 0.0 142.150 4.9760 0.0960 0.1020 1.0 40.0 200.0 8.382350 500.0 197.0 8.382350 1910.0 890095.0 149.0 41.0 840465518.927160 0.0 0.0 0.0 0.0 0.0 0.0 0.0 -3.27680 -3.27680 -3.27680 -3.27680 -3.27680 -3.27680
9.27 9.272360 0.0 142.30 4.9680 0.0960 0.1020 1.0 40.0 200.0 8.921570 500.0 197.0 8.921570 1910.50 890096.0 149.0 41.0 840467405.065280 0.0 0.0 0.0 0.0 0.0 0.0 0.0 -3.27680 -3.27680 -3.27680 -3.27680 -3.27680 -3.27680
9.26 9.264480 0.0 142.40 4.960 0.0960 0.1020 1.0 40.0 200.0 9.460780 500.0 197.0 9.460780 1911.0 890097.250 149.0 41.0 840469762.751160 0.0 0.0 0.0 0.0 0.0 0.0 0.0 -3.27680 -3.27680 -3.27680 -3.27680 -3.27680 -3.27680
9.25 9.255820 0.0 142.50 4.9680 0.0960 0.1020 1.0 40.0 200.0 10.0 500.0 197.0 10.0 1911.50 890098.50 149.0 41.0 840472120.437040 0.0 0.0 0.0 0.0 0.0 0.0 0.0 -3.27680 -3.27680 -3.27680 -3.27680 -3.27680 -3.27680
9.24 9.247150 0.0 142.60 4.9760 0.0960 0.1020 1.0 40.0 200.0 8.0 500.0 197.0 8.0 1912.0 890099.750 149.0 41.0 840474478.122910 0.0 0.0 0.0 0.0 0.0 0.0 0.0 -3.27680 -3.27680 -3.27680 -3.27680 -3.27680 -3.27680
9.23 9.234950 0.0 142.750 4.9840 0.0960 0.1020 1.0 40.0 200.0 6.0 500.0 197.0 6.0 1909.750 890101.0 149.0 41.0 840476835.808790 0.0 0.0 0.0 0.0 0.0 0.0 0.0 -3.27680 -3.27680 -3.27680 -3.27680 -3.27680 -3.27680
9.22 9.222740 0.0 142.90 4.9920 0.0960 0.1020 1.0 40.0 200.0 4.0 500.0 197.0 4.0 1907.50 890102.250 149.0 41.0 840479193.507890 0.0 0.0 0.0 0.0 0.0 0.0 0.0 -3.27680 -3.27680 -3.27680 -3.27680 -3.27680 -3.27680
