~VERSION INFORMATION SECTION
VERS. 2.0 : CWLS LAS-VERSION 2.0
WRAP. NO : One line per depth step
~WELL INFORMATION SECTION
# MNEM.UNIT VALUE/NAME DESCRIPTION
#-------- -------------- ---------------------
STRT.Metres 26 : Start
STOP.Metres -2.05 : Stop
STEP.Metres -0.01 : Step
NULL.  -999.25 :NULL VALUE
DATE. 2026-29-09 : DATE
~CURVE INFORMATION SECTION
DEPTH.Metres : 0 Depth
Depth. : 1 Depth
Tension. : 2 Tension
Time. : 3 Time
Speed. : 4 Speed
Voltage. : 5 Voltage
Current. : 6 Current
WET. : 7 WET
Sig. : 8 Sig
Vth. : 9 Vth
GR.CPS : 10 GR
Timebase.ms : 11 Timebase
HeadVoltage.V : 12 Head Voltage
API.API : 13 API
Conductivity.uS : 14 Conductivity
PT100.Ohms : 15 PT100
Vmon.mV : 16 Vmon
Status. : 17 Status
Temperature.C : 18 Temperature
Incline.Deg : 19 Incline
Azimuth.Deg : 20 Azimuth
RelativeBearing.Deg : 21 Relative Bearing
MagneticToolFace.Deg : 22 Magnetic Tool Face
GravityMagnitude.G : 23 Gravity Magnitude
MagnetometerMagnitude.H : 24 Magnetometer Magnitude
Temperature.C : 25 Temperature
GX. : 26 GX
GY. : 27 GY
GZ. : 28 GZ
HX. : 29 HX
HY. : 30 HY
HZ. : 31 HZ
~PARAMETER INFORMATION SECTION
~OTHER
#-------------------------------------------------
#Produced By: GeoVista Logger - Version 7.1.107.0
Verticality Sonde - 9605
Temperature and Conductivity Sonde - Inline - 8974
Natural Gamma Sonde - 9931
WLIS - 10021
#-------------------------------------------------
~ASCII LOG DATA
# ...
24.66 24.679290 0.0 104.133330 14.959330 0.0960 0.1020 1.0 0.076920 200.0 64.0 500.0 197.0 64.0 -999.25 -999.25 141.363640 -999.25 -999.25 -999.25 -999.25 -999.25 -999.25 -999.25 -999.25 -999.25 -999.25 -999.25 -999.25 -999.25 -999.25 -999.25
24.65 24.670630 0.0 104.166670 14.9620 0.0960 0.1020 1.0 0.153850 200.0 62.0 500.0 197.0 62.0 -999.25 -999.25 141.454550 -999.25 -999.25 -999.25 -999.25 -999.25 -999.25 -999.25 -999.25 -999.25 -999.25 -999.25 -999.25 -999.25 -999.25 -999.25
24.64 24.661960 0.0 104.20 14.964670 0.0960 0.1020 1.0 0.230770 200.0 60.0 500.0 197.0 60.0 -999.25 -999.25 141.545450 -999.25 -999.25 -999.25 -999.25 -999.25 -999.25 -999.25 -999.25 -999.25 -999.25 -999.25 -999.25 -999.25 -999.25 -999.25
24.63 24.649360 0.0 104.250 14.967330 0.0960 0.1020 1.0 0.307690 200.0 58.0 500.0 197.0 58.0 -999.25 -999.25 141.636360 -999.25 -999.25 -999.25 -999.25 -999.25 -999.25 -999.25 -999.25 -999.25 -999.25 -999.25 -999.25 -999.25 -999.25 -999.25
24.62 24.636760 0.0 104.30 14.970 0.0960 0.1020 1.0 0.384620 200.0 56.0 500.0 197.0 56.0 6384.789290 -999.25 141.727270 14.333330 -999.25 -999.25 -999.25 -999.25 -999.25 -999.25 -999.25 -999.25 -999.25 -999.25 -999.25 -999.25 -999.25 -999.25
24.61 24.628620 0.0 104.333330 14.976670 0.0960 0.1020 1.0 0.461540 200.0 54.0 500.0 197.0 54.0 12769.578580 -999.25 141.818180 28.666670 -999.25 -999.25 -999.25 -999.25 -999.25 -999.25 -999.25 -999.25 -999.25 -999.25 -999.25 -999.25 -999.25 -999.25
24.60 24.620480 0.0 104.366670 14.983330 0.0960 0.1020 1.0 0.538460 200.0 52.0 500.0 197.0 52.0 19154.367880 -999.25 141.909090 43.0 -999.25 -999.25 -999.25 -999.25 -999.25 -999.25 -999.25 -999.25 -999.25 -999.25 -999.25 -999.25 -999.25 -999.25
24.59 24.612340 0.0 104.40 14.990 0.0960 0.1020 1.0 0.615380 200.0 50.0 500.0 197.0 50.0 19158.931090 -999.25 142.0 43.0 -999.25 -999.25 -999.25 -999.25 -999.25 -999.25 -999.25 -999.25 -999.25 -999.25 -999.25 -999.25 -999.25 -999.25
24.58 24.599740 0.0 104.450 14.996670 0.0960 0.1020 1.0 0.692310 200.0 48.153850 500.0 197.0 48.153850 19163.49430 -999.25 141.846150 43.0 -999.25 -999.25 -999.25 -999.25 -999.25 -999.25 -999.25 -999.25 -999.25 -999.25 -999.25 -999.25 -999.25 -999.25
24.57 24.587140 0.0 104.50 15.003330 0.0960 0.1020 1.0 0.769230 200.0 46.307690 500.0 197.0 46.307690 19168.057510 -999.25 141.692310 43.0 -999.25 -999.25 -999.25 -999.25 -999.25 -999.25 -999.25 -999.25 -999.25 -999.25 -999.25 -999.25 -999.25 -999.25
24.56 24.578740 0.0 104.533330 15.010 0.0960 0.1020 1.0 0.846150 200.0 44.461540 500.0 197.0 44.461540 19172.620730 -999.25 141.538460 43.0 -999.25 -999.25 -999.25 -999.25 -999.25 -999.25 -999.25 -999.25 -999.25 -999.25 -999.25 -999.25 -999.25 -999.25
24.55 24.570340 0.0 104.566670 15.016670 0.0960 0.1020 1.0 0.923080 200.0 42.615380 500.833330 197.0 42.615380 19177.183940 -999.25 141.384620 43.0 -999.25 -999.25 -999.25 -999.25 -999.25 -999.25 -999.25 -999.25 -999.25 -999.25 -999.25 -999.25 -999.25 -999.25
24.54 24.561940 0.0 104.60 15.023330 0.0960 0.1020 1.0 1.0 200.0 40.769230 501.666670 197.0 40.769230 19181.747150 -999.25 141.230770 43.0 -999.25 -999.25 -999.25 -999.25 -999.25 -999.25 -999.25 -999.25 -999.25 -999.25 -999.25 -999.25 -999.25 -999.25
24.53 24.549340 0.0 104.650 15.030 0.0960 0.1020 1.0 1.0 200.0 38.923080 502.50 197.0 38.923080 19186.310360 -999.25 141.076920 43.0 -999.25 -999.25 -999.25 -999.25 -999.25 -999.25 -999.25 -999.25 -999.25 -999.25 -999.25 -999.25 -999.25 -999.25
24.52 24.536730 0.0 104.70 15.036670 0.0960 0.1020 1.0 1.0 200.0 37.076920 503.333330 197.0 37.076920 19190.873580 -999.25 140.923080 43.0 -999.25 -999.25 -999.25 -999.25 -999.25 -999.25 -999.25 -999.25 -999.25 -999.25 -999.25 -999.25 -999.25 -999.25
24.51 24.52860 0.0 104.733330 15.043330 0.0960 0.1020 1.0 1.0 200.0 35.230770 504.166670 197.0 35.230770 19195.436790 -999.25 140.769230 43.0 -999.25 -999.25 -999.25 -999.25 -999.25 -999.25 -999.25 -999.25 -999.25 -999.25 -999.25 -999.25 -999.25 -999.25
24.50 24.520460 0.0 104.766670 15.050 0.0960 0.1020 1.0 1.0 200.0 33.384620 505.0 197.0 33.384620 19200.0 -999.25 140.615380 43.0 -999.25 -999.25 -999.25 -999.25 -999.25 -999.25 -999.25 -999.25 -999.25 -999.25 -999.25 -999.25 -999.25 -999.25
24.49 24.512320 0.0 104.80 15.056670 0.0960 0.1020 1.0 1.0 200.0 31.538460 505.833330 197.0 31.538460 19188.727270 296307.756480 140.461540 43.0 279418974.167650 -999.25 -999.25 -999.25 -999.25 -999.25 -999.25 -999.25 -999.25 -999.25 -999.25 -999.25 -999.25 -999.25
24.48 24.500110 0.0 104.850 15.063330 0.0960 0.1020 1.0 1.0 200.0 29.692310 506.666670 197.0 29.692310 19177.454550 592615.512950 140.307690 43.0 558837948.335310 -999.25 -999.25 -999.25 -999.25 -999.25 -999.25 -999.25 -999.25 -999.25 -999.25 -999.25 -999.25 -999.25
24.47 24.48790 0.0 104.90 15.070 0.0960 0.1020 1.0 1.0 200.0 27.846150 507.50 197.0 27.846150 19166.181820 888923.269430 140.153850 43.0 838256922.502960 -999.25 -999.25 -999.25 -999.25 -999.25 -999.25 -999.25 -999.25 -999.25 -999.25 -999.25 -999.25 -999.25
24.46 24.47950 0.0 104.933330 15.060670 0.0960 0.1020 1.0 1.0 200.0 26.0 508.333330 197.0 26.0 19154.909090 888922.342490 140.0 43.0 838255176.451750 -999.25 -999.25 -999.25 -999.25 -999.25 -999.25 -999.25 -999.25 -999.25 -999.25 -999.25 -999.25 -999.25
24.45 24.47110 0.0 104.966670 15.051330 0.0960 0.1020 1.0 1.0 200.0 26.447710 509.166670 197.0 26.447710 19143.636360 888921.415540 140.166670 43.0 838253430.400530 -999.25 -999.25 -999.25 -999.25 -999.25 -999.25 -999.25 -999.25 -999.25 -999.25 -999.25 -999.25 -999.25
24.44 24.46270 0.0 105.0 15.0420 0.0960 0.1020 1.0 1.0 200.0 26.895420 510.0 197.0 26.895420 19132.363640 888920.48860 140.333330 43.0 838251684.349310 -999.25 -999.25 -999.25 -999.25 -999.25 -999.25 -999.25 -999.25 -999.25 -999.25 -999.25 -999.25 -999.25
24.43 24.450490 0.0 105.050 15.032670 0.0960 0.1020 1.0 1.0 200.0 27.343140 509.230770 197.0 27.343140 19121.090910 888919.561660 140.50 43.0 838249938.29810 -999.25 -999.25 -999.25 -999.25 -999.25 -999.25 -999.25 -999.25 -999.25 -999.25 -999.25 -999.25 -999.25
24.42 24.438290 0.0 105.10 15.023330 0.0960 0.1020 1.0 1.0 200.0 27.790850 508.461540 197.0 27.790850 19109.818180 888918.634720 140.666670 43.0 838248192.246880 -999.25 -999.25 -999.25 -999.25 -999.25 -999.25 -999.25 -999.25 -999.25 -999.25 -999.25 -999.25 -999.25
24.41 24.429880 0.0 105.133330 15.0140 0.0960 0.1020 1.0 1.0 200.0 28.238560 507.692310 197.0 28.238560 19098.545450 888917.707770 140.833330 43.0 838246446.195670 -999.25 -999.25 -999.25 -999.25 -999.25 -999.25 -999.25 -999.25 -999.25 -999.25 -999.25 -999.25 -999.25
24.40 24.421480 0.0 105.166670 15.004670 0.0960 0.1020 1.0 1.0 200.0 28.686270 506.923080 197.0 28.686270 19087.272730 888916.780830 141.0 43.0 838244700.144450 -999.25 -999.25 -999.25 -999.25 -999.25 -999.25 -999.25 -999.25 -999.25 -999.25 -999.25 -999.25 -999.25
24.39 24.413080 0.0 105.20 14.995330 0.0960 0.1020 1.0 1.0 200.0 29.133990 506.153850 197.0 29.133990 19076.0 888915.853890 141.166670 43.0 838242954.093240 -999.25 -999.25 -999.25 -999.25 -999.25 -999.25 -999.25 -999.25 -999.25 -999.25 -999.25 -999.25 -999.25
24.38 24.400480 0.0 105.250 14.9860 0.0960 0.1020 1.0 1.0 200.0 29.58170 505.384620 197.0 29.58170 19061.153850 888914.926940 141.333330 43.0 838241208.042020 -999.25 -999.25 -999.25 -999.25 -999.25 -999.25 -999.25 -999.25 -999.25 -999.25 -999.25 -999.25 -999.25
24.37 24.387880 0.0 105.30 14.976670 0.0960 0.1020 1.0 1.0 200.0 30.029410 504.615380 197.0 30.029410 19046.307690 888914.0 141.50 43.0 838239461.990810 -999.25 -999.25 -999.25 -999.25 -999.25 -999.25 -999.25 -999.25 -999.25 -999.25 -999.25 -999.25 -999.25
24.36 24.379740 0.0 105.333330 14.967330 0.0960 0.1020 1.0 1.0 200.0 30.477120 503.846150 197.0 30.477120 19031.461540 888914.272730 141.666670 43.0 838239975.712170 -999.25 -999.25 -999.25 -999.25 -999.25 -999.25 -999.25 -999.25 -999.25 -999.25 -999.25 -999.25 -999.25
24.35 24.37160 0.0 105.366670 14.9580 0.0960 0.1020 1.0 1.0 200.0 30.924840 503.076920 197.0 30.924840 19016.615380 888914.545450 141.833330 43.0 838240489.433530 -999.25 -999.25 -999.25 -999.25 -999.25 -999.25 -999.25 -999.25 -999.25 -999.25 -999.25 -999.25 -999.25
