~VERSION INFORMATION SECTION
VERS. 2.0 : CWLS LAS-VERSION 2.0
WRAP. NO : One line per depth step
~WELL INFORMATION SECTION
# MNEM.UNIT VALUE/NAME DESCRIPTION
#-------- -------------- ---------------------
STRT.Metres 25 : Start
STOP.Metres -2.12 : Stop
STEP.Metres -0.01 : Step
NULL.  -999.25 :NULL VALUE
DATE. 2026-13-09 : DATE
~CURVE INFORMATION SECTION
DEPTH.Metres : 0 Depth
Depth. : 1 Depth
Tension. : 2 Tension
Time. : 3 Time
Speed. : 4 Speed
Voltage. : 5 Voltage
Current. : 6 Current
WET. : 7 WET
Sig. : 8 Sig
Vth. : 9 Vth
GR.CPS : 10 GR
Timebase.ms : 11 Timebase
HeadVoltage.V : 12 Head Voltage
API.API : 13 API
Conductivity.uS : 14 Conductivity
PT100.Ohms : 15 PT100
Vmon.mV : 16 Vmon
Status. : 17 Status
Temperature.C : 18 Temperature
Incline.Deg : 19 Incline
Azimuth.Deg : 20 Azimuth
RelativeBearing.Deg : 21 Relative Bearing
MagneticToolFace.Deg : 22 Magnetic Tool Face
GravityMagnitude.G : 23 Gravity Magnitude
MagnetometerMagnitude.H : 24 Magnetometer Magnitude
Temperature.C : 25 Temperature
GX. : 26 GX
GY. : 27 GY
GZ. : 28 GZ
HX. : 29 HX
HY. : 30 HY
HZ. : 31 HZ
~PARAMETER INFORMATION SECTION
~OTHER
#-------------------------------------------------
#Produced By: GeoVista Logger - Version 7.1.107.0
Verticality Sonde - 9605
Temperature and Conductivity Sonde - Inline - 8974
Natural Gamma Sonde - 9931
WLIS - 10021
#-------------------------------------------------
~ASCII LOG DATA
# ...
8.66 8.679820 0.0 80.566670 14.8980 0.0960 0.1020 1.0 41.0 200.0 6.0 500.0 197.0 6.0 1768.166670 890259.307690 156.50 42.0 840775455.09390 0.0 0.0 0.0 0.0 0.0 0.0 0.0 -3.27680 -3.27680 -3.27680 -3.27680 -3.27680 -3.27680
8.65 8.671420 0.0 80.60 14.8920 0.0960 0.1020 1.0 41.0 200.0 6.0 500.0 197.0 6.0 1767.0 890261.153850 156.416670 42.0 840778937.810430 0.0 0.0 0.0 0.0 0.0 0.0 0.0 -3.27680 -3.27680 -3.27680 -3.27680 -3.27680 -3.27680
8.64 8.658820 0.0 80.650 14.8860 0.0960 0.1020 1.0 41.0 200.0 6.0 500.0 197.0 6.0 1768.153850 890263.0 156.333330 42.0 840782420.526960 0.0 0.0 0.0 0.0 0.0 0.0 0.0 -3.27680 -3.27680 -3.27680 -3.27680 -3.27680 -3.27680
8.63 8.646220 0.0 80.70 14.880 0.0960 0.1020 1.0 41.0 200.0 6.0 500.0 197.0 6.0 1769.307690 890265.083330 156.250 42.0 840786350.783840 0.0 0.0 0.0 0.0 0.0 0.0 0.0 -3.27680 -3.27680 -3.27680 -3.27680 -3.27680 -3.27680
8.62 8.637820 0.0 80.733330 14.8960 0.0960 0.1020 1.0 41.0 200.0 6.0 500.0 197.0 6.0 1770.461540 890267.166670 156.166670 42.0 840790281.040730 0.0 0.0 0.0 0.0 0.0 0.0 0.0 -3.27680 -3.27680 -3.27680 -3.27680 -3.27680 -3.27680
8.61 8.629420 0.0 80.766670 14.9120 0.0960 0.1020 1.0 41.0 200.0 6.0 500.0 197.0 6.0 1771.615380 890269.250 156.083330 42.0 840794211.297610 0.0 0.0 0.0 0.0 0.0 0.0 0.0 -3.27680 -3.27680 -3.27680 -3.27680 -3.27680 -3.27680
8.60 8.621010 0.0 80.80 14.9280 0.0960 0.1020 1.0 41.0 200.0 6.0 500.0 197.0 6.0 1772.769230 890271.333330 156.0 42.0 840798141.554490 0.0 0.0 0.0 0.0 0.0 0.0 0.0 -3.27680 -3.27680 -3.27680 -3.27680 -3.27680 -3.27680
8.59 8.608410 0.0 80.850 14.9440 0.0960 0.1020 1.0 41.0 200.0 6.307690 500.0 197.0 6.307690 1773.923080 890273.416670 156.076920 42.0 840802071.811380 0.0 0.0 0.0 0.0 0.0 0.0 0.0 -3.27680 -3.27680 -3.27680 -3.27680 -3.27680 -3.27680
8.58 8.595810 0.0 80.90 14.960 0.0960 0.1020 1.0 41.0 200.0 6.615380 500.0 197.0 6.615380 1775.076920 890275.50 156.153850 42.0 840806002.068260 0.0 0.0 0.0 0.0 0.0 0.0 0.0 -3.27680 -3.27680 -3.27680 -3.27680 -3.27680 -3.27680
8.57 8.587410 0.0 80.933330 14.9760 0.0960 0.1020 1.0 41.0 200.0 6.923080 500.0 197.0 6.923080 1776.230770 890277.583330 156.230770 42.0 840809932.325150 0.0 0.0 0.0 0.0 0.0 0.0 0.0 -3.27680 -3.27680 -3.27680 -3.27680 -3.27680 -3.27680
8.56 8.579010 0.0 80.966670 14.9920 0.0960 0.1020 1.0 41.0 200.0 7.230770 500.0 197.0 7.230770 1777.384620 890279.666670 156.307690 42.0 840813862.582030 0.0 0.0 0.0 0.0 0.0 0.0 0.0 -3.27680 -3.27680 -3.27680 -3.27680 -3.27680 -3.27680
8.55 8.570610 0.0 81.0 15.0080 0.0960 0.1020 1.0 41.0 200.0 7.538460 500.0 197.0 7.538460 1778.538460 890281.750 156.384620 42.0 840817792.838910 0.0 0.0 0.0 0.0 0.0 0.0 0.0 -3.27680 -3.27680 -3.27680 -3.27680 -3.27680 -3.27680
8.54 8.558010 0.0 81.050 15.0240 0.0960 0.1020 1.0 41.0 200.0 7.846150 500.0 197.0 7.846150 1779.692310 890283.833330 156.461540 42.0 840821723.09580 0.0 0.0 0.0 0.0 0.0 0.0 0.0 -3.27680 -3.27680 -3.27680 -3.27680 -3.27680 -3.27680
8.53 8.545410 0.0 81.10 15.040 0.0960 0.1020 1.0 41.0 200.0 8.153850 500.0 197.0 8.153850 1780.846150 890285.916670 156.538460 42.0 840825653.352680 0.0 0.0 0.0 0.0 0.0 0.0 0.0 -3.27680 -3.27680 -3.27680 -3.27680 -3.27680 -3.27680
8.52 8.5370 0.0 81.133330 15.0560 0.0960 0.1020 1.0 41.0 200.0 8.461540 500.0 197.0 8.461540 1782.0 890288.0 156.615380 42.0 840829583.609560 0.0 0.0 0.0 0.0 0.0 0.0 0.0 -3.27680 -3.27680 -3.27680 -3.27680 -3.27680 -3.27680
8.51 8.52860 0.0 81.166670 15.0720 0.0960 0.1020 1.0 41.0 200.0 8.769230 500.0 197.0 8.769230 1782.333330 890289.538460 156.692310 42.0 840832486.026370 0.0 0.0 0.0 0.0 0.0 0.0 0.0 -3.27680 -3.27680 -3.27680 -3.27680 -3.27680 -3.27680
8.50 8.52020 0.0 81.20 15.0880 0.0960 0.1020 1.0 41.0 200.0 9.076920 500.0 197.0 9.076920 1782.666670 890291.076920 156.769230 42.0 840835388.443170 0.0 0.0 0.0 0.0 0.0 0.0 0.0 -3.27680 -3.27680 -3.27680 -3.27680 -3.27680 -3.27680
8.49 8.507990 0.0 81.250 15.1040 0.0960 0.1010 1.0 41.0 200.0 9.384620 500.0 197.0 9.384620 1783.0 890292.615380 156.846150 42.0 840838290.859980 0.0 0.0 0.0 0.0 0.0 0.0 0.0 -3.27680 -3.27680 -3.27680 -3.27680 -3.27680 -3.27680
8.48 8.495790 0.0 81.30 15.120 0.0960 0.10 1.0 41.0 200.0 9.692310 500.0 197.0 9.692310 1783.333330 890294.153850 156.923080 42.0 840841193.276780 0.0 0.0 0.0 0.0 0.0 0.0 0.0 -3.27680 -3.27680 -3.27680 -3.27680 -3.27680 -3.27680
8.47 8.487390 0.0 81.333330 15.113330 0.0960 0.100670 1.0 41.0 200.0 10.0 500.0 197.0 10.0 1783.666670 890295.692310 157.0 42.0 840844095.693590 0.0 0.0 0.0 0.0 0.0 0.0 0.0 -3.27680 -3.27680 -3.27680 -3.27680 -3.27680 -3.27680
8.46 8.478990 0.0 81.366670 15.106670 0.0960 0.101330 1.0 41.0 200.0 9.50 500.0 197.0 9.50 1784.0 890297.230770 156.916670 42.0 840846998.110390 0.0 0.0 0.0 0.0 0.0 0.0 0.0 -3.27680 -3.27680 -3.27680 -3.27680 -3.27680 -3.27680
8.45 8.470580 0.0 81.40 15.10 0.0960 0.1020 1.0 41.0 200.0 9.0 500.0 197.0 9.0 1784.333330 890298.769230 156.833330 42.0 840849900.52720 0.0 0.0 0.0 0.0 0.0 0.0 0.0 -3.27680 -3.27680 -3.27680 -3.27680 -3.27680 -3.27680
8.44 8.457980 0.0 81.450 15.093330 0.0960 0.1020 1.0 41.0 200.0 8.50 500.0 197.0 8.50 1784.666670 890300.307690 156.750 42.0 840852802.9440 0.0 0.0 0.0 0.0 0.0 0.0 0.0 -3.27680 -3.27680 -3.27680 -3.27680 -3.27680 -3.27680
8.43 8.445380 0.0 81.50 15.086670 0.0960 0.1020 1.0 41.0 200.0 8.0 500.0 197.0 8.0 1785.0 890301.846150 156.666670 42.0 840855705.360810 0.0 0.0 0.0 0.0 0.0 0.0 0.0 -3.27680 -3.27680 -3.27680 -3.27680 -3.27680 -3.27680
8.42 8.437240 0.0 81.533330 15.080 0.0960 0.1020 1.0 41.0 200.0 7.50 500.0 197.0 7.50 1785.333330 890303.384620 156.583330 42.0 840858607.777610 0.0 0.0 0.0 0.0 0.0 0.0 0.0 -3.27680 -3.27680 -3.27680 -3.27680 -3.27680 -3.27680
8.41 8.42910 0.0 81.566670 15.073330 0.0960 0.1020 1.0 41.0 200.0 7.0 500.0 197.0 7.0 1785.666670 890304.923080 156.50 42.0 840861510.194420 0.0 0.0 0.0 0.0 0.0 0.0 0.0 -3.27680 -3.27680 -3.27680 -3.27680 -3.27680 -3.27680
8.40 8.420970 0.0 81.60 15.066670 0.0960 0.1020 1.0 41.0 200.0 6.50 500.0 197.0 6.50 1786.0 890306.461540 156.416670 42.0 840864412.611220 0.0 0.0 0.0 0.0 0.0 0.0 0.0 -3.27680 -3.27680 -3.27680 -3.27680 -3.27680 -3.27680
8.39 8.408360 0.0 81.650 15.060 0.0960 0.1020 1.0 41.0 200.0 6.0 500.0 197.0 6.0 1784.307690 890308.0 156.333330 42.0 840867315.028030 0.0 0.0 0.0 0.0 0.0 0.0 0.0 -3.27680 -3.27680 -3.27680 -3.27680 -3.27680 -3.27680
8.38 8.395760 0.0 81.70 15.053330 0.0960 0.1020 1.0 41.0 200.0 5.50 500.0 197.0 5.50 1782.615380 890309.50 156.250 42.0 840870144.944730 0.0 0.0 0.0 0.0 0.0 0.0 0.0 -3.27680 -3.27680 -3.27680 -3.27680 -3.27680 -3.27680
8.37 8.387360 0.0 81.733330 15.046670 0.0960 0.101330 1.0 41.0 200.0 5.0 500.0 197.0 5.0 1780.923080 890311.0 156.166670 42.0 840872974.861430 0.0 0.0 0.0 0.0 0.0 0.0 0.0 -3.27680 -3.27680 -3.27680 -3.27680 -3.27680 -3.27680
8.36 8.378960 0.0 81.766670 15.040 0.0960 0.100670 1.0 41.0 200.0 4.50 500.0 197.0 4.50 1779.230770 890312.50 156.083330 42.0 840875804.778130 0.0 0.0 0.0 0.0 0.0 0.0 0.0 -3.27680 -3.27680 -3.27680 -3.27680 -3.27680 -3.27680
8.35 8.370560 0.0 81.80 15.033330 0.0960 0.10 1.0 41.0 200.0 4.0 500.0 197.0 4.0 1777.538460 890314.0 156.0 42.0 840878634.694840 0.0 0.0 0.0 0.0 0.0 0.0 0.0 -3.27680 -3.27680 -3.27680 -3.27680 -3.27680 -3.27680
8.34 8.357960 0.0 81.850 15.026670 0.0960 0.1010 1.0 41.0 200.0 4.307690 500.0 197.0 4.307690 1775.846150 890315.50 156.0 42.0 840881464.611540 0.0 0.0 0.0 0.0 0.0 0.0 0.0 -3.27680 -3.27680 -3.27680 -3.27680 -3.27680 -3.27680
8.33 8.345360 0.0 81.90 15.020 0.0960 0.1020 1.0 41.0 200.0 4.615380 500.0 197.0 4.615380 1774.153850 890317.0 156.0 42.0 840884294.528240 0.0 0.0 0.0 0.0 0.0 0.0 0.0 -3.27680 -3.27680 -3.27680 -3.27680 -3.27680 -3.27680
8.32 8.336960 0.0 81.933330 15.023130 0.0960 0.1020 1.0 41.0 200.0 4.923080 500.0 197.0 4.923080 1772.461540 890318.50 156.0 42.0 840887124.444940 0.0 0.0 0.0 0.0 0.0 0.0 0.0 -3.27680 -3.27680 -3.27680 -3.27680 -3.27680 -3.27680
8.31 8.328550 0.0 81.966670 15.026250 0.0960 0.1020 1.0 41.0 200.0 5.230770 500.0 197.0 5.230770 1770.769230 890320.0 156.0 42.0 840889954.361640 0.0 0.0 0.0 0.0 0.0 0.0 0.0 -3.27680 -3.27680 -3.27680 -3.27680 -3.27680 -3.27680
