~VERSION INFORMATION SECTION
VERS. 2.0 : CWLS LAS-VERSION 2.0
WRAP. NO : One line per depth step
~WELL INFORMATION SECTION
# MNEM.UNIT VALUE/NAME DESCRIPTION
#-------- -------------- ---------------------
STRT.Metres 26 : Start
STOP.Metres -2.05 : Stop
STEP.Metres -0.01 : Step
NULL.  -999.25 :NULL VALUE
DATE. 2026-40-09 : DATE
~CURVE INFORMATION SECTION
DEPTH.Metres : 0 Depth
Depth. : 1 Depth
Tension. : 2 Tension
Time. : 3 Time
Speed. : 4 Speed
Voltage. : 5 Voltage
Current. : 6 Current
WET. : 7 WET
Sig. : 8 Sig
Vth. : 9 Vth
GR.CPS : 10 GR
Timebase.ms : 11 Timebase
HeadVoltage.V : 12 Head Voltage
API.API : 13 API
Conductivity.uS : 14 Conductivity
PT100.Ohms : 15 PT100
Vmon.mV : 16 Vmon
Status. : 17 Status
Temperature.C : 18 Temperature
Incline.Deg : 19 Incline
Azimuth.Deg : 20 Azimuth
RelativeBearing.Deg : 21 Relative Bearing
MagneticToolFace.Deg : 22 Magnetic Tool Face
GravityMagnitude.G : 23 Gravity Magnitude
MagnetometerMagnitude.H : 24 Magnetometer Magnitude
Temperature.C : 25 Temperature
GX. : 26 GX
GY. : 27 GY
GZ. : 28 GZ
HX. : 29 HX
HY. : 30 HY
HZ. : 31 HZ
~PARAMETER INFORMATION SECTION
~OTHER
#-------------------------------------------------
#Produced By: GeoVista Logger - Version 7.1.107.0
Verticality Sonde - 9605
Temperature and Conductivity Sonde - Inline - 8974
Natural Gamma Sonde - 9931
WLIS - 10021
#-------------------------------------------------
~ASCII LOG DATA
# ...
24.66 24.681390 0.0 38.166670 15.010 0.0960 0.1020 1.0 1.0 200.0 61.385620 503.076920 197.0 61.385620 -999.25 -999.25 138.181820 -999.25 -999.25 -999.25 -999.25 -999.25 -999.25 -999.25 -999.25 -999.25 -999.25 -999.25 -999.25 -999.25 -999.25 -999.25
24.65 24.672990 0.0 38.20 15.013330 0.0960 0.1020 1.0 1.0 200.0 60.784310 502.307690 197.0 60.784310 -999.25 -999.25 138.090910 -999.25 -999.25 -999.25 -999.25 -999.25 -999.25 -999.25 -999.25 -999.25 -999.25 -999.25 -999.25 -999.25 -999.25 -999.25
24.64 24.660390 0.0 38.250 15.016670 0.0960 0.1020 1.0 1.0 200.0 59.031670 501.538460 197.0 59.031670 -999.25 -999.25 138.0 -999.25 -999.25 -999.25 -999.25 -999.25 -999.25 -999.25 -999.25 -999.25 -999.25 -999.25 -999.25 -999.25 -999.25 -999.25
24.63 24.647790 0.0 38.30 15.020 0.0960 0.1020 1.0 1.0 200.0 57.279030 500.769230 197.0 57.279030 -999.25 -999.25 137.916670 -999.25 -999.25 -999.25 -999.25 -999.25 -999.25 -999.25 -999.25 -999.25 -999.25 -999.25 -999.25 -999.25 -999.25 -999.25
24.62 24.639380 0.0 38.333330 15.023330 0.0960 0.1020 1.0 1.0 200.0 55.52640 500.0 197.0 55.52640 17615.43750 -999.25 137.833330 42.0 -999.25 -999.25 -999.25 -999.25 -999.25 -999.25 -999.25 -999.25 -999.25 -999.25 -999.25 -999.25 -999.25 -999.25
24.61 24.630980 0.0 38.366670 15.026670 0.0960 0.1020 1.0 1.0 200.0 53.773760 500.0 197.0 53.773760 17611.089290 -999.25 137.750 42.0 -999.25 -999.25 -999.25 -999.25 -999.25 -999.25 -999.25 -999.25 -999.25 -999.25 -999.25 -999.25 -999.25 -999.25
24.60 24.622580 0.0 38.40 15.030 0.0960 0.1020 1.0 1.0 200.0 52.021120 500.0 197.0 52.021120 17606.741070 -999.25 137.666670 42.0 -999.25 -999.25 -999.25 -999.25 -999.25 -999.25 -999.25 -999.25 -999.25 -999.25 -999.25 -999.25 -999.25 -999.25
24.59 24.609590 0.0 38.450 15.033330 0.0960 0.1020 1.0 0.916670 200.0 50.268480 500.0 197.0 50.268480 17602.392860 -999.25 137.583330 42.0 -999.25 -999.25 -999.25 -999.25 -999.25 -999.25 -999.25 -999.25 -999.25 -999.25 -999.25 -999.25 -999.25 -999.25
24.58 24.596590 0.0 38.50 15.036670 0.0960 0.1020 1.0 0.833330 200.0 48.515840 500.0 197.0 48.515840 17598.044640 -999.25 137.50 42.0 -999.25 -999.25 -999.25 -999.25 -999.25 -999.25 -999.25 -999.25 -999.25 -999.25 -999.25 -999.25 -999.25 -999.25
24.57 24.588450 0.0 38.533330 15.040 0.0960 0.1020 1.0 0.750 200.0 46.76320 500.0 197.0 46.76320 17593.696430 -999.25 137.416670 42.0 -999.25 -999.25 -999.25 -999.25 -999.25 -999.25 -999.25 -999.25 -999.25 -999.25 -999.25 -999.25 -999.25 -999.25
24.56 24.580310 0.0 38.566670 15.043330 0.0960 0.1020 1.0 0.666670 200.0 45.010560 500.0 197.0 45.010560 17589.348210 -999.25 137.333330 42.0 -999.25 -999.25 -999.25 -999.25 -999.25 -999.25 -999.25 -999.25 -999.25 -999.25 -999.25 -999.25 -999.25 -999.25
24.55 24.572180 0.0 38.60 15.046670 0.0960 0.1020 1.0 0.583330 200.0 43.257920 500.0 197.0 43.257920 17585.0 -999.25 137.250 42.0 -999.25 -999.25 -999.25 -999.25 -999.25 -999.25 -999.25 -999.25 -999.25 -999.25 -999.25 -999.25 -999.25 -999.25
24.54 24.559570 0.0 38.650 15.050 0.0960 0.1020 1.0 0.50 200.0 41.505280 500.0 197.0 41.505280 17611.363640 -999.25 137.166670 42.0 -999.25 -999.25 -999.25 -999.25 -999.25 -999.25 -999.25 -999.25 -999.25 -999.25 -999.25 -999.25 -999.25 -999.25
24.53 24.546970 0.0 38.70 15.053330 0.0960 0.1020 1.0 0.416670 200.0 39.752640 500.0 197.0 39.752640 17637.727270 -999.25 137.083330 42.0 -999.25 -999.25 -999.25 -999.25 -999.25 -999.25 -999.25 -999.25 -999.25 -999.25 -999.25 -999.25 -999.25 -999.25
24.52 24.538830 0.0 38.733330 15.056670 0.0960 0.1020 1.0 0.333330 200.0 38.0 500.0 197.0 38.0 17664.090910 -999.25 137.0 42.0 -999.25 -999.25 -999.25 -999.25 -999.25 -999.25 -999.25 -999.25 -999.25 -999.25 -999.25 -999.25 -999.25 -999.25
24.51 24.53070 0.0 38.766670 15.060 0.0960 0.1020 1.0 0.250 200.0 37.166670 500.0 197.0 37.166670 17690.454550 -999.25 137.083330 42.0 -999.25 -999.25 -999.25 -999.25 -999.25 -999.25 -999.25 -999.25 -999.25 -999.25 -999.25 -999.25 -999.25 -999.25
24.50 24.522560 0.0 38.80 15.063330 0.0960 0.1020 1.0 0.166670 200.0 36.333330 500.0 197.0 36.333330 17716.818180 -999.25 137.166670 42.0 -999.25 -999.25 -999.25 -999.25 -999.25 -999.25 -999.25 -999.25 -999.25 -999.25 -999.25 -999.25 -999.25 -999.25
24.49 24.509960 0.0 38.850 15.066670 0.0960 0.1020 1.0 0.083330 200.0 35.50 500.0 197.0 35.50 17743.181820 888951.43750 137.250 42.0 838309982.468420 -999.25 -999.25 -999.25 -999.25 -999.25 -999.25 -999.25 -999.25 -999.25 -999.25 -999.25 -999.25 -999.25
24.48 24.497350 0.0 38.90 15.070 0.0960 0.1020 1.0 0.0 200.0 34.666670 500.0 197.0 34.666670 17769.545450 888952.946430 137.333330 42.0 838312824.863870 -999.25 -999.25 -999.25 -999.25 -999.25 -999.25 -999.25 -999.25 -999.25 -999.25 -999.25 -999.25 -999.25
24.47 24.488950 0.0 38.933330 15.060670 0.0960 0.1020 1.0 0.0 200.0 33.833330 500.0 197.0 33.833330 17795.909090 888954.455360 137.416670 42.0 838315667.259310 -999.25 -999.25 -999.25 -999.25 -999.25 -999.25 -999.25 -999.25 -999.25 -999.25 -999.25 -999.25 -999.25
24.46 24.480550 0.0 38.966670 15.051330 0.0960 0.1020 1.0 0.0 200.0 33.0 500.0 197.0 33.0 17822.272730 888955.964290 137.50 42.0 838318509.654750 -999.25 -999.25 -999.25 -999.25 -999.25 -999.25 -999.25 -999.25 -999.25 -999.25 -999.25 -999.25 -999.25
24.45 24.472150 0.0 39.0 15.0420 0.0960 0.1020 1.0 0.0 200.0 32.166670 500.0 197.0 32.166670 17848.636360 888957.473210 137.583330 42.0 838321352.05020 -999.25 -999.25 -999.25 -999.25 -999.25 -999.25 -999.25 -999.25 -999.25 -999.25 -999.25 -999.25 -999.25
24.44 24.459940 0.0 39.050 15.032670 0.0960 0.1020 1.0 0.0 200.0 31.333330 500.0 197.0 31.333330 17875.0 888958.982140 137.666670 42.0 838324194.445640 -999.25 -999.25 -999.25 -999.25 -999.25 -999.25 -999.25 -999.25 -999.25 -999.25 -999.25 -999.25 -999.25
24.43 24.447740 0.0 39.10 15.023330 0.0960 0.1020 1.0 0.0 200.0 30.50 500.0 197.0 30.50 17898.916670 888960.491070 137.750 42.0 838327036.841080 -999.25 -999.25 -999.25 -999.25 -999.25 -999.25 -999.25 -999.25 -999.25 -999.25 -999.25 -999.25 -999.25
24.42 24.439340 0.0 39.133330 15.0140 0.0960 0.1020 1.0 0.0 200.0 29.666670 500.0 197.0 29.666670 17922.833330 888962.0 137.833330 42.0 838329879.236530 -999.25 -999.25 -999.25 -999.25 -999.25 -999.25 -999.25 -999.25 -999.25 -999.25 -999.25 -999.25 -999.25
24.41 24.430930 0.0 39.166670 15.004670 0.0960 0.1020 1.0 0.0 200.0 28.833330 500.0 197.0 28.833330 17946.750 888962.090910 137.916670 42.0 838330050.486030 -999.25 -999.25 -999.25 -999.25 -999.25 -999.25 -999.25 -999.25 -999.25 -999.25 -999.25 -999.25 -999.25
24.40 24.422530 0.0 39.20 14.995330 0.0960 0.1020 1.0 0.0 200.0 28.0 500.0 197.0 28.0 17970.666670 888962.181820 138.0 42.0 838330221.735520 -999.25 -999.25 -999.25 -999.25 -999.25 -999.25 -999.25 -999.25 -999.25 -999.25 -999.25 -999.25 -999.25
24.39 24.410330 0.0 39.250 14.9860 0.0960 0.1020 1.0 0.0 200.0 28.153850 500.0 197.0 28.153850 17994.583330 888962.272730 137.923080 42.0 838330392.985020 -999.25 -999.25 -999.25 -999.25 -999.25 -999.25 -999.25 -999.25 -999.25 -999.25 -999.25 -999.25 -999.25
24.38 24.398120 0.0 39.30 14.976670 0.0960 0.1020 1.0 0.0 200.0 28.307690 500.0 197.0 28.307690 18018.50 888962.363640 137.846150 42.0 838330564.234520 -999.25 -999.25 -999.25 -999.25 -999.25 -999.25 -999.25 -999.25 -999.25 -999.25 -999.25 -999.25 -999.25
24.37 24.389720 0.0 39.333330 14.967330 0.0960 0.1020 1.0 0.0 200.0 28.461540 500.0 197.0 28.461540 18042.416670 888962.454550 137.769230 42.0 838330735.484010 -999.25 -999.25 -999.25 -999.25 -999.25 -999.25 -999.25 -999.25 -999.25 -999.25 -999.25 -999.25 -999.25
24.36 24.381320 0.0 39.366670 14.9580 0.0960 0.1020 1.0 0.0 200.0 28.615380 500.0 197.0 28.615380 18066.333330 888962.545450 137.692310 42.0 838330906.733510 -999.25 -999.25 -999.25 -999.25 -999.25 -999.25 -999.25 -999.25 -999.25 -999.25 -999.25 -999.25 -999.25
24.35 24.372910 0.0 39.40 14.948670 0.0960 0.1020 1.0 0.0 200.0 28.769230 500.0 197.0 28.769230 18090.250 888962.636360 137.615380 42.0 838331077.983010 -999.25 -999.25 -999.25 -999.25 -999.25 -999.25 -999.25 -999.25 -999.25 -999.25 -999.25 -999.25 -999.25
