~VERSION INFORMATION SECTION
VERS. 2.0 : CWLS LAS-VERSION 2.0
WRAP. NO : One line per depth step
~WELL INFORMATION SECTION
# MNEM.UNIT VALUE/NAME DESCRIPTION
#-------- -------------- ---------------------
STRT.Metres 25 : Start
STOP.Metres -2.12 : Stop
STEP.Metres -0.01 : Step
NULL.  -999.25 :NULL VALUE
DATE. 2026-13-09 : DATE
~CURVE INFORMATION SECTION
DEPTH.Metres : 0 Depth
Depth. : 1 Depth
Tension. : 2 Tension
Time. : 3 Time
Speed. : 4 Speed
Voltage. : 5 Voltage
Current. : 6 Current
WET. : 7 WET
Sig. : 8 Sig
Vth. : 9 Vth
GR.CPS : 10 GR
Timebase.ms : 11 Timebase
HeadVoltage.V : 12 Head Voltage
API.API : 13 API
Conductivity.uS : 14 Conductivity
PT100.Ohms : 15 PT100
Vmon.mV : 16 Vmon
Status. : 17 Status
Temperature.C : 18 Temperature
Incline.Deg : 19 Incline
Azimuth.Deg : 20 Azimuth
RelativeBearing.Deg : 21 Relative Bearing
MagneticToolFace.Deg : 22 Magnetic Tool Face
GravityMagnitude.G : 23 Gravity Magnitude
MagnetometerMagnitude.H : 24 Magnetometer Magnitude
Temperature.C : 25 Temperature
GX. : 26 GX
GY. : 27 GY
GZ. : 28 GZ
HX. : 29 HX
HY. : 30 HY
HZ. : 31 HZ
~PARAMETER INFORMATION SECTION
~OTHER
#-------------------------------------------------
#Produced By: GeoVista Logger - Version 7.1.107.0
Verticality Sonde - 9605
Temperature and Conductivity Sonde - Inline - 8974
Natural Gamma Sonde - 9931
WLIS - 10021
#-------------------------------------------------
~ASCII LOG DATA
# ...
10.42 10.439050 0.0 73.533330 14.973330 0.0960 0.1020 1.0 40.923080 200.0 13.068630 507.692310 197.0 13.068630 1846.50 889950.769230 157.0 42.0 840193501.363260 0.0 0.0 0.0 0.0 0.0 0.0 0.0 -3.27680 -3.27680 -3.27680 -3.27680 -3.27680 -3.27680
10.41 10.430650 0.0 73.566670 14.976670 0.0960 0.1020 1.0 40.846150 200.0 12.882350 506.923080 197.0 12.882350 1847.250 889951.846150 157.0 42.0 840195532.255020 0.0 0.0 0.0 0.0 0.0 0.0 0.0 -3.27680 -3.27680 -3.27680 -3.27680 -3.27680 -3.27680
10.40 10.422240 0.0 73.60 14.980 0.0960 0.1020 1.0 40.769230 200.0 12.696080 506.153850 197.0 12.696080 1848.0 889952.923080 157.0 42.0 840197563.146790 0.0 0.0 0.0 0.0 0.0 0.0 0.0 -3.27680 -3.27680 -3.27680 -3.27680 -3.27680 -3.27680
10.39 10.409640 0.0 73.650 14.983330 0.0960 0.1020 1.0 40.692310 200.0 12.50980 505.384620 197.0 12.50980 1845.692310 889954.0 157.0 42.0 840199594.038550 0.0 0.0 0.0 0.0 0.0 0.0 0.0 -3.27680 -3.27680 -3.27680 -3.27680 -3.27680 -3.27680
10.38 10.397040 0.0 73.70 14.986670 0.0960 0.1020 1.0 40.615380 200.0 12.323530 504.615380 197.0 12.323530 1843.384620 889955.583330 157.0 42.0 840202579.988280 0.0 0.0 0.0 0.0 0.0 0.0 0.0 -3.27680 -3.27680 -3.27680 -3.27680 -3.27680 -3.27680
10.37 10.388640 0.0 73.733330 14.990 0.0960 0.1020 1.0 40.538460 200.0 12.137250 503.846150 197.0 12.137250 1841.076920 889957.166670 157.0 42.0 840205565.938010 0.0 0.0 0.0 0.0 0.0 0.0 0.0 -3.27680 -3.27680 -3.27680 -3.27680 -3.27680 -3.27680
10.36 10.380240 0.0 73.766670 14.993330 0.0960 0.1020 1.0 40.461540 200.0 11.950980 503.076920 197.0 11.950980 1838.769230 889958.750 157.0 42.0 840208551.887740 0.0 0.0 0.0 0.0 0.0 0.0 0.0 -3.27680 -3.27680 -3.27680 -3.27680 -3.27680 -3.27680
10.35 10.371840 0.0 73.80 14.996670 0.0960 0.1020 1.0 40.384620 200.0 11.764710 502.307690 197.0 11.764710 1836.461540 889960.333330 157.0 42.0 840211537.837470 0.0 0.0 0.0 0.0 0.0 0.0 0.0 -3.27680 -3.27680 -3.27680 -3.27680 -3.27680 -3.27680
10.34 10.359240 0.0 73.850 15.0 0.0960 0.1020 1.0 40.307690 200.0 11.321270 501.538460 197.0 11.321270 1834.153850 889961.916670 157.0 42.0 840214523.78720 0.0 0.0 0.0 0.0 0.0 0.0 0.0 -3.27680 -3.27680 -3.27680 -3.27680 -3.27680 -3.27680
10.33 10.346640 0.0 73.90 15.003330 0.0960 0.1020 1.0 40.230770 200.0 10.877830 500.769230 197.0 10.877830 1831.846150 889963.50 157.0 42.0 840217509.736930 0.0 0.0 0.0 0.0 0.0 0.0 0.0 -3.27680 -3.27680 -3.27680 -3.27680 -3.27680 -3.27680
10.32 10.33850 0.0 73.933330 15.006670 0.0960 0.1020 1.0 40.153850 200.0 10.434390 500.0 197.0 10.434390 1829.538460 889965.083330 157.0 42.0 840220495.686660 0.0 0.0 0.0 0.0 0.0 0.0 0.0 -3.27680 -3.27680 -3.27680 -3.27680 -3.27680 -3.27680
10.31 10.330360 0.0 73.966670 15.010 0.0960 0.1020 1.0 40.076920 200.0 9.990950 500.0 197.0 9.990950 1827.230770 889966.666670 157.0 42.0 840223481.636390 0.0 0.0 0.0 0.0 0.0 0.0 0.0 -3.27680 -3.27680 -3.27680 -3.27680 -3.27680 -3.27680
10.30 10.322220 0.0 74.0 15.013330 0.0960 0.1020 1.0 40.0 200.0 9.547510 500.0 197.0 9.547510 1824.923080 889968.250 157.0 42.0 840226467.586120 0.0 0.0 0.0 0.0 0.0 0.0 0.0 -3.27680 -3.27680 -3.27680 -3.27680 -3.27680 -3.27680
10.29 10.309620 0.0 74.050 15.016670 0.0960 0.1020 1.0 40.0 200.0 9.104070 500.0 197.0 9.104070 1822.615380 889969.833330 157.0 42.0 840229453.535850 0.0 0.0 0.0 0.0 0.0 0.0 0.0 -3.27680 -3.27680 -3.27680 -3.27680 -3.27680 -3.27680
10.28 10.297020 0.0 74.10 15.020 0.0960 0.1020 1.0 40.0 200.0 8.660630 500.0 197.0 8.660630 1820.307690 889971.416670 157.0 42.0 840232439.485580 0.0 0.0 0.0 0.0 0.0 0.0 0.0 -3.27680 -3.27680 -3.27680 -3.27680 -3.27680 -3.27680
10.27 10.288620 0.0 74.133330 15.023330 0.0960 0.1020 1.0 40.0 200.0 8.217190 500.0 197.0 8.217190 1818.0 889973.0 157.0 42.0 840235425.435310 0.0 0.0 0.0 0.0 0.0 0.0 0.0 -3.27680 -3.27680 -3.27680 -3.27680 -3.27680 -3.27680
10.26 10.280220 0.0 74.166670 15.026670 0.0960 0.1020 1.0 40.0 200.0 7.773760 500.0 197.0 7.773760 1818.166670 889974.307690 157.0 42.0 840237891.613650 0.0 0.0 0.0 0.0 0.0 0.0 0.0 -3.27680 -3.27680 -3.27680 -3.27680 -3.27680 -3.27680
10.25 10.271810 0.0 74.20 15.030 0.0960 0.1020 1.0 40.0 200.0 7.330320 500.0 197.0 7.330320 1818.333330 889975.615380 157.0 42.0 840240357.791990 0.0 0.0 0.0 0.0 0.0 0.0 0.0 -3.27680 -3.27680 -3.27680 -3.27680 -3.27680 -3.27680
10.24 10.259210 0.0 74.250 15.033330 0.0960 0.1020 1.0 40.0 200.0 6.886880 500.0 197.0 6.886880 1818.50 889976.923080 157.0 42.0 840242823.970330 0.0 0.0 0.0 0.0 0.0 0.0 0.0 -3.27680 -3.27680 -3.27680 -3.27680 -3.27680 -3.27680
10.23 10.246610 0.0 74.30 15.036670 0.0960 0.1020 1.0 40.0 200.0 6.443440 500.0 197.0 6.443440 1818.666670 889978.230770 157.0 42.0 840245290.148670 0.0 0.0 0.0 0.0 0.0 0.0 0.0 -3.27680 -3.27680 -3.27680 -3.27680 -3.27680 -3.27680
10.22 10.238470 0.0 74.333330 15.040 0.0960 0.1020 1.0 40.0 200.0 6.0 500.0 197.0 6.0 1818.833330 889979.538460 157.0 42.0 840247756.3270 0.0 0.0 0.0 0.0 0.0 0.0 0.0 -3.27680 -3.27680 -3.27680 -3.27680 -3.27680 -3.27680
10.21 10.230330 0.0 74.366670 15.043330 0.0960 0.1020 1.0 40.0 200.0 7.333330 500.0 197.0 7.333330 1819.0 889980.846150 157.0 42.0 840250222.505340 0.0 0.0 0.0 0.0 0.0 0.0 0.0 -3.27680 -3.27680 -3.27680 -3.27680 -3.27680 -3.27680
10.20 10.22220 0.0 74.40 15.046670 0.0960 0.1020 1.0 40.0 200.0 8.666670 500.0 197.0 8.666670 1819.166670 889982.153850 157.0 42.0 840252688.683680 0.0 0.0 0.0 0.0 0.0 0.0 0.0 -3.27680 -3.27680 -3.27680 -3.27680 -3.27680 -3.27680
10.19 10.209590 0.0 74.450 15.050 0.0960 0.1020 1.0 40.0 200.0 10.0 500.0 197.0 10.0 1819.333330 889983.461540 157.0 42.0 840255154.862020 0.0 0.0 0.0 0.0 0.0 0.0 0.0 -3.27680 -3.27680 -3.27680 -3.27680 -3.27680 -3.27680
10.18 10.196990 0.0 74.50 15.053330 0.0960 0.1020 1.0 40.0 200.0 11.333330 500.0 197.0 11.333330 1819.50 889984.769230 157.0 42.0 840257621.040360 0.0 0.0 0.0 0.0 0.0 0.0 0.0 -3.27680 -3.27680 -3.27680 -3.27680 -3.27680 -3.27680
10.17 10.188850 0.0 74.533330 15.056670 0.0960 0.1020 1.0 40.0 200.0 12.666670 500.0 197.0 12.666670 1819.666670 889986.076920 157.0 42.0 840260087.21870 0.0 0.0 0.0 0.0 0.0 0.0 0.0 -3.27680 -3.27680 -3.27680 -3.27680 -3.27680 -3.27680
10.16 10.180720 0.0 74.566670 15.060 0.0960 0.1020 1.0 40.0 200.0 14.0 500.0 197.0 14.0 1819.833330 889987.384620 157.0 42.0 840262553.397040 0.0 0.0 0.0 0.0 0.0 0.0 0.0 -3.27680 -3.27680 -3.27680 -3.27680 -3.27680 -3.27680
10.15 10.172580 0.0 74.60 15.063330 0.0960 0.1020 1.0 40.0 200.0 15.333330 500.0 197.0 15.333330 1820.0 889988.692310 157.0 42.0 840265019.575380 0.0 0.0 0.0 0.0 0.0 0.0 0.0 -3.27680 -3.27680 -3.27680 -3.27680 -3.27680 -3.27680
10.14 10.159980 0.0 74.650 15.066670 0.0960 0.1020 1.0 40.0 200.0 16.666670 500.0 197.0 16.666670 1819.692310 889990.0 157.0 42.0 840267485.753710 0.0 0.0 0.0 0.0 0.0 0.0 0.0 -3.27680 -3.27680 -3.27680 -3.27680 -3.27680 -3.27680
10.13 10.147370 0.0 74.70 15.070 0.0960 0.1020 1.0 40.0 200.0 18.0 500.0 197.0 18.0 1819.384620 889991.250 157.0 42.0 840269843.17240 0.0 0.0 0.0 0.0 0.0 0.0 0.0 -3.27680 -3.27680 -3.27680 -3.27680 -3.27680 -3.27680
10.12 10.138970 0.0 74.733330 15.057330 0.0960 0.1020 1.0 40.0 200.0 19.333330 500.0 197.0 19.333330 1819.076920 889992.50 157.0 42.0 840272200.591080 0.0 0.0 0.0 0.0 0.0 0.0 0.0 -3.27680 -3.27680 -3.27680 -3.27680 -3.27680 -3.27680
10.11 10.130570 0.0 74.766670 15.044670 0.0960 0.1020 1.0 40.0 200.0 20.666670 500.0 197.0 20.666670 1818.769230 889993.750 157.0 42.0 840274558.009760 0.0 0.0 0.0 0.0 0.0 0.0 0.0 -3.27680 -3.27680 -3.27680 -3.27680 -3.27680 -3.27680
10.10 10.122170 0.0 74.80 15.0320 0.0960 0.1020 1.0 40.0 200.0 22.0 500.0 197.0 22.0 1818.461540 889995.0 157.0 42.0 840276915.428440 0.0 0.0 0.0 0.0 0.0 0.0 0.0 -3.27680 -3.27680 -3.27680 -3.27680 -3.27680 -3.27680
10.09 10.109960 0.0 74.850 15.019330 0.0960 0.1020 1.0 40.0 200.0 21.384620 500.0 197.0 21.384620 1818.153850 889996.250 157.0 42.0 840279272.847120 0.0 0.0 0.0 0.0 0.0 0.0 0.0 -3.27680 -3.27680 -3.27680 -3.27680 -3.27680 -3.27680
10.08 10.097760 0.0 74.90 15.006670 0.0960 0.1020 1.0 40.0 200.0 20.769230 500.0 197.0 20.769230 1817.846150 889997.50 157.0 42.0 840281630.26580 0.0 0.0 0.0 0.0 0.0 0.0 0.0 -3.27680 -3.27680 -3.27680 -3.27680 -3.27680 -3.27680
