~VERSION INFORMATION SECTION
VERS. 2.0 : CWLS LAS-VERSION 2.0
WRAP. NO : One line per depth step
~WELL INFORMATION SECTION
# MNEM.UNIT VALUE/NAME DESCRIPTION
#-------- -------------- ---------------------
STRT.Metres 26 : Start
STOP.Metres -2.05 : Stop
STEP.Metres -0.01 : Step
NULL.  -999.25 :NULL VALUE
DATE. 2026-23-09 : DATE
~CURVE INFORMATION SECTION
DEPTH.Metres : 0 Depth
Depth. : 1 Depth
Tension. : 2 Tension
Time. : 3 Time
Speed. : 4 Speed
Voltage. : 5 Voltage
Current. : 6 Current
WET. : 7 WET
Sig. : 8 Sig
Vth. : 9 Vth
GR.CPS : 10 GR
Timebase.ms : 11 Timebase
HeadVoltage.V : 12 Head Voltage
API.API : 13 API
Conductivity.uS : 14 Conductivity
PT100.Ohms : 15 PT100
Vmon.mV : 16 Vmon
Status. : 17 Status
Temperature.C : 18 Temperature
Incline.Deg : 19 Incline
Azimuth.Deg : 20 Azimuth
RelativeBearing.Deg : 21 Relative Bearing
MagneticToolFace.Deg : 22 Magnetic Tool Face
GravityMagnitude.G : 23 Gravity Magnitude
MagnetometerMagnitude.H : 24 Magnetometer Magnitude
Temperature.C : 25 Temperature
GX. : 26 GX
GY. : 27 GY
GZ. : 28 GZ
HX. : 29 HX
HY. : 30 HY
HZ. : 31 HZ
~PARAMETER INFORMATION SECTION
~OTHER
#-------------------------------------------------
#Produced By: GeoVista Logger - Version 7.1.107.0
Verticality Sonde - 9605
Temperature and Conductivity Sonde - Inline - 8974
Natural Gamma Sonde - 9931
WLIS - 10021
#-------------------------------------------------
~ASCII LOG DATA
# ...
0.69 0.691510 0.0 119.90 5.950 0.0960 0.1020 0.0 992.60 200.0 29.60 500.0 197.0 29.60 111.0 890708.769230 29.0 43.0 841623573.06430 0.0 0.0 0.0 0.0 0.0 0.0 0.0 -3.27680 -3.27680 -3.27680 -3.27680 -3.27680 -3.27680
0.68 0.681270 0.0 120.0 5.9650 0.0960 0.1020 0.0 992.80 200.0 29.20 500.0 197.0 29.20 108.666670 890708.230770 28.666670 43.0 841622556.750610 0.0 0.0 0.0 0.0 0.0 0.0 0.0 -3.27680 -3.27680 -3.27680 -3.27680 -3.27680 -3.27680
0.67 0.671030 0.0 120.10 5.980 0.0960 0.1020 0.0 993.0 200.0 28.80 500.0 197.0 28.80 106.333330 890707.692310 28.333330 43.0 841621540.436930 0.0 0.0 0.0 0.0 0.0 0.0 0.0 -3.27680 -3.27680 -3.27680 -3.27680 -3.27680 -3.27680
0.66 0.660790 0.0 120.20 5.9950 0.0960 0.1020 0.0 993.0 200.0 28.40 500.0 197.0 28.40 104.0 890707.153850 28.0 43.0 841620524.123240 0.0 0.0 0.0 0.0 0.0 0.0 0.0 -3.27680 -3.27680 -3.27680 -3.27680 -3.27680 -3.27680
0.65 0.650550 0.0 120.30 6.010 0.0960 0.1020 0.0 993.0 200.0 28.0 500.0 197.0 28.0 101.666670 890706.615380 28.40 43.0 841619507.809550 0.0 0.0 0.0 0.0 0.0 0.0 0.0 -3.27680 -3.27680 -3.27680 -3.27680 -3.27680 -3.27680
0.64 0.64110 0.0 120.40 6.0250 0.0960 0.1020 0.0 993.0 200.0 28.40 500.0 197.0 28.40 99.333330 890706.076920 28.80 43.0 841618491.495860 0.0 0.0 0.0 0.0 0.0 0.0 0.0 -3.27680 -3.27680 -3.27680 -3.27680 -3.27680 -3.27680
0.63 0.630860 0.0 120.50 6.040 0.0960 0.1020 0.0 993.0 200.0 28.80 500.0 197.0 28.80 97.0 890705.538460 29.20 43.0 841617475.182180 0.0 0.0 0.0 0.0 0.0 0.0 0.0 -3.27680 -3.27680 -3.27680 -3.27680 -3.27680 -3.27680
0.62 0.620620 0.0 120.60 6.040 0.0960 0.1020 0.0 993.0 200.0 29.20 500.0 197.0 29.20 96.636360 890705.0 29.60 43.0 841616458.868490 0.0 0.0 0.0 0.0 0.0 0.0 0.0 -3.27680 -3.27680 -3.27680 -3.27680 -3.27680 -3.27680
0.61 0.611170 0.0 120.70 6.040 0.0960 0.1020 0.0 993.0 200.0 29.60 500.0 197.0 29.60 96.272730 890704.250 30.0 43.0 841615043.301410 0.0 0.0 0.0 0.0 0.0 0.0 0.0 -3.27680 -3.27680 -3.27680 -3.27680 -3.27680 -3.27680
0.60 0.600930 0.0 120.80 6.040 0.0960 0.1020 0.0 993.0 200.0 30.0 500.0 197.0 30.0 95.909090 890703.50 29.20 43.0 841613627.734330 0.0 0.0 0.0 0.0 0.0 0.0 0.0 -3.27680 -3.27680 -3.27680 -3.27680 -3.27680 -3.27680
0.59 0.59070 0.0 120.90 6.040 0.0960 0.1020 0.0 993.0 200.0 27.60 500.0 197.0 27.60 95.545450 890702.750 28.40 43.0 841612212.167250 0.0 0.0 0.0 0.0 0.0 0.0 0.0 -3.27680 -3.27680 -3.27680 -3.27680 -3.27680 -3.27680
0.58 0.580460 0.0 121.0 6.040 0.0960 0.1020 0.0 993.0 200.0 25.20 500.0 197.0 25.20 95.181820 890702.0 27.60 43.0 841610796.600170 0.0 0.0 0.0 0.0 0.0 0.0 0.0 -3.27680 -3.27680 -3.27680 -3.27680 -3.27680 -3.27680
0.57 0.571010 0.0 121.10 6.040 0.0960 0.10 0.0 993.0 200.0 22.80 500.0 197.0 22.80 94.818180 890701.250 26.80 43.0 841609381.033090 0.0 0.0 0.0 0.0 0.0 0.0 0.0 -3.27680 -3.27680 -3.27680 -3.27680 -3.27680 -3.27680
0.56 0.561560 0.0 121.20 6.0250 0.0960 0.1020 0.0 993.0 200.0 20.40 500.0 197.0 20.40 94.454550 890700.50 26.0 43.0 841607965.466010 0.0 0.0 0.0 0.0 0.0 0.0 0.0 -3.27680 -3.27680 -3.27680 -3.27680 -3.27680 -3.27680
0.55 0.551320 0.0 121.30 6.010 0.0960 0.1020 0.0 993.0 200.0 18.0 500.0 197.0 18.0 94.090910 890699.750 25.20 43.0 841606549.898920 0.0 0.0 0.0 0.0 0.0 0.0 0.0 -3.27680 -3.27680 -3.27680 -3.27680 -3.27680 -3.27680
0.54 0.541080 0.0 121.40 5.9950 0.0960 0.1020 0.0 993.0 200.0 21.60 500.0 197.0 21.60 93.727270 890699.0 24.40 43.0 841605134.331840 0.0 0.0 0.0 0.0 0.0 0.0 0.0 -3.27680 -3.27680 -3.27680 -3.27680 -3.27680 -3.27680
0.53 0.530840 0.0 121.50 5.980 0.0960 0.1020 0.0 993.0 200.0 25.20 500.0 197.0 25.20 93.363640 890698.250 23.60 43.0 841603718.764760 0.0 0.0 0.0 0.0 0.0 0.0 0.0 -3.27680 -3.27680 -3.27680 -3.27680 -3.27680 -3.27680
0.52 0.52060 0.0 121.60 5.9650 0.0960 0.1020 0.0 993.0 200.0 28.80 500.0 197.0 28.80 93.0 890697.50 22.80 43.0 841602303.197680 0.0 0.0 0.0 0.0 0.0 0.0 0.0 -3.27680 -3.27680 -3.27680 -3.27680 -3.27680 -3.27680
0.51 0.511150 0.0 121.70 5.950 0.0960 0.1020 0.0 993.0 200.0 32.40 500.0 197.0 32.40 93.333330 890696.750 22.0 43.0 841600887.63060 0.0 0.0 0.0 0.0 0.0 0.0 0.0 -3.27680 -3.27680 -3.27680 -3.27680 -3.27680 -3.27680
0.50 0.500910 0.0 121.80 5.9650 0.0960 0.1020 0.0 993.0 200.0 36.0 500.0 197.0 36.0 93.666670 890696.0 22.0 43.0 841599472.063520 0.0 0.0 0.0 0.0 0.0 0.0 0.0 -3.27680 -3.27680 -3.27680 -3.27680 -3.27680 -3.27680
0.49 0.490670 0.0 121.90 5.980 0.0960 0.1020 0.0 993.0 200.0 36.40 502.0 197.0 36.40 94.0 890695.454550 22.0 43.0 841598442.568850 0.0 0.0 0.0 0.0 0.0 0.0 0.0 -3.27680 -3.27680 -3.27680 -3.27680 -3.27680 -3.27680
0.48 0.480430 0.0 122.0 5.9950 0.0960 0.1020 0.0 993.0 200.0 36.80 504.0 197.0 36.80 94.333330 890694.909090 22.0 43.0 841597413.074170 0.0 0.0 0.0 0.0 0.0 0.0 0.0 -3.27680 -3.27680 -3.27680 -3.27680 -3.27680 -3.27680
0.47 0.470190 0.0 122.10 6.010 0.0960 0.1020 0.0 993.0 200.0 37.20 506.0 197.0 37.20 94.666670 890694.363640 22.0 43.0 841596383.57950 0.0 0.0 0.0 0.0 0.0 0.0 0.0 -3.27680 -3.27680 -3.27680 -3.27680 -3.27680 -3.27680
0.46 0.460740 0.0 122.20 6.0250 0.0960 0.1020 0.0 993.20 200.0 37.60 508.0 197.0 37.60 95.0 890693.818180 22.0 43.0 841595354.084830 0.0 0.0 0.0 0.0 0.0 0.0 0.0 -3.27680 -3.27680 -3.27680 -3.27680 -3.27680 -3.27680
0.45 0.45050 0.0 122.30 6.040 0.0960 0.1020 0.0 993.40 200.0 38.0 510.0 197.0 38.0 89.20 890693.272730 28.80 43.0 841594324.590150 0.0 0.0 0.0 0.0 0.0 0.0 0.0 -3.27680 -3.27680 -3.27680 -3.27680 -3.27680 -3.27680
0.44 0.440270 0.0 122.40 6.033330 0.0960 0.1020 0.0 993.60 200.0 35.20 508.0 197.0 35.20 83.40 890692.727270 35.60 43.0 841593295.095480 0.0 0.0 0.0 0.0 0.0 0.0 0.0 -3.27680 -3.27680 -3.27680 -3.27680 -3.27680 -3.27680
0.43 0.430810 0.0 122.50 6.026670 0.0960 0.1020 0.0 993.80 200.0 32.40 506.0 197.0 32.40 77.60 890692.181820 42.40 43.0 841592265.600810 0.0 0.0 0.0 0.0 0.0 0.0 0.0 -3.27680 -3.27680 -3.27680 -3.27680 -3.27680 -3.27680
0.42 0.420580 0.0 122.60 6.020 0.0960 0.1020 0.0 994.0 200.0 29.60 504.0 197.0 29.60 71.80 890691.636360 49.20 43.0 841591236.106130 0.0 0.0 0.0 0.0 0.0 0.0 0.0 -3.27680 -3.27680 -3.27680 -3.27680 -3.27680 -3.27680
0.41 0.410340 0.0 122.70 6.013330 0.0960 0.1020 0.0 994.0 200.0 26.80 502.0 197.0 26.80 66.0 890691.090910 56.0 43.0 841590206.611460 0.0 0.0 0.0 0.0 0.0 0.0 0.0 -3.27680 -3.27680 -3.27680 -3.27680 -3.27680 -3.27680
0.40 0.405220 0.0 122.750 6.006670 0.0960 0.1020 0.0 994.0 200.0 24.0 500.0 197.0 24.0 67.20 890690.545450 49.80 43.0 841589177.116790 0.0 0.0 0.0 0.0 0.0 0.0 0.0 -3.27680 -3.27680 -3.27680 -3.27680 -3.27680 -3.27680
0.39 0.40010 0.0 122.80 6.0 0.0960 0.1020 0.0 994.0 200.0 26.258820 500.0 197.0 26.258820 68.40 890690.0 43.60 43.0 841588147.622110 0.0 0.0 0.0 0.0 0.0 0.0 0.0 -3.27680 -3.27680 -3.27680 -3.27680 -3.27680 -3.27680
0.38 0.385130 0.0 122.950 6.0 0.0960 0.1020 0.0 994.0 200.0 28.517650 500.0 197.0 28.517650 69.60 890688.166670 37.40 43.0 841584687.409110 0.0 0.0 0.0 0.0 0.0 0.0 0.0 -3.27680 -3.27680 -3.27680 -3.27680 -3.27680 -3.27680
0.37 0.370170 0.0 123.10 6.0 0.0960 0.1020 0.0 994.0 200.0 30.776470 500.0 197.0 30.776470 70.80 890686.333330 31.20 43.0 841581227.19610 0.0 0.0 0.0 0.0 0.0 0.0 0.0 -3.27680 -3.27680 -3.27680 -3.27680 -3.27680 -3.27680
0.36 0.360720 0.0 123.20 6.0 0.0960 0.1020 0.0 993.40 200.0 33.035290 500.0 197.0 33.035290 72.0 890684.50 25.0 43.0 841577766.98310 0.0 0.0 0.0 0.0 0.0 0.0 0.0 -3.27680 -3.27680 -3.27680 -3.27680 -3.27680 -3.27680
0.35 0.350480 0.0 123.30 6.0 0.0960 0.1020 0.0 992.80 200.0 35.294120 500.0 197.0 35.294120 72.60 890682.666670 23.0 43.0 841574306.770090 0.0 0.0 0.0 0.0 0.0 0.0 0.0 -3.27680 -3.27680 -3.27680 -3.27680 -3.27680 -3.27680
0.34 0.340240 0.0 123.40 6.0 0.0960 0.1020 0.0 992.20 200.0 34.635290 500.0 197.0 34.635290 73.20 890680.833330 21.0 43.0 841570846.557090 0.0 0.0 0.0 0.0 0.0 0.0 0.0 -3.27680 -3.27680 -3.27680 -3.27680 -3.27680 -3.27680
0.33 0.330 0.0 123.50 6.0 0.0960 0.10 0.0 991.60 200.0 33.976470 500.0 197.0 33.976470 73.80 890679.0 19.0 43.0 841567386.344080 0.0 0.0 0.0 0.0 0.0 0.0 0.0 -3.27680 -3.27680 -3.27680 -3.27680 -3.27680 -3.27680
0.32 0.320550 0.0 123.60 6.0 0.0960 0.1020 0.0 991.0 200.0 33.317650 500.0 197.0 33.317650 74.40 890676.60 17.0 43.0 841562856.669110 0.0 0.0 0.0 0.0 0.0 0.0 0.0 -3.27680 -3.27680 -3.27680 -3.27680 -3.27680 -3.27680
