~VERSION INFORMATION SECTION
VERS. 2.0 : CWLS LAS-VERSION 2.0
WRAP. NO : One line per depth step
~WELL INFORMATION SECTION
# MNEM.UNIT VALUE/NAME DESCRIPTION
#-------- -------------- ---------------------
STRT.Metres 26 : Start
STOP.Metres -2.05 : Stop
STEP.Metres -0.01 : Step
NULL.  -999.25 :NULL VALUE
DATE. 2026-29-09 : DATE
~CURVE INFORMATION SECTION
DEPTH.Metres : 0 Depth
Depth. : 1 Depth
Tension. : 2 Tension
Time. : 3 Time
Speed. : 4 Speed
Voltage. : 5 Voltage
Current. : 6 Current
WET. : 7 WET
Sig. : 8 Sig
Vth. : 9 Vth
GR.CPS : 10 GR
Timebase.ms : 11 Timebase
HeadVoltage.V : 12 Head Voltage
API.API : 13 API
Conductivity.uS : 14 Conductivity
PT100.Ohms : 15 PT100
Vmon.mV : 16 Vmon
Status. : 17 Status
Temperature.C : 18 Temperature
Incline.Deg : 19 Incline
Azimuth.Deg : 20 Azimuth
RelativeBearing.Deg : 21 Relative Bearing
MagneticToolFace.Deg : 22 Magnetic Tool Face
GravityMagnitude.G : 23 Gravity Magnitude
MagnetometerMagnitude.H : 24 Magnetometer Magnitude
Temperature.C : 25 Temperature
GX. : 26 GX
GY. : 27 GY
GZ. : 28 GZ
HX. : 29 HX
HY. : 30 HY
HZ. : 31 HZ
~PARAMETER INFORMATION SECTION
~OTHER
#-------------------------------------------------
#Produced By: GeoVista Logger - Version 7.1.107.0
Verticality Sonde - 9605
Temperature and Conductivity Sonde - Inline - 8974
Natural Gamma Sonde - 9931
WLIS - 10021
#-------------------------------------------------
~ASCII LOG DATA
# ...
14.62 14.643230 0.0 144.266670 14.956670 0.0960 0.1020 1.0 27.384620 200.0 21.50 505.384620 197.0 21.50 2731.750 889477.846150 159.0 43.0 839301882.624060 0.0 0.0 0.0 0.0 0.0 0.0 0.0 -3.27680 -3.27680 -3.27680 -3.27680 -3.27680 -3.27680
14.61 14.635090 0.0 144.30 14.959330 0.0960 0.1020 1.0 27.461540 200.0 21.0 506.153850 197.0 21.0 2730.50 889478.692310 159.0 43.0 839303477.492910 0.0 0.0 0.0 0.0 0.0 0.0 0.0 -3.27680 -3.27680 -3.27680 -3.27680 -3.27680 -3.27680
14.60 14.622490 0.0 144.350 14.9620 0.0960 0.1020 1.0 27.538460 200.0 20.50 506.923080 197.0 20.50 2729.250 889479.538460 159.0 43.0 839305072.361750 0.0 0.0 0.0 0.0 0.0 0.0 0.0 -3.27680 -3.27680 -3.27680 -3.27680 -3.27680 -3.27680
14.59 14.609890 0.0 144.40 14.964670 0.0960 0.1020 1.0 27.615380 200.0 20.0 507.692310 197.0 20.0 2728.0 889480.384620 159.0 43.0 839306667.23060 0.0 0.0 0.0 0.0 0.0 0.0 0.0 -3.27680 -3.27680 -3.27680 -3.27680 -3.27680 -3.27680
14.58 14.597680 0.0 144.450 14.967330 0.0960 0.1020 1.0 27.692310 200.0 20.422320 508.461540 197.0 20.422320 2726.750 889481.230770 159.0 43.0 839308262.099440 0.0 0.0 0.0 0.0 0.0 0.0 0.0 -3.27680 -3.27680 -3.27680 -3.27680 -3.27680 -3.27680
14.57 14.585470 0.0 144.50 14.970 0.0960 0.1020 1.0 27.769230 200.0 20.844650 509.230770 197.0 20.844650 2725.50 889482.076920 159.0 43.0 839309856.968290 0.0 0.0 0.0 0.0 0.0 0.0 0.0 -3.27680 -3.27680 -3.27680 -3.27680 -3.27680 -3.27680
14.56 14.577070 0.0 144.533330 14.970 0.0960 0.1020 1.0 27.846150 200.0 21.266970 510.0 197.0 21.266970 2724.250 889482.923080 159.0 43.0 839311451.837130 0.0 0.0 0.0 0.0 0.0 0.0 0.0 -3.27680 -3.27680 -3.27680 -3.27680 -3.27680 -3.27680
14.55 14.568670 0.0 144.566670 14.970 0.0960 0.1020 1.0 27.923080 200.0 21.689290 509.166670 197.0 21.689290 2723.0 889483.769230 159.0 43.0 839313046.705980 0.0 0.0 0.0 0.0 0.0 0.0 0.0 -3.27680 -3.27680 -3.27680 -3.27680 -3.27680 -3.27680
14.54 14.560270 0.0 144.60 14.970 0.0960 0.1020 1.0 28.0 200.0 22.111610 508.333330 197.0 22.111610 2721.750 889484.615380 159.0 43.0 839314641.574820 0.0 0.0 0.0 0.0 0.0 0.0 0.0 -3.27680 -3.27680 -3.27680 -3.27680 -3.27680 -3.27680
14.53 14.551610 0.0 144.633330 14.970 0.0960 0.1020 1.0 28.0 200.0 22.533940 507.50 197.0 22.533940 2720.50 889485.461540 159.0 43.0 839316236.443670 0.0 0.0 0.0 0.0 0.0 0.0 0.0 -3.27680 -3.27680 -3.27680 -3.27680 -3.27680 -3.27680
14.52 14.542940 0.0 144.666670 14.970 0.0960 0.1020 1.0 28.0 200.0 22.956260 506.666670 197.0 22.956260 2719.250 889486.307690 159.0 43.0 839317831.312510 0.0 0.0 0.0 0.0 0.0 0.0 0.0 -3.27680 -3.27680 -3.27680 -3.27680 -3.27680 -3.27680
14.51 14.534280 0.0 144.70 14.970 0.0960 0.1020 1.0 28.0 200.0 23.378580 505.833330 197.0 23.378580 2718.0 889487.153850 159.0 43.0 839319426.181360 0.0 0.0 0.0 0.0 0.0 0.0 0.0 -3.27680 -3.27680 -3.27680 -3.27680 -3.27680 -3.27680
14.50 14.521680 0.0 144.750 14.970 0.0960 0.1020 1.0 28.0 200.0 23.80090 505.0 197.0 23.80090 2714.769230 889488.0 159.0 43.0 839321021.05020 0.0 0.0 0.0 0.0 0.0 0.0 0.0 -3.27680 -3.27680 -3.27680 -3.27680 -3.27680 -3.27680
14.49 14.509080 0.0 144.80 14.970 0.0960 0.1020 1.0 28.0 200.0 24.223230 504.166670 196.916670 24.223230 2711.538460 889489.0 159.0 43.0 839322905.919540 0.0 0.0 0.0 0.0 0.0 0.0 0.0 -3.27680 -3.27680 -3.27680 -3.27680 -3.27680 -3.27680
14.48 14.496870 0.0 144.850 14.970 0.0960 0.1020 1.0 28.0 200.0 24.645550 503.333330 196.833330 24.645550 2708.307690 889490.0 159.0 43.0 839324790.788880 0.0 0.0 0.0 0.0 0.0 0.0 0.0 -3.27680 -3.27680 -3.27680 -3.27680 -3.27680 -3.27680
14.47 14.484660 0.0 144.90 14.970 0.0960 0.1020 1.0 28.0 200.0 25.067870 502.50 196.750 25.067870 2705.076920 889491.0 159.0 43.0 839326675.658220 0.0 0.0 0.0 0.0 0.0 0.0 0.0 -3.27680 -3.27680 -3.27680 -3.27680 -3.27680 -3.27680
14.46 14.476520 0.0 144.933330 14.970 0.0960 0.1020 1.0 28.0 200.0 25.49020 501.666670 196.666670 25.49020 2701.846150 889492.0 159.0 43.0 839328560.527550 0.0 0.0 0.0 0.0 0.0 0.0 0.0 -3.27680 -3.27680 -3.27680 -3.27680 -3.27680 -3.27680
14.45 14.468380 0.0 144.966670 14.970 0.0960 0.1020 1.0 28.0 200.0 25.199350 500.833330 196.583330 25.199350 2698.615380 889493.0 159.0 43.0 839330445.396890 0.0 0.0 0.0 0.0 0.0 0.0 0.0 -3.27680 -3.27680 -3.27680 -3.27680 -3.27680 -3.27680
14.44 14.460240 0.0 145.0 14.970 0.0960 0.1020 1.0 28.0 200.0 24.90850 500.0 196.50 24.90850 2695.384620 889494.0 159.0 43.0 839332330.266230 0.0 0.0 0.0 0.0 0.0 0.0 0.0 -3.27680 -3.27680 -3.27680 -3.27680 -3.27680 -3.27680
14.43 14.451580 0.0 145.033330 14.970 0.0960 0.1020 1.0 28.0 200.0 24.617650 492.307690 196.416670 24.617650 2692.153850 889495.0 159.0 43.0 839334215.135570 0.0 0.0 0.0 0.0 0.0 0.0 0.0 -3.27680 -3.27680 -3.27680 -3.27680 -3.27680 -3.27680
14.42 14.442920 0.0 145.066670 14.970 0.0960 0.1020 1.0 28.0 200.0 24.32680 484.615380 196.333330 24.32680 2688.923080 889496.0 159.0 43.0 839336100.00490 0.0 0.0 0.0 0.0 0.0 0.0 0.0 -3.27680 -3.27680 -3.27680 -3.27680 -3.27680 -3.27680
14.41 14.434250 0.0 145.10 14.970 0.0960 0.1020 1.0 28.153850 200.0 24.035950 476.923080 196.250 24.035950 2685.692310 889497.0 159.0 43.0 839337984.874240 0.0 0.0 0.0 0.0 0.0 0.0 0.0 -3.27680 -3.27680 -3.27680 -3.27680 -3.27680 -3.27680
14.40 14.421650 0.0 145.150 14.973330 0.0960 0.1020 1.0 28.307690 200.0 23.74510 469.230770 196.166670 23.74510 2682.461540 889498.0 159.0 43.0 839339869.743580 0.0 0.0 0.0 0.0 0.0 0.0 0.0 -3.27680 -3.27680 -3.27680 -3.27680 -3.27680 -3.27680
14.39 14.409050 0.0 145.20 14.976670 0.0960 0.1020 1.0 28.461540 200.0 23.454250 461.538460 196.083330 23.454250 2679.230770 889499.0 159.0 43.0 839341754.612920 0.0 0.0 0.0 0.0 0.0 0.0 0.0 -3.27680 -3.27680 -3.27680 -3.27680 -3.27680 -3.27680
14.38 14.400650 0.0 145.233330 14.980 0.0960 0.1020 1.0 28.615380 200.0 23.16340 453.846150 196.0 23.16340 2676.0 889500.0 159.0 43.0 839343639.482260 0.0 0.0 0.0 0.0 0.0 0.0 0.0 -3.27680 -3.27680 -3.27680 -3.27680 -3.27680 -3.27680
14.37 14.392250 0.0 145.266670 14.983330 0.0960 0.1020 1.0 28.769230 200.0 22.872550 446.153850 196.076920 22.872550 2676.166670 889500.769230 159.0 43.0 839345089.399650 0.0 0.0 0.0 0.0 0.0 0.0 0.0 -3.27680 -3.27680 -3.27680 -3.27680 -3.27680 -3.27680
14.36 14.383850 0.0 145.30 14.986670 0.0960 0.1020 1.0 28.923080 200.0 22.58170 438.461540 196.153850 22.58170 2676.333330 889501.538460 159.0 43.0 839346539.317050 0.0 0.0 0.0 0.0 0.0 0.0 0.0 -3.27680 -3.27680 -3.27680 -3.27680 -3.27680 -3.27680
14.35 14.371250 0.0 145.350 14.990 0.0960 0.1020 1.0 29.076920 200.0 22.290850 430.769230 196.230770 22.290850 2676.50 889502.307690 159.0 43.0 839347989.234450 0.0 0.0 0.0 0.0 0.0 0.0 0.0 -3.27680 -3.27680 -3.27680 -3.27680 -3.27680 -3.27680
14.34 14.358640 0.0 145.40 14.993330 0.0960 0.1020 1.0 29.230770 200.0 22.0 423.076920 196.307690 22.0 2676.666670 889503.076920 159.0 43.0 839349439.151850 0.0 0.0 0.0 0.0 0.0 0.0 0.0 -3.27680 -3.27680 -3.27680 -3.27680 -3.27680 -3.27680
14.33 14.350770 0.0 145.433330 14.996670 0.0960 0.1020 1.0 29.384620 200.0 22.038460 415.384620 196.384620 22.038460 2676.833330 889503.846150 159.0 43.0 839350889.069250 0.0 0.0 0.0 0.0 0.0 0.0 0.0 -3.27680 -3.27680 -3.27680 -3.27680 -3.27680 -3.27680
14.32 14.342890 0.0 145.466670 15.0 0.0960 0.1020 1.0 29.538460 200.0 22.076920 407.692310 196.461540 22.076920 2677.0 889504.615380 159.0 43.0 839352338.986650 0.0 0.0 0.0 0.0 0.0 0.0 0.0 -3.27680 -3.27680 -3.27680 -3.27680 -3.27680 -3.27680
14.31 14.335020 0.0 145.50 15.003330 0.0960 0.1020 1.0 29.692310 200.0 22.115380 400.0 196.538460 22.115380 2677.166670 889505.384620 159.0 43.0 839353788.904040 0.0 0.0 0.0 0.0 0.0 0.0 0.0 -3.27680 -3.27680 -3.27680 -3.27680 -3.27680 -3.27680
14.30 14.322420 0.0 145.550 15.006670 0.0960 0.1020 1.0 29.846150 200.0 22.153850 375.0 196.615380 22.153850 2677.333330 889506.153850 159.0 43.0 839355238.821440 0.0 0.0 0.0 0.0 0.0 0.0 0.0 -3.27680 -3.27680 -3.27680 -3.27680 -3.27680 -3.27680
14.29 14.309810 0.0 145.60 15.010 0.0960 0.1020 1.0 30.0 200.0 22.192310 350.0 196.692310 22.192310 2677.50 889506.923080 159.0 43.0 839356688.738840 0.0 0.0 0.0 0.0 0.0 0.0 0.0 -3.27680 -3.27680 -3.27680 -3.27680 -3.27680 -3.27680
