~VERSION INFORMATION SECTION
VERS. 2.0 : CWLS LAS-VERSION 2.0
WRAP. NO : One line per depth step
~WELL INFORMATION SECTION
# MNEM.UNIT VALUE/NAME DESCRIPTION
#-------- -------------- ---------------------
STRT.Metres 19 : Start
STOP.Metres -2.05 : Stop
STEP.Metres -0.01 : Step
NULL.  -999.25 :NULL VALUE
DATE. 2026-03-09 : DATE
~CURVE INFORMATION SECTION
DEPTH.Metres : 0 Depth
Depth. : 1 Depth
Tension. : 2 Tension
Time. : 3 Time
Speed. : 4 Speed
Voltage. : 5 Voltage
Current. : 6 Current
WET. : 7 WET
Sig. : 8 Sig
Vth. : 9 Vth
GR.CPS : 10 GR
Timebase.ms : 11 Timebase
HeadVoltage.V : 12 Head Voltage
API.API : 13 API
Conductivity.uS : 14 Conductivity
PT100.Ohms : 15 PT100
Vmon.mV : 16 Vmon
Status. : 17 Status
Temperature.C : 18 Temperature
Incline.Deg : 19 Incline
Azimuth.Deg : 20 Azimuth
RelativeBearing.Deg : 21 Relative Bearing
MagneticToolFace.Deg : 22 Magnetic Tool Face
GravityMagnitude.G : 23 Gravity Magnitude
MagnetometerMagnitude.H : 24 Magnetometer Magnitude
Temperature.C : 25 Temperature
GX. : 26 GX
GY. : 27 GY
GZ. : 28 GZ
HX. : 29 HX
HY. : 30 HY
HZ. : 31 HZ
~PARAMETER INFORMATION SECTION
~OTHER
#-------------------------------------------------
#Produced By: GeoVista Logger - Version 7.1.107.0
Verticality Sonde - 9605
Temperature and Conductivity Sonde - Inline - 8974
Natural Gamma Sonde - 9931
WLIS - 10021
#-------------------------------------------------
~ASCII LOG DATA
# ...
13.39 13.393050 0.0 92.80 4.960 0.0960 0.1040 1.0 29.0 200.0 26.50 500.0 197.0 26.50 2495.40 889761.50 148.0 41.0 839836608.497560 0.0 0.0 0.0 0.0 0.0 0.0 0.0 -3.27680 -3.27680 -3.27680 -3.27680 -3.27680 -3.27680
13.38 13.384390 0.0 92.90 4.960 0.0960 0.1020 1.0 28.750 200.0 26.0 500.0 197.0 26.0 2493.60 889761.0 148.0 41.0 839835665.780350 0.0 0.0 0.0 0.0 0.0 0.0 0.0 -3.27680 -3.27680 -3.27680 -3.27680 -3.27680 -3.27680
13.37 13.375730 0.0 93.0 4.960 0.0960 0.1020 1.0 28.50 200.0 29.60 500.0 197.0 29.60 2491.80 889760.50 148.0 41.0 839834723.063140 0.0 0.0 0.0 0.0 0.0 0.0 0.0 -3.27680 -3.27680 -3.27680 -3.27680 -3.27680 -3.27680
13.36 13.367850 0.0 93.10 4.960 0.0960 0.1020 1.0 28.250 200.0 33.20 500.0 197.0 33.20 2490.0 889760.0 148.0 41.0 839833780.345930 0.0 0.0 0.0 0.0 0.0 0.0 0.0 -3.27680 -3.27680 -3.27680 -3.27680 -3.27680 -3.27680
13.35 13.355250 0.0 93.250 4.9680 0.0960 0.1030 1.0 28.0 200.0 36.80 500.0 197.0 36.80 2479.250 889761.250 148.0 41.0 839836137.142920 0.0 0.0 0.0 0.0 0.0 0.0 0.0 -3.27680 -3.27680 -3.27680 -3.27680 -3.27680 -3.27680
13.34 13.342650 0.0 93.40 4.9760 0.0960 0.1020 1.0 28.50 200.0 40.40 500.0 197.0 40.40 2468.50 889762.50 148.0 41.0 839838493.939910 0.0 0.0 0.0 0.0 0.0 0.0 0.0 -3.27680 -3.27680 -3.27680 -3.27680 -3.27680 -3.27680
13.33 13.333980 0.0 93.50 4.9840 0.0960 0.1020 1.0 29.0 200.0 44.0 500.0 197.0 44.0 2457.750 889763.750 148.0 41.0 839840850.73690 0.0 0.0 0.0 0.0 0.0 0.0 0.0 -3.27680 -3.27680 -3.27680 -3.27680 -3.27680 -3.27680
13.32 13.326110 0.0 93.60 4.9920 0.0960 0.1020 1.0 29.50 200.0 39.0 500.0 197.0 39.0 2447.0 889765.0 148.0 41.0 839843207.533890 0.0 0.0 0.0 0.0 0.0 0.0 0.0 -3.27680 -3.27680 -3.27680 -3.27680 -3.27680 -3.27680
13.31 13.317440 0.0 93.70 5.0 0.0960 0.1020 1.0 30.0 200.0 34.0 500.0 197.0 34.0 2447.250 889765.250 148.0 41.0 839843678.894870 0.0 0.0 0.0 0.0 0.0 0.0 0.0 -3.27680 -3.27680 -3.27680 -3.27680 -3.27680 -3.27680
13.30 13.305240 0.0 93.850 5.0 0.0960 0.1020 1.0 30.0 200.0 29.0 500.0 197.0 29.0 2447.50 889765.50 148.0 41.0 839844150.255860 0.0 0.0 0.0 0.0 0.0 0.0 0.0 -3.27680 -3.27680 -3.27680 -3.27680 -3.27680 -3.27680
13.29 13.293030 0.0 94.0 5.0 0.0960 0.1020 1.0 30.0 200.0 24.0 500.0 197.0 24.0 2447.750 889765.750 148.0 41.0 839844621.616840 0.0 0.0 0.0 0.0 0.0 0.0 0.0 -3.27680 -3.27680 -3.27680 -3.27680 -3.27680 -3.27680
13.28 13.284360 0.0 94.10 5.0 0.0960 0.1020 1.0 30.0 200.0 22.0 500.0 197.0 22.0 2448.0 889766.0 148.0 41.0 839845092.977830 0.0 0.0 0.0 0.0 0.0 0.0 0.0 -3.27680 -3.27680 -3.27680 -3.27680 -3.27680 -3.27680
13.27 13.276490 0.0 94.20 5.0 0.0960 0.1020 1.0 30.0 200.0 20.0 500.0 197.0 20.0 2450.250 889765.80 148.0 41.0 839844715.889040 0.0 0.0 0.0 0.0 0.0 0.0 0.0 -3.27680 -3.27680 -3.27680 -3.27680 -3.27680 -3.27680
13.26 13.267830 0.0 94.30 5.0 0.0960 0.1020 1.0 30.0 200.0 18.0 500.0 197.0 18.0 2452.50 889765.60 148.0 41.0 839844338.800250 0.0 0.0 0.0 0.0 0.0 0.0 0.0 -3.27680 -3.27680 -3.27680 -3.27680 -3.27680 -3.27680
13.25 13.255620 0.0 94.450 5.0 0.0960 0.1020 1.0 30.0 200.0 16.0 500.0 197.0 16.0 2454.750 889765.40 148.0 41.0 839843961.711470 0.0 0.0 0.0 0.0 0.0 0.0 0.0 -3.27680 -3.27680 -3.27680 -3.27680 -3.27680 -3.27680
13.24 13.242620 0.0 94.60 5.0 0.0960 0.1020 1.0 30.0 200.0 18.0 500.0 197.0 18.0 2457.0 889765.20 148.0 41.0 839843584.622680 0.0 0.0 0.0 0.0 0.0 0.0 0.0 -3.27680 -3.27680 -3.27680 -3.27680 -3.27680 -3.27680
13.23 13.234750 0.0 94.70 5.0 0.0960 0.1020 1.0 30.0 200.0 20.0 500.0 197.0 20.0 2456.50 889765.0 148.0 41.0 839843207.533890 0.0 0.0 0.0 0.0 0.0 0.0 0.0 -3.27680 -3.27680 -3.27680 -3.27680 -3.27680 -3.27680
13.22 13.226080 0.0 94.80 5.0 0.0960 0.1020 1.0 30.0 200.0 22.0 500.0 197.0 22.0 2456.0 889766.0 148.0 41.0 839845092.9810 0.0 0.0 0.0 0.0 0.0 0.0 0.0 -3.27680 -3.27680 -3.27680 -3.27680 -3.27680 -3.27680
13.21 13.218210 0.0 94.90 5.0 0.0960 0.1020 1.0 30.250 200.0 24.0 500.0 197.0 24.0 2455.50 889767.0 148.0 41.0 839846978.428120 0.0 0.0 0.0 0.0 0.0 0.0 0.0 -3.27680 -3.27680 -3.27680 -3.27680 -3.27680 -3.27680
13.20 13.205610 0.0 95.050 5.0 0.0960 0.1020 1.0 30.50 200.0 23.0 500.0 197.0 23.0 2455.0 889768.0 148.0 41.0 839848863.875230 0.0 0.0 0.0 0.0 0.0 0.0 0.0 -3.27680 -3.27680 -3.27680 -3.27680 -3.27680 -3.27680
13.19 13.1930 0.0 95.20 5.0 0.0960 0.1020 1.0 30.750 200.0 22.0 500.0 197.0 22.0 2446.250 889769.0 148.0 41.0 839850749.322350 0.0 0.0 0.0 0.0 0.0 0.0 0.0 -3.27680 -3.27680 -3.27680 -3.27680 -3.27680 -3.27680
13.18 13.185130 0.0 95.30 5.0 0.0960 0.1020 1.0 31.0 200.0 21.0 500.0 197.0 21.0 2437.50 889769.0 148.0 41.0 839850749.322350 0.0 0.0 0.0 0.0 0.0 0.0 0.0 -3.27680 -3.27680 -3.27680 -3.27680 -3.27680 -3.27680
13.17 13.176460 0.0 95.40 5.0 0.0960 0.1020 1.0 31.0 200.0 20.0 502.50 197.0 20.0 2428.750 889769.0 148.0 41.0 839850749.322350 0.0 0.0 0.0 0.0 0.0 0.0 0.0 -3.27680 -3.27680 -3.27680 -3.27680 -3.27680 -3.27680
13.16 13.168590 0.0 95.50 5.0 0.0960 0.1020 1.0 31.0 200.0 21.50 505.0 197.0 21.50 2420.0 889769.0 148.0 41.0 839850749.322350 0.0 0.0 0.0 0.0 0.0 0.0 0.0 -3.27680 -3.27680 -3.27680 -3.27680 -3.27680 -3.27680
13.15 13.155590 0.0 95.650 5.010 0.0960 0.1020 1.0 31.0 200.0 23.0 507.50 197.0 23.0 2418.0 889769.0 148.0 41.0 839850749.322350 0.0 0.0 0.0 0.0 0.0 0.0 0.0 -3.27680 -3.27680 -3.27680 -3.27680 -3.27680 -3.27680
13.14 13.143390 0.0 95.80 5.020 0.0960 0.1040 1.0 31.0 200.0 24.50 510.0 197.0 24.50 2416.0 889770.250 148.0 41.0 839853106.143150 0.0 0.0 0.0 0.0 0.0 0.0 0.0 -3.27680 -3.27680 -3.27680 -3.27680 -3.27680 -3.27680
13.13 13.134720 0.0 95.90 5.030 0.0960 0.1020 1.0 30.750 200.0 26.0 507.50 197.0 26.0 2414.0 889771.50 148.0 41.0 839855462.963950 0.0 0.0 0.0 0.0 0.0 0.0 0.0 -3.27680 -3.27680 -3.27680 -3.27680 -3.27680 -3.27680
13.12 13.126060 0.0 96.0 5.040 0.0960 0.1020 1.0 30.50 200.0 25.60 505.0 197.0 25.60 2412.0 889772.750 148.0 41.0 839857819.784740 0.0 0.0 0.0 0.0 0.0 0.0 0.0 -3.27680 -3.27680 -3.27680 -3.27680 -3.27680 -3.27680
13.11 13.117390 0.0 96.10 5.050 0.0960 0.1020 1.0 30.250 200.0 25.20 502.50 197.0 25.20 2409.40 889774.0 148.0 41.0 839860176.605540 0.0 0.0 0.0 0.0 0.0 0.0 0.0 -3.27680 -3.27680 -3.27680 -3.27680 -3.27680 -3.27680
13.10 13.104790 0.0 96.250 5.050 0.0960 0.1030 1.0 30.0 200.0 24.80 500.0 197.0 24.80 2406.80 889774.250 148.0 41.0 839860647.971290 0.0 0.0 0.0 0.0 0.0 0.0 0.0 -3.27680 -3.27680 -3.27680 -3.27680 -3.27680 -3.27680
13.09 13.092980 0.0 96.40 5.050 0.0960 0.1020 1.0 30.0 200.0 24.40 500.0 197.0 24.40 2404.20 889774.50 148.0 41.0 839861119.337040 0.0 0.0 0.0 0.0 0.0 0.0 0.0 -3.27680 -3.27680 -3.27680 -3.27680 -3.27680 -3.27680
13.08 13.084320 0.0 96.50 5.050 0.0960 0.1020 1.0 30.0 200.0 24.0 500.0 197.0 24.0 2401.60 889774.750 148.0 41.0 839861590.702780 0.0 0.0 0.0 0.0 0.0 0.0 0.0 -3.27680 -3.27680 -3.27680 -3.27680 -3.27680 -3.27680
13.07 13.075650 0.0 96.60 5.050 0.0960 0.1020 1.0 30.0 200.0 23.392160 500.0 197.0 23.392160 2399.0 889775.0 148.0 41.0 839862062.068530 0.0 0.0 0.0 0.0 0.0 0.0 0.0 -3.27680 -3.27680 -3.27680 -3.27680 -3.27680 -3.27680
13.06 13.067780 0.0 96.70 5.050 0.0960 0.1020 1.0 30.0 200.0 22.784310 500.0 197.0 22.784310 2401.50 889775.250 148.0 41.0 839862533.434810 0.0 0.0 0.0 0.0 0.0 0.0 0.0 -3.27680 -3.27680 -3.27680 -3.27680 -3.27680 -3.27680
13.05 13.054780 0.0 96.850 5.050 0.0960 0.1020 1.0 30.0 200.0 22.176470 500.0 197.0 22.176470 2404.0 889775.50 148.0 41.0 839863004.801080 0.0 0.0 0.0 0.0 0.0 0.0 0.0 -3.27680 -3.27680 -3.27680 -3.27680 -3.27680 -3.27680
13.04 13.041790 0.0 97.0 5.050 0.0960 0.1020 1.0 30.0 200.0 21.568630 500.0 197.0 21.568630 2406.50 889775.750 148.0 41.0 839863476.167360 0.0 0.0 0.0 0.0 0.0 0.0 0.0 -3.27680 -3.27680 -3.27680 -3.27680 -3.27680 -3.27680
13.03 13.033120 0.0 97.10 5.050 0.0960 0.1020 1.0 30.0 200.0 24.676470 500.0 197.0 24.676470 2409.0 889776.0 148.0 41.0 839863947.533630 0.0 0.0 0.0 0.0 0.0 0.0 0.0 -3.27680 -3.27680 -3.27680 -3.27680 -3.27680 -3.27680
13.02 13.024460 0.0 97.20 5.050 0.0960 0.1020 1.0 30.0 200.0 27.784310 500.0 197.0 27.784310 2401.50 889776.50 148.0 41.0 839864890.267770 0.0 0.0 0.0 0.0 0.0 0.0 0.0 -3.27680 -3.27680 -3.27680 -3.27680 -3.27680 -3.27680
