~VERSION INFORMATION SECTION
VERS. 2.0 : CWLS LAS-VERSION 2.0
WRAP. NO : One line per depth step
~WELL INFORMATION SECTION
# MNEM.UNIT VALUE/NAME DESCRIPTION
#-------- -------------- ---------------------
STRT.Metres 26 : Start
STOP.Metres -2.04 : Stop
STEP.Metres -0.01 : Step
NULL.  -999.25 :NULL VALUE
DATE. 2026-36-09 : DATE
~CURVE INFORMATION SECTION
DEPTH.Metres : 0 Depth
Depth. : 1 Depth
Tension. : 2 Tension
Time. : 3 Time
Speed. : 4 Speed
Voltage. : 5 Voltage
Current. : 6 Current
WET. : 7 WET
Sig. : 8 Sig
Vth. : 9 Vth
GR.CPS : 10 GR
Timebase.ms : 11 Timebase
HeadVoltage.V : 12 Head Voltage
API.API : 13 API
Conductivity.uS : 14 Conductivity
PT100.Ohms : 15 PT100
Vmon.mV : 16 Vmon
Status. : 17 Status
Temperature.C : 18 Temperature
Incline.Deg : 19 Incline
Azimuth.Deg : 20 Azimuth
RelativeBearing.Deg : 21 Relative Bearing
MagneticToolFace.Deg : 22 Magnetic Tool Face
GravityMagnitude.G : 23 Gravity Magnitude
MagnetometerMagnitude.H : 24 Magnetometer Magnitude
Temperature.C : 25 Temperature
GX. : 26 GX
GY. : 27 GY
GZ. : 28 GZ
HX. : 29 HX
HY. : 30 HY
HZ. : 31 HZ
~PARAMETER INFORMATION SECTION
~OTHER
#-------------------------------------------------
#Produced By: GeoVista Logger - Version 7.1.107.0
Verticality Sonde - 9605
Temperature and Conductivity Sonde - Inline - 8974
Natural Gamma Sonde - 9931
WLIS - 10021
#-------------------------------------------------
~ASCII LOG DATA
# ...
18.07 18.093420 0.0 64.40 14.930 0.0960 0.1020 1.0 5.0 200.0 16.333330 500.0 197.0 16.333330 6166.666670 889214.0 152.166670 43.0 838804649.820930 0.0 0.0 0.0 0.0 0.0 0.0 0.0 -3.27680 -3.27680 -3.27680 -3.27680 -3.27680 -3.27680
18.06 18.080820 0.0 64.450 14.939330 0.0960 0.1020 1.0 5.0 200.0 17.50 500.0 197.0 17.50 6138.333330 889215.0 152.250 43.0 838806534.096620 0.0 0.0 0.0 0.0 0.0 0.0 0.0 -3.27680 -3.27680 -3.27680 -3.27680 -3.27680 -3.27680
18.05 18.068220 0.0 64.50 14.948670 0.0960 0.1020 1.0 5.0 200.0 18.666670 500.0 197.0 18.666670 6110.0 889216.0 152.333330 43.0 838808418.37230 0.0 0.0 0.0 0.0 0.0 0.0 0.0 -3.27680 -3.27680 -3.27680 -3.27680 -3.27680 -3.27680
18.04 18.059820 0.0 64.533330 14.9580 0.0960 0.1020 1.0 5.0 200.0 19.833330 500.0 197.0 19.833330 6081.666670 889217.0 152.416670 43.0 838810302.647990 0.0 0.0 0.0 0.0 0.0 0.0 0.0 -3.27680 -3.27680 -3.27680 -3.27680 -3.27680 -3.27680
18.03 18.051410 0.0 64.566670 14.967330 0.0960 0.1020 1.0 5.0 200.0 21.0 500.0 197.0 21.0 6053.333330 889218.0 152.50 43.0 838812186.923680 0.0 0.0 0.0 0.0 0.0 0.0 0.0 -3.27680 -3.27680 -3.27680 -3.27680 -3.27680 -3.27680
18.02 18.043010 0.0 64.60 14.976670 0.0960 0.1020 1.0 5.0 200.0 22.166670 500.0 197.0 22.166670 6025.0 889219.0 152.583330 43.0 838814071.199370 0.0 0.0 0.0 0.0 0.0 0.0 0.0 -3.27680 -3.27680 -3.27680 -3.27680 -3.27680 -3.27680
18.01 18.030410 0.0 64.650 14.9860 0.0960 0.1020 1.0 5.0 200.0 23.333330 500.0 197.0 23.333330 6002.153850 889220.0 152.666670 43.0 838815955.475050 0.0 0.0 0.0 0.0 0.0 0.0 0.0 -3.27680 -3.27680 -3.27680 -3.27680 -3.27680 -3.27680
18.00 18.017810 0.0 64.70 14.995330 0.0960 0.1020 1.0 5.0 200.0 24.50 500.0 197.0 24.50 5979.307690 889220.666670 152.750 43.0 838817211.673660 0.0 0.0 0.0 0.0 0.0 0.0 0.0 -3.27680 -3.27680 -3.27680 -3.27680 -3.27680 -3.27680
17.99 18.009670 0.0 64.733330 15.004670 0.0960 0.1020 1.0 5.0 200.0 25.666670 500.0 197.0 25.666670 5956.461540 889221.333330 152.833330 43.0 838818467.872270 0.0 0.0 0.0 0.0 0.0 0.0 0.0 -3.27680 -3.27680 -3.27680 -3.27680 -3.27680 -3.27680
17.98 18.001530 0.0 64.766670 15.0140 0.0960 0.1020 1.0 5.0 200.0 26.833330 500.0 197.0 26.833330 5933.615380 889222.0 152.916670 43.0 838819724.070870 0.0 0.0 0.0 0.0 0.0 0.0 0.0 -3.27680 -3.27680 -3.27680 -3.27680 -3.27680 -3.27680
17.97 17.99340 0.0 64.80 15.023330 0.0960 0.1020 1.0 5.0 200.0 28.0 500.0 197.0 28.0 5910.769230 889222.666670 153.0 43.0 838820980.269480 0.0 0.0 0.0 0.0 0.0 0.0 0.0 -3.27680 -3.27680 -3.27680 -3.27680 -3.27680 -3.27680
17.96 17.981190 0.0 64.850 15.032670 0.0960 0.1020 1.0 5.0 200.0 28.0 500.0 197.0 28.0 5887.923080 889223.333330 153.0 43.0 838822236.468090 0.0 0.0 0.0 0.0 0.0 0.0 0.0 -3.27680 -3.27680 -3.27680 -3.27680 -3.27680 -3.27680
17.95 17.968980 0.0 64.90 15.0420 0.0960 0.1020 1.0 5.0 200.0 28.0 500.0 197.0 28.0 5865.076920 889224.0 153.0 43.0 838823492.666690 0.0 0.0 0.0 0.0 0.0 0.0 0.0 -3.27680 -3.27680 -3.27680 -3.27680 -3.27680 -3.27680
17.94 17.960580 0.0 64.933330 15.051330 0.0960 0.1020 1.0 5.0 200.0 28.0 500.0 197.0 28.0 5842.230770 889224.666670 153.0 43.0 838824748.86530 0.0 0.0 0.0 0.0 0.0 0.0 0.0 -3.27680 -3.27680 -3.27680 -3.27680 -3.27680 -3.27680
17.93 17.952180 0.0 64.966670 15.060670 0.0960 0.1020 1.0 5.0 200.0 28.0 500.0 197.0 28.0 5819.384620 889225.333330 153.0 43.0 838826005.063910 0.0 0.0 0.0 0.0 0.0 0.0 0.0 -3.27680 -3.27680 -3.27680 -3.27680 -3.27680 -3.27680
17.92 17.943780 0.0 65.0 15.070 0.0960 0.1020 1.0 5.0 200.0 28.0 500.0 197.0 28.0 5796.538460 889226.0 153.0 43.0 838827261.262510 0.0 0.0 0.0 0.0 0.0 0.0 0.0 -3.27680 -3.27680 -3.27680 -3.27680 -3.27680 -3.27680
17.91 17.931180 0.0 65.050 15.060670 0.0960 0.1020 1.0 5.0 200.0 28.0 500.0 197.0 28.0 5773.692310 889226.666670 153.0 43.0 838828517.461120 0.0 0.0 0.0 0.0 0.0 0.0 0.0 -3.27680 -3.27680 -3.27680 -3.27680 -3.27680 -3.27680
17.90 17.918570 0.0 65.10 15.051330 0.0960 0.1020 1.0 5.0 200.0 28.0 500.0 197.0 28.0 5750.846150 889227.333330 153.0 43.0 838829773.659730 0.0 0.0 0.0 0.0 0.0 0.0 0.0 -3.27680 -3.27680 -3.27680 -3.27680 -3.27680 -3.27680
17.89 17.910440 0.0 65.133330 15.0420 0.0960 0.1020 1.0 5.0 200.0 28.0 500.0 197.0 28.0 5728.0 889228.0 153.0 43.0 838831029.858330 0.0 0.0 0.0 0.0 0.0 0.0 0.0 -3.27680 -3.27680 -3.27680 -3.27680 -3.27680 -3.27680
17.88 17.90230 0.0 65.166670 15.032670 0.0960 0.1020 1.0 5.0 200.0 28.0 500.0 197.0 28.0 5710.083330 889228.923080 153.0 43.0 838832769.229780 0.0 0.0 0.0 0.0 0.0 0.0 0.0 -3.27680 -3.27680 -3.27680 -3.27680 -3.27680 -3.27680
17.87 17.894160 0.0 65.20 15.023330 0.0960 0.1020 1.0 5.0 200.0 28.0 500.0 197.0 28.0 5692.166670 889229.846150 153.0 43.0 838834508.601240 0.0 0.0 0.0 0.0 0.0 0.0 0.0 -3.27680 -3.27680 -3.27680 -3.27680 -3.27680 -3.27680
17.86 17.881560 0.0 65.250 15.0140 0.0960 0.1020 1.0 5.0 200.0 28.0 500.0 197.0 28.0 5674.250 889230.769230 153.0 43.0 838836247.972690 0.0 0.0 0.0 0.0 0.0 0.0 0.0 -3.27680 -3.27680 -3.27680 -3.27680 -3.27680 -3.27680
17.85 17.868960 0.0 65.30 15.004670 0.0960 0.1020 1.0 5.0 200.0 28.0 500.0 197.0 28.0 5656.333330 889231.692310 153.0 43.0 838837987.344140 0.0 0.0 0.0 0.0 0.0 0.0 0.0 -3.27680 -3.27680 -3.27680 -3.27680 -3.27680 -3.27680
17.84 17.860550 0.0 65.333330 14.995330 0.0960 0.1020 1.0 5.0 200.0 28.0 500.0 197.0 28.0 5638.416670 889232.615380 153.0 43.0 838839726.715590 0.0 0.0 0.0 0.0 0.0 0.0 0.0 -3.27680 -3.27680 -3.27680 -3.27680 -3.27680 -3.27680
17.83 17.852150 0.0 65.366670 14.9860 0.0960 0.1020 1.0 5.0 200.0 27.50 500.0 197.0 27.50 5620.50 889233.538460 152.916670 43.0 838841466.087050 0.0 0.0 0.0 0.0 0.0 0.0 0.0 -3.27680 -3.27680 -3.27680 -3.27680 -3.27680 -3.27680
17.82 17.843750 0.0 65.40 14.976670 0.0960 0.1020 1.0 5.0 200.0 27.0 500.0 197.0 27.0 5602.583330 889234.461540 152.833330 43.0 838843205.45850 0.0 0.0 0.0 0.0 0.0 0.0 0.0 -3.27680 -3.27680 -3.27680 -3.27680 -3.27680 -3.27680
17.81 17.831150 0.0 65.450 14.967330 0.0960 0.1020 1.0 5.0 200.0 26.50 500.0 197.0 26.50 5584.666670 889235.384620 152.750 43.0 838844944.829950 0.0 0.0 0.0 0.0 0.0 0.0 0.0 -3.27680 -3.27680 -3.27680 -3.27680 -3.27680 -3.27680
17.80 17.818550 0.0 65.50 14.9580 0.0960 0.1020 1.0 5.0 200.0 26.0 500.0 197.0 26.0 5566.750 889236.307690 152.666670 43.0 838846684.20140 0.0 0.0 0.0 0.0 0.0 0.0 0.0 -3.27680 -3.27680 -3.27680 -3.27680 -3.27680 -3.27680
17.79 17.810410 0.0 65.533330 14.948670 0.0960 0.1020 1.0 5.0 200.0 25.50 500.0 197.0 25.50 5548.833330 889237.230770 152.583330 43.0 838848423.572860 0.0 0.0 0.0 0.0 0.0 0.0 0.0 -3.27680 -3.27680 -3.27680 -3.27680 -3.27680 -3.27680
17.78 17.802270 0.0 65.566670 14.939330 0.0960 0.1020 1.0 5.0 200.0 25.0 500.0 197.0 25.0 5530.916670 889238.153850 152.50 43.0 838850162.944310 0.0 0.0 0.0 0.0 0.0 0.0 0.0 -3.27680 -3.27680 -3.27680 -3.27680 -3.27680 -3.27680
17.77 17.794130 0.0 65.60 14.930 0.0960 0.1020 1.0 5.0 200.0 24.50 500.0 197.0 24.50 5513.0 889239.076920 152.416670 43.0 838851902.315760 0.0 0.0 0.0 0.0 0.0 0.0 0.0 -3.27680 -3.27680 -3.27680 -3.27680 -3.27680 -3.27680
17.76 17.781530 0.0 65.650 14.9360 0.0960 0.1020 1.0 5.0 200.0 24.0 500.0 197.0 24.0 5494.846150 889240.0 152.333330 43.0 838853641.687220 0.0 0.0 0.0 0.0 0.0 0.0 0.0 -3.27680 -3.27680 -3.27680 -3.27680 -3.27680 -3.27680
17.75 17.768930 0.0 65.70 14.9420 0.0960 0.1020 1.0 5.0 200.0 23.50 500.0 197.0 23.50 5476.692310 889240.916670 152.250 43.0 838855369.002010 0.0 0.0 0.0 0.0 0.0 0.0 0.0 -3.27680 -3.27680 -3.27680 -3.27680 -3.27680 -3.27680
17.74 17.760530 0.0 65.733330 14.9480 0.0960 0.1020 1.0 5.0 200.0 23.0 500.0 197.0 23.0 5458.538460 889241.833330 152.166670 43.0 838857096.31680 0.0 0.0 0.0 0.0 0.0 0.0 0.0 -3.27680 -3.27680 -3.27680 -3.27680 -3.27680 -3.27680
17.73 17.752130 0.0 65.766670 14.9540 0.0960 0.1020 1.0 5.0 200.0 22.50 500.0 197.0 22.50 5440.384620 889242.750 152.083330 43.0 838858823.63160 0.0 0.0 0.0 0.0 0.0 0.0 0.0 -3.27680 -3.27680 -3.27680 -3.27680 -3.27680 -3.27680
17.72 17.743730 0.0 65.80 14.960 0.0960 0.1020 1.0 5.0 200.0 22.0 500.0 197.0 22.0 5422.230770 889243.666670 152.0 43.0 838860550.946390 0.0 0.0 0.0 0.0 0.0 0.0 0.0 -3.27680 -3.27680 -3.27680 -3.27680 -3.27680 -3.27680
