~VERSION INFORMATION SECTION
VERS. 2.0 : CWLS LAS-VERSION 2.0
WRAP. NO : One line per depth step
~WELL INFORMATION SECTION
# MNEM.UNIT VALUE/NAME DESCRIPTION
#-------- -------------- ---------------------
STRT.Metres 25 : Start
STOP.Metres -2.12 : Stop
STEP.Metres -0.01 : Step
NULL.  -999.25 :NULL VALUE
DATE. 2026-13-09 : DATE
~CURVE INFORMATION SECTION
DEPTH.Metres : 0 Depth
Depth. : 1 Depth
Tension. : 2 Tension
Time. : 3 Time
Speed. : 4 Speed
Voltage. : 5 Voltage
Current. : 6 Current
WET. : 7 WET
Sig. : 8 Sig
Vth. : 9 Vth
GR.CPS : 10 GR
Timebase.ms : 11 Timebase
HeadVoltage.V : 12 Head Voltage
API.API : 13 API
Conductivity.uS : 14 Conductivity
PT100.Ohms : 15 PT100
Vmon.mV : 16 Vmon
Status. : 17 Status
Temperature.C : 18 Temperature
Incline.Deg : 19 Incline
Azimuth.Deg : 20 Azimuth
RelativeBearing.Deg : 21 Relative Bearing
MagneticToolFace.Deg : 22 Magnetic Tool Face
GravityMagnitude.G : 23 Gravity Magnitude
MagnetometerMagnitude.H : 24 Magnetometer Magnitude
Temperature.C : 25 Temperature
GX. : 26 GX
GY. : 27 GY
GZ. : 28 GZ
HX. : 29 HX
HY. : 30 HY
HZ. : 31 HZ
~PARAMETER INFORMATION SECTION
~OTHER
#-------------------------------------------------
#Produced By: GeoVista Logger - Version 7.1.107.0
Verticality Sonde - 9605
Temperature and Conductivity Sonde - Inline - 8974
Natural Gamma Sonde - 9931
WLIS - 10021
#-------------------------------------------------
~ASCII LOG DATA
# ...
15.34 15.359280 0.0 53.850 15.056670 0.0960 0.1020 1.0 28.692310 200.0 14.0 500.0 196.0 14.0 2295.538460 889431.0 157.0 42.0 839213587.69690 0.0 0.0 0.0 0.0 0.0 0.0 0.0 -3.27680 -3.27680 -3.27680 -3.27680 -3.27680 -3.27680
15.33 15.347080 0.0 53.90 15.053330 0.0960 0.1020 1.0 28.769230 200.0 14.0 500.0 196.0 14.0 2291.461540 889432.0 157.0 42.0 839215472.435020 0.0 0.0 0.0 0.0 0.0 0.0 0.0 -3.27680 -3.27680 -3.27680 -3.27680 -3.27680 -3.27680
15.32 15.338680 0.0 53.933330 15.050 0.0960 0.1020 1.0 28.846150 200.0 14.0 500.0 196.0 14.0 2287.384620 889433.0 157.0 42.0 839217357.173140 0.0 0.0 0.0 0.0 0.0 0.0 0.0 -3.27680 -3.27680 -3.27680 -3.27680 -3.27680 -3.27680
15.31 15.330270 0.0 53.966670 15.046670 0.0960 0.1020 1.0 28.923080 200.0 14.0 500.0 196.0 14.0 2283.307690 889434.0 157.0 42.0 839219241.911260 0.0 0.0 0.0 0.0 0.0 0.0 0.0 -3.27680 -3.27680 -3.27680 -3.27680 -3.27680 -3.27680
15.30 15.321870 0.0 54.0 15.043330 0.0960 0.1020 1.0 29.0 200.0 14.0 500.0 196.0 14.0 2279.230770 889435.0 157.0 42.0 839221126.649380 0.0 0.0 0.0 0.0 0.0 0.0 0.0 -3.27680 -3.27680 -3.27680 -3.27680 -3.27680 -3.27680
15.29 15.309270 0.0 54.050 15.040 0.0960 0.1020 1.0 29.166670 200.0 14.0 500.0 196.0 14.0 2275.153850 889436.0 157.0 42.0 839223011.38750 0.0 0.0 0.0 0.0 0.0 0.0 0.0 -3.27680 -3.27680 -3.27680 -3.27680 -3.27680 -3.27680
15.28 15.296670 0.0 54.10 15.036670 0.0960 0.1020 1.0 29.333330 200.0 14.0 500.0 196.0 14.0 2271.076920 889437.0 157.0 42.0 839224896.125620 0.0 0.0 0.0 0.0 0.0 0.0 0.0 -3.27680 -3.27680 -3.27680 -3.27680 -3.27680 -3.27680
15.27 15.288530 0.0 54.133330 15.033330 0.0960 0.1020 1.0 29.50 200.0 14.0 500.0 196.0 14.0 2267.0 889438.0 157.0 42.0 839226780.863740 0.0 0.0 0.0 0.0 0.0 0.0 0.0 -3.27680 -3.27680 -3.27680 -3.27680 -3.27680 -3.27680
15.26 15.280390 0.0 54.166670 15.030 0.0960 0.1020 1.0 29.666670 200.0 14.0 500.0 196.0 14.0 2265.750 889439.0 157.0 42.0 839228665.628320 0.0 0.0 0.0 0.0 0.0 0.0 0.0 -3.27680 -3.27680 -3.27680 -3.27680 -3.27680 -3.27680
15.25 15.272250 0.0 54.20 15.026670 0.0960 0.1020 1.0 29.833330 200.0 14.0 500.0 196.0 14.0 2264.50 889440.0 157.0 42.0 839230550.39290 0.0 0.0 0.0 0.0 0.0 0.0 0.0 -3.27680 -3.27680 -3.27680 -3.27680 -3.27680 -3.27680
15.24 15.259650 0.0 54.250 15.023330 0.0960 0.1020 1.0 30.0 200.0 14.0 500.0 196.0 14.0 2263.250 889441.0 157.0 42.0 839232435.157470 0.0 0.0 0.0 0.0 0.0 0.0 0.0 -3.27680 -3.27680 -3.27680 -3.27680 -3.27680 -3.27680
15.23 15.247050 0.0 54.30 15.020 0.0960 0.1020 1.0 30.166670 200.0 14.0 500.0 196.0 14.0 2262.0 889442.0 157.0 42.0 839234319.922050 0.0 0.0 0.0 0.0 0.0 0.0 0.0 -3.27680 -3.27680 -3.27680 -3.27680 -3.27680 -3.27680
15.22 15.238650 0.0 54.333330 15.0140 0.0960 0.1020 1.0 30.333330 200.0 14.0 500.0 196.0 14.0 2260.750 889443.0 157.0 42.0 839236204.686620 0.0 0.0 0.0 0.0 0.0 0.0 0.0 -3.27680 -3.27680 -3.27680 -3.27680 -3.27680 -3.27680
15.21 15.230250 0.0 54.366670 15.0080 0.0960 0.1020 1.0 30.50 200.0 13.833330 500.0 196.0 13.833330 2259.50 889444.0 157.0 42.0 839238089.45120 0.0 0.0 0.0 0.0 0.0 0.0 0.0 -3.27680 -3.27680 -3.27680 -3.27680 -3.27680 -3.27680
15.20 15.221850 0.0 54.40 15.0020 0.0960 0.1020 1.0 30.666670 200.0 13.666670 500.0 196.0 13.666670 2258.250 889445.0 157.0 42.0 839239974.215770 0.0 0.0 0.0 0.0 0.0 0.0 0.0 -3.27680 -3.27680 -3.27680 -3.27680 -3.27680 -3.27680
15.19 15.209640 0.0 54.450 14.9960 0.0960 0.1020 1.0 30.833330 200.0 13.50 500.0 196.0 13.50 2257.0 889446.0 157.0 42.0 839241858.980350 0.0 0.0 0.0 0.0 0.0 0.0 0.0 -3.27680 -3.27680 -3.27680 -3.27680 -3.27680 -3.27680
15.18 15.197430 0.0 54.50 14.990 0.0960 0.1020 1.0 31.0 200.0 13.333330 500.0 196.0 13.333330 2255.750 889447.0 157.0 42.0 839243743.744930 0.0 0.0 0.0 0.0 0.0 0.0 0.0 -3.27680 -3.27680 -3.27680 -3.27680 -3.27680 -3.27680
15.17 15.189030 0.0 54.533330 14.9840 0.0960 0.1020 1.0 31.076920 200.0 13.166670 500.0 196.0 13.166670 2254.50 889448.0 157.0 42.0 839245628.50950 0.0 0.0 0.0 0.0 0.0 0.0 0.0 -3.27680 -3.27680 -3.27680 -3.27680 -3.27680 -3.27680
15.16 15.180630 0.0 54.566670 14.9780 0.0960 0.1020 1.0 31.153850 200.0 13.0 500.0 196.0 13.0 2253.250 889449.0 157.0 42.0 839247513.274080 0.0 0.0 0.0 0.0 0.0 0.0 0.0 -3.27680 -3.27680 -3.27680 -3.27680 -3.27680 -3.27680
15.15 15.172230 0.0 54.60 14.9720 0.0960 0.1020 1.0 31.230770 200.0 12.833330 500.0 196.0 12.833330 2252.0 889450.0 157.0 42.0 839249398.038650 0.0 0.0 0.0 0.0 0.0 0.0 0.0 -3.27680 -3.27680 -3.27680 -3.27680 -3.27680 -3.27680
15.14 15.159630 0.0 54.650 14.9660 0.0960 0.1020 1.0 31.307690 200.0 12.666670 500.0 196.0 12.666670 2249.538460 889451.0 157.0 42.0 839251282.803230 0.0 0.0 0.0 0.0 0.0 0.0 0.0 -3.27680 -3.27680 -3.27680 -3.27680 -3.27680 -3.27680
15.13 15.147030 0.0 54.70 14.960 0.0960 0.1020 1.0 31.384620 200.0 12.50 500.0 196.083330 12.50 2247.076920 889452.333330 157.0 42.0 839253795.863580 0.0 0.0 0.0 0.0 0.0 0.0 0.0 -3.27680 -3.27680 -3.27680 -3.27680 -3.27680 -3.27680
15.12 15.138890 0.0 54.733330 14.9540 0.0960 0.1020 1.0 31.461540 200.0 12.333330 500.0 196.166670 12.333330 2244.615380 889453.666670 157.0 42.0 839256308.923930 0.0 0.0 0.0 0.0 0.0 0.0 0.0 -3.27680 -3.27680 -3.27680 -3.27680 -3.27680 -3.27680
15.11 15.130750 0.0 54.766670 14.9480 0.0960 0.1020 1.0 31.538460 200.0 12.166670 500.0 196.250 12.166670 2242.153850 889455.0 157.0 42.0 839258821.984280 0.0 0.0 0.0 0.0 0.0 0.0 0.0 -3.27680 -3.27680 -3.27680 -3.27680 -3.27680 -3.27680
15.10 15.122610 0.0 54.80 14.9420 0.0960 0.1020 1.0 31.615380 200.0 12.0 500.0 196.333330 12.0 2239.692310 889456.333330 157.0 42.0 839261335.044630 0.0 0.0 0.0 0.0 0.0 0.0 0.0 -3.27680 -3.27680 -3.27680 -3.27680 -3.27680 -3.27680
15.09 15.110010 0.0 54.850 14.9360 0.0960 0.1020 1.0 31.692310 200.0 12.307690 500.0 196.416670 12.307690 2237.230770 889457.666670 157.0 42.0 839263848.104990 0.0 0.0 0.0 0.0 0.0 0.0 0.0 -3.27680 -3.27680 -3.27680 -3.27680 -3.27680 -3.27680
15.08 15.097410 0.0 54.90 14.930 0.0960 0.1020 1.0 31.769230 200.0 12.615380 500.0 196.50 12.615380 2234.769230 889459.0 157.0 42.0 839266361.165340 0.0 0.0 0.0 0.0 0.0 0.0 0.0 -3.27680 -3.27680 -3.27680 -3.27680 -3.27680 -3.27680
15.07 15.088750 0.0 54.933330 14.9360 0.0960 0.1020 1.0 31.846150 200.0 12.923080 500.0 196.583330 12.923080 2232.307690 889460.333330 157.0 42.0 839268874.225690 0.0 0.0 0.0 0.0 0.0 0.0 0.0 -3.27680 -3.27680 -3.27680 -3.27680 -3.27680 -3.27680
15.06 15.080080 0.0 54.966670 14.9420 0.0960 0.1020 1.0 31.923080 200.0 13.230770 500.0 196.666670 13.230770 2229.846150 889461.666670 157.0 42.0 839271387.286040 0.0 0.0 0.0 0.0 0.0 0.0 0.0 -3.27680 -3.27680 -3.27680 -3.27680 -3.27680 -3.27680
15.05 15.071420 0.0 55.0 14.9480 0.0960 0.1020 1.0 32.0 200.0 13.538460 500.0 196.750 13.538460 2227.384620 889463.0 157.0 42.0 839273900.346390 0.0 0.0 0.0 0.0 0.0 0.0 0.0 -3.27680 -3.27680 -3.27680 -3.27680 -3.27680 -3.27680
15.04 15.059210 0.0 55.050 14.9540 0.0960 0.1020 1.0 32.083330 200.0 13.846150 500.0 196.833330 13.846150 2224.923080 889464.333330 157.0 42.0 839276413.406740 0.0 0.0 0.0 0.0 0.0 0.0 0.0 -3.27680 -3.27680 -3.27680 -3.27680 -3.27680 -3.27680
15.03 15.0470 0.0 55.10 14.960 0.0960 0.1020 1.0 32.166670 200.0 14.153850 500.0 196.916670 14.153850 2222.461540 889465.666670 157.0 42.0 839278926.467090 0.0 0.0 0.0 0.0 0.0 0.0 0.0 -3.27680 -3.27680 -3.27680 -3.27680 -3.27680 -3.27680
15.02 15.03860 0.0 55.133330 14.9660 0.0960 0.1020 1.0 32.250 200.0 14.461540 500.0 197.0 14.461540 2220.0 889467.0 157.0 42.0 839281439.527450 0.0 0.0 0.0 0.0 0.0 0.0 0.0 -3.27680 -3.27680 -3.27680 -3.27680 -3.27680 -3.27680
15.01 15.03020 0.0 55.166670 14.9720 0.0960 0.1020 1.0 32.333330 200.0 14.769230 500.0 197.0 14.769230 2219.250 889468.0 157.0 42.0 839283324.35340 0.0 0.0 0.0 0.0 0.0 0.0 0.0 -3.27680 -3.27680 -3.27680 -3.27680 -3.27680 -3.27680
15.00 15.02180 0.0 55.20 14.9780 0.0960 0.1020 1.0 32.416670 200.0 15.076920 500.0 197.0 15.076920 2218.50 889469.0 157.0 42.0 839285209.179350 0.0 0.0 0.0 0.0 0.0 0.0 0.0 -3.27680 -3.27680 -3.27680 -3.27680 -3.27680 -3.27680
14.99 15.00920 0.0 55.250 14.9840 0.0960 0.1020 1.0 32.50 200.0 15.384620 500.0 197.0 15.384620 2217.750 889470.0 157.0 42.0 839287094.00530 0.0 0.0 0.0 0.0 0.0 0.0 0.0 -3.27680 -3.27680 -3.27680 -3.27680 -3.27680 -3.27680
