~VERSION INFORMATION SECTION
VERS. 2.0 : CWLS LAS-VERSION 2.0
WRAP. NO : One line per depth step
~WELL INFORMATION SECTION
# MNEM.UNIT VALUE/NAME DESCRIPTION
#-------- -------------- ---------------------
STRT.Metres 23 : Start
STOP.Metres -2.05 : Stop
STEP.Metres -0.01 : Step
NULL.  -999.25 :NULL VALUE
DATE. 2026-45-09 : DATE
~CURVE INFORMATION SECTION
DEPTH.Metres : 0 Depth
Depth. : 1 Depth
Tension. : 2 Tension
Time. : 3 Time
Speed. : 4 Speed
Voltage. : 5 Voltage
Current. : 6 Current
WET. : 7 WET
Sig. : 8 Sig
Vth. : 9 Vth
GR.CPS : 10 GR
Timebase.ms : 11 Timebase
HeadVoltage.V : 12 Head Voltage
API.API : 13 API
Conductivity.uS : 14 Conductivity
PT100.Ohms : 15 PT100
Vmon.mV : 16 Vmon
Status. : 17 Status
Temperature.C : 18 Temperature
Incline.Deg : 19 Incline
Azimuth.Deg : 20 Azimuth
RelativeBearing.Deg : 21 Relative Bearing
MagneticToolFace.Deg : 22 Magnetic Tool Face
GravityMagnitude.G : 23 Gravity Magnitude
MagnetometerMagnitude.H : 24 Magnetometer Magnitude
Temperature.C : 25 Temperature
GX. : 26 GX
GY. : 27 GY
GZ. : 28 GZ
HX. : 29 HX
HY. : 30 HY
HZ. : 31 HZ
~PARAMETER INFORMATION SECTION
~OTHER
#-------------------------------------------------
#Produced By: GeoVista Logger - Version 7.1.107.0
Verticality Sonde - 9605
Temperature and Conductivity Sonde - Inline - 8974
Natural Gamma Sonde - 9931
WLIS - 10021
#-------------------------------------------------
~ASCII LOG DATA
# ...
10.11 10.125320 0.0 61.70 15.0080 0.0960 0.1020 1.0 41.0 200.0 4.461540 500.0 197.0 4.461540 2040.615380 889945.384620 155.0 42.0 840183346.985180 0.0 0.0 0.0 0.0 0.0 0.0 0.0 -3.27680 -3.27680 -3.27680 -3.27680 -3.27680 -3.27680
10.10 10.116920 0.0 61.733330 15.0020 0.0960 0.1020 1.0 41.0 200.0 4.0 500.0 197.0 4.0 2040.769230 889947.230770 155.0 42.0 840186828.525640 0.0 0.0 0.0 0.0 0.0 0.0 0.0 -3.27680 -3.27680 -3.27680 -3.27680 -3.27680 -3.27680
10.09 10.108520 0.0 61.766670 14.9960 0.0960 0.1020 1.0 41.0 200.0 4.666670 500.0 197.0 4.666670 2040.923080 889949.076920 155.083330 42.0 840190310.066110 0.0 0.0 0.0 0.0 0.0 0.0 0.0 -3.27680 -3.27680 -3.27680 -3.27680 -3.27680 -3.27680
10.08 10.100120 0.0 61.80 14.990 0.0960 0.1020 1.0 41.0 200.0 5.333330 500.0 197.0 5.333330 2041.076920 889950.923080 155.166670 42.0 840193791.606570 0.0 0.0 0.0 0.0 0.0 0.0 0.0 -3.27680 -3.27680 -3.27680 -3.27680 -3.27680 -3.27680
10.07 10.091720 0.0 61.833330 14.9840 0.0960 0.1020 1.0 41.0 200.0 6.0 500.0 197.0 6.0 2041.230770 889952.769230 155.250 42.0 840197273.147030 0.0 0.0 0.0 0.0 0.0 0.0 0.0 -3.27680 -3.27680 -3.27680 -3.27680 -3.27680 -3.27680
10.06 10.083320 0.0 61.866670 14.9780 0.0960 0.1020 1.0 41.0 200.0 6.666670 500.0 197.0 6.666670 2041.384620 889954.615380 155.333330 42.0 840200754.687490 0.0 0.0 0.0 0.0 0.0 0.0 0.0 -3.27680 -3.27680 -3.27680 -3.27680 -3.27680 -3.27680
10.05 10.074920 0.0 61.90 14.9720 0.0960 0.1020 1.0 40.923080 200.0 7.333330 500.0 197.0 7.333330 2041.538460 889956.461540 155.416670 42.0 840204236.227950 0.0 0.0 0.0 0.0 0.0 0.0 0.0 -3.27680 -3.27680 -3.27680 -3.27680 -3.27680 -3.27680
10.04 10.062310 0.0 61.950 14.9660 0.0960 0.1020 1.0 40.846150 200.0 8.0 500.0 197.0 8.0 2041.692310 889958.307690 155.50 42.0 840207717.768410 0.0 0.0 0.0 0.0 0.0 0.0 0.0 -3.27680 -3.27680 -3.27680 -3.27680 -3.27680 -3.27680
10.03 10.049710 0.0 62.0 14.960 0.0960 0.1020 1.0 40.769230 200.0 8.666670 500.0 197.0 8.666670 2041.846150 889960.153850 155.583330 42.0 840211199.308870 0.0 0.0 0.0 0.0 0.0 0.0 0.0 -3.27680 -3.27680 -3.27680 -3.27680 -3.27680 -3.27680
10.02 10.03750 0.0 62.050 14.9540 0.0960 0.1020 1.0 40.692310 200.0 9.333330 500.0 197.0 9.333330 2042.0 889962.0 155.666670 42.0 840214680.849330 0.0 0.0 0.0 0.0 0.0 0.0 0.0 -3.27680 -3.27680 -3.27680 -3.27680 -3.27680 -3.27680
10.01 10.02530 0.0 62.10 14.9480 0.0960 0.1020 1.0 40.615380 200.0 10.0 500.0 197.0 10.0 2040.416670 889963.846150 155.750 42.0 840218162.483560 0.0 0.0 0.0 0.0 0.0 0.0 0.0 -3.27680 -3.27680 -3.27680 -3.27680 -3.27680 -3.27680
10.00 10.01690 0.0 62.133330 14.9420 0.0960 0.1020 1.0 40.538460 200.0 10.666670 500.0 197.0 10.666670 2038.833330 889965.692310 155.833330 42.0 840221644.117790 0.0 0.0 0.0 0.0 0.0 0.0 0.0 -3.27680 -3.27680 -3.27680 -3.27680 -3.27680 -3.27680
9.99 10.008490 0.0 62.166670 14.9360 0.0960 0.1020 1.0 40.461540 200.0 11.333330 500.0 197.0 11.333330 2037.250 889967.538460 155.916670 42.0 840225125.752030 0.0 0.0 0.0 0.0 0.0 0.0 0.0 -3.27680 -3.27680 -3.27680 -3.27680 -3.27680 -3.27680
9.98 10.000090 0.0 62.20 14.930 0.0960 0.1020 1.0 40.384620 200.0 12.0 500.0 197.0 12.0 2035.666670 889969.384620 156.0 42.0 840228607.386260 0.0 0.0 0.0 0.0 0.0 0.0 0.0 -3.27680 -3.27680 -3.27680 -3.27680 -3.27680 -3.27680
9.97 9.987890 0.0 62.250 14.932670 0.0960 0.1020 1.0 40.307690 200.0 12.0 500.0 197.0 12.0 2034.083330 889971.230770 155.923080 42.0 840232089.020490 0.0 0.0 0.0 0.0 0.0 0.0 0.0 -3.27680 -3.27680 -3.27680 -3.27680 -3.27680 -3.27680
9.96 9.975680 0.0 62.30 14.935330 0.0960 0.1020 1.0 40.230770 200.0 12.0 500.0 197.0 12.0 2032.50 889973.076920 155.846150 42.0 840235570.654730 0.0 0.0 0.0 0.0 0.0 0.0 0.0 -3.27680 -3.27680 -3.27680 -3.27680 -3.27680 -3.27680
9.95 9.967280 0.0 62.333330 14.9380 0.0960 0.1020 1.0 40.153850 200.0 12.0 500.0 197.0 12.0 2030.916670 889974.923080 155.769230 42.0 840239052.288960 0.0 0.0 0.0 0.0 0.0 0.0 0.0 -3.27680 -3.27680 -3.27680 -3.27680 -3.27680 -3.27680
9.94 9.958880 0.0 62.366670 14.940670 0.0960 0.1020 1.0 40.076920 200.0 12.0 500.0 197.0 12.0 2029.333330 889976.769230 155.692310 42.0 840242533.923190 0.0 0.0 0.0 0.0 0.0 0.0 0.0 -3.27680 -3.27680 -3.27680 -3.27680 -3.27680 -3.27680
9.93 9.950480 0.0 62.40 14.943330 0.0960 0.1020 1.0 40.0 200.0 12.0 500.0 197.0 12.0 2027.750 889978.615380 155.615380 42.0 840246015.557430 0.0 0.0 0.0 0.0 0.0 0.0 0.0 -3.27680 -3.27680 -3.27680 -3.27680 -3.27680 -3.27680
9.92 9.937870 0.0 62.450 14.9460 0.0960 0.1020 1.0 40.083330 200.0 12.0 500.0 197.0 12.0 2026.166670 889980.461540 155.538460 42.0 840249497.191660 0.0 0.0 0.0 0.0 0.0 0.0 0.0 -3.27680 -3.27680 -3.27680 -3.27680 -3.27680 -3.27680
9.91 9.925270 0.0 62.50 14.948670 0.0960 0.1020 1.0 40.166670 200.0 12.0 500.0 197.0 12.0 2024.583330 889982.307690 155.461540 42.0 840252978.825890 0.0 0.0 0.0 0.0 0.0 0.0 0.0 -3.27680 -3.27680 -3.27680 -3.27680 -3.27680 -3.27680
9.90 9.916870 0.0 62.533330 14.951330 0.0960 0.1020 1.0 40.250 200.0 12.0 500.0 197.0 12.0 2023.0 889984.153850 155.384620 42.0 840256460.460120 0.0 0.0 0.0 0.0 0.0 0.0 0.0 -3.27680 -3.27680 -3.27680 -3.27680 -3.27680 -3.27680
9.89 9.908470 0.0 62.566670 14.9540 0.0960 0.1020 1.0 40.333330 200.0 12.0 500.0 197.0 12.0 2024.0 889986.0 155.307690 42.0 840259942.094360 0.0 0.0 0.0 0.0 0.0 0.0 0.0 -3.27680 -3.27680 -3.27680 -3.27680 -3.27680 -3.27680
9.88 9.900070 0.0 62.60 14.956670 0.0960 0.1020 1.0 40.416670 200.0 12.0 500.0 197.0 12.0 2025.0 889987.750 155.230770 42.0 840263242.476810 0.0 0.0 0.0 0.0 0.0 0.0 0.0 -3.27680 -3.27680 -3.27680 -3.27680 -3.27680 -3.27680
9.87 9.891670 0.0 62.633330 14.959330 0.0960 0.1020 1.0 40.50 200.0 12.0 500.0 197.0 12.0 2026.0 889989.50 155.153850 42.0 840266542.859260 0.0 0.0 0.0 0.0 0.0 0.0 0.0 -3.27680 -3.27680 -3.27680 -3.27680 -3.27680 -3.27680
9.86 9.883270 0.0 62.666670 14.9620 0.0960 0.1020 1.0 40.583330 200.0 12.0 500.0 197.0 12.0 2027.0 889991.250 155.076920 42.0 840269843.241710 0.0 0.0 0.0 0.0 0.0 0.0 0.0 -3.27680 -3.27680 -3.27680 -3.27680 -3.27680 -3.27680
9.85 9.874870 0.0 62.70 14.964670 0.0960 0.1020 1.0 40.666670 200.0 12.0 500.0 197.0 12.0 2028.0 889993.0 155.0 42.0 840273143.624160 0.0 0.0 0.0 0.0 0.0 0.0 0.0 -3.27680 -3.27680 -3.27680 -3.27680 -3.27680 -3.27680
9.84 9.862260 0.0 62.750 14.967330 0.0960 0.1020 1.0 40.750 200.0 12.0 500.0 197.0 12.0 2029.0 889994.750 155.083330 42.0 840276444.006610 0.0 0.0 0.0 0.0 0.0 0.0 0.0 -3.27680 -3.27680 -3.27680 -3.27680 -3.27680 -3.27680
9.83 9.849660 0.0 62.80 14.970 0.0960 0.1020 1.0 40.833330 200.0 12.0 500.0 197.0 12.0 2030.0 889996.50 155.166670 42.0 840279744.389060 0.0 0.0 0.0 0.0 0.0 0.0 0.0 -3.27680 -3.27680 -3.27680 -3.27680 -3.27680 -3.27680
9.82 9.841260 0.0 62.833330 14.980 0.0960 0.1020 1.0 40.916670 200.0 12.0 500.0 197.0 12.0 2031.0 889998.250 155.250 42.0 840283044.771510 0.0 0.0 0.0 0.0 0.0 0.0 0.0 -3.27680 -3.27680 -3.27680 -3.27680 -3.27680 -3.27680
9.81 9.832860 0.0 62.866670 14.990 0.0960 0.1020 1.0 41.0 200.0 12.0 500.0 197.0 12.0 2032.0 890000.0 155.333330 42.0 840286345.153960 0.0 0.0 0.0 0.0 0.0 0.0 0.0 -3.27680 -3.27680 -3.27680 -3.27680 -3.27680 -3.27680
9.80 9.824460 0.0 62.90 15.0 0.0960 0.1020 1.0 41.0 200.0 12.0 500.0 197.0 12.0 2033.0 890001.750 155.416670 42.0 840289645.536410 0.0 0.0 0.0 0.0 0.0 0.0 0.0 -3.27680 -3.27680 -3.27680 -3.27680 -3.27680 -3.27680
9.79 9.811860 0.0 62.950 15.010 0.0960 0.1020 1.0 41.0 200.0 12.0 500.0 197.0 12.0 2034.0 890003.50 155.50 42.0 840292945.918860 0.0 0.0 0.0 0.0 0.0 0.0 0.0 -3.27680 -3.27680 -3.27680 -3.27680 -3.27680 -3.27680
9.78 9.799260 0.0 63.0 15.020 0.0960 0.1020 1.0 41.0 200.0 12.0 500.0 197.0 12.0 2035.0 890005.250 155.583330 42.0 840296246.301310 0.0 0.0 0.0 0.0 0.0 0.0 0.0 -3.27680 -3.27680 -3.27680 -3.27680 -3.27680 -3.27680
9.77 9.791120 0.0 63.033330 15.030 0.0960 0.1020 1.0 41.0 200.0 12.0 500.0 197.0 12.0 2032.0 890007.0 155.666670 42.0 840299546.683760 0.0 0.0 0.0 0.0 0.0 0.0 0.0 -3.27680 -3.27680 -3.27680 -3.27680 -3.27680 -3.27680
9.76 9.782980 0.0 63.066670 15.040 0.0960 0.1020 1.0 41.0 200.0 12.0 500.0 197.0 12.0 2029.0 890008.583330 155.750 42.0 840302532.811090 0.0 0.0 0.0 0.0 0.0 0.0 0.0 -3.27680 -3.27680 -3.27680 -3.27680 -3.27680 -3.27680
