~VERSION INFORMATION SECTION
VERS. 2.0 : CWLS LAS-VERSION 2.0
WRAP. NO : One line per depth step
~WELL INFORMATION SECTION
# MNEM.UNIT VALUE/NAME DESCRIPTION
#-------- -------------- ---------------------
STRT.Metres 26 : Start
STOP.Metres -2.05 : Stop
STEP.Metres -0.01 : Step
NULL.  -999.25 :NULL VALUE
DATE. 2026-29-09 : DATE
~CURVE INFORMATION SECTION
DEPTH.Metres : 0 Depth
Depth. : 1 Depth
Tension. : 2 Tension
Time. : 3 Time
Speed. : 4 Speed
Voltage. : 5 Voltage
Current. : 6 Current
WET. : 7 WET
Sig. : 8 Sig
Vth. : 9 Vth
GR.CPS : 10 GR
Timebase.ms : 11 Timebase
HeadVoltage.V : 12 Head Voltage
API.API : 13 API
Conductivity.uS : 14 Conductivity
PT100.Ohms : 15 PT100
Vmon.mV : 16 Vmon
Status. : 17 Status
Temperature.C : 18 Temperature
Incline.Deg : 19 Incline
Azimuth.Deg : 20 Azimuth
RelativeBearing.Deg : 21 Relative Bearing
MagneticToolFace.Deg : 22 Magnetic Tool Face
GravityMagnitude.G : 23 Gravity Magnitude
MagnetometerMagnitude.H : 24 Magnetometer Magnitude
Temperature.C : 25 Temperature
GX. : 26 GX
GY. : 27 GY
GZ. : 28 GZ
HX. : 29 HX
HY. : 30 HY
HZ. : 31 HZ
~PARAMETER INFORMATION SECTION
~OTHER
#-------------------------------------------------
#Produced By: GeoVista Logger - Version 7.1.107.0
Verticality Sonde - 9605
Temperature and Conductivity Sonde - Inline - 8974
Natural Gamma Sonde - 9931
WLIS - 10021
#-------------------------------------------------
~ASCII LOG DATA
# ...
5.80 5.819280 0.0 179.566670 14.993330 0.0960 0.1020 1.0 41.0 200.0 31.333330 500.0 197.0 31.333330 1810.0 890618.923080 160.083330 43.0 841454002.403390 0.0 0.0 0.0 0.0 0.0 0.0 0.0 -3.27680 -3.27680 -3.27680 -3.27680 -3.27680 -3.27680
5.79 5.810880 0.0 179.60 14.996670 0.0960 0.1020 1.0 41.0 200.0 30.666670 500.0 197.0 30.666670 1811.166670 890620.076920 160.166670 43.0 841456180.001090 0.0 0.0 0.0 0.0 0.0 0.0 0.0 -3.27680 -3.27680 -3.27680 -3.27680 -3.27680 -3.27680
5.78 5.798670 0.0 179.650 15.0 0.0960 0.1020 1.0 41.0 200.0 30.0 500.0 197.0 30.0 1812.333330 890621.230770 160.250 43.0 841458357.59880 0.0 0.0 0.0 0.0 0.0 0.0 0.0 -3.27680 -3.27680 -3.27680 -3.27680 -3.27680 -3.27680
5.77 5.786460 0.0 179.70 15.003330 0.0960 0.1020 1.0 41.0 200.0 29.333330 500.0 197.0 29.333330 1813.50 890622.384620 160.333330 43.0 841460535.196510 0.0 0.0 0.0 0.0 0.0 0.0 0.0 -3.27680 -3.27680 -3.27680 -3.27680 -3.27680 -3.27680
5.76 5.778060 0.0 179.733330 15.006670 0.0960 0.1020 1.0 41.0 200.0 28.666670 500.0 197.0 28.666670 1814.666670 890623.538460 160.416670 43.0 841462712.794210 0.0 0.0 0.0 0.0 0.0 0.0 0.0 -3.27680 -3.27680 -3.27680 -3.27680 -3.27680 -3.27680
5.75 5.769660 0.0 179.766670 15.010 0.0960 0.1020 1.0 41.0 200.0 28.0 500.0 197.0 28.0 1815.833330 890624.692310 160.50 43.0 841464890.391920 0.0 0.0 0.0 0.0 0.0 0.0 0.0 -3.27680 -3.27680 -3.27680 -3.27680 -3.27680 -3.27680
5.74 5.761260 0.0 179.80 15.013330 0.0960 0.1020 1.0 41.0 200.0 27.333330 500.0 197.0 27.333330 1817.0 890625.846150 160.583330 43.0 841467067.989630 0.0 0.0 0.0 0.0 0.0 0.0 0.0 -3.27680 -3.27680 -3.27680 -3.27680 -3.27680 -3.27680
5.73 5.748660 0.0 179.850 15.016670 0.0960 0.1020 1.0 41.0 200.0 26.666670 500.0 197.0 26.666670 1814.538460 890627.0 160.666670 43.0 841469245.587330 0.0 0.0 0.0 0.0 0.0 0.0 0.0 -3.27680 -3.27680 -3.27680 -3.27680 -3.27680 -3.27680
5.72 5.736050 0.0 179.90 15.020 0.0960 0.1020 1.0 41.0 200.0 26.0 500.0 197.0 26.0 1812.076920 890628.083330 160.750 43.0 841471290.141720 0.0 0.0 0.0 0.0 0.0 0.0 0.0 -3.27680 -3.27680 -3.27680 -3.27680 -3.27680 -3.27680
5.71 5.727650 0.0 179.933330 15.016670 0.0960 0.1020 1.0 41.0 200.0 25.333330 500.0 197.0 25.333330 1809.615380 890629.166670 160.833330 43.0 841473334.696110 0.0 0.0 0.0 0.0 0.0 0.0 0.0 -3.27680 -3.27680 -3.27680 -3.27680 -3.27680 -3.27680
5.70 5.719250 0.0 179.966670 15.013330 0.0960 0.1020 1.0 41.0 200.0 24.666670 500.0 197.0 24.666670 1807.153850 890630.250 160.916670 43.0 841475379.25050 0.0 0.0 0.0 0.0 0.0 0.0 0.0 -3.27680 -3.27680 -3.27680 -3.27680 -3.27680 -3.27680
5.69 5.710850 0.0 180.0 15.010 0.0960 0.1020 1.0 41.0 200.0 24.0 500.0 197.0 24.0 1804.692310 890631.333330 161.0 43.0 841477423.804890 0.0 0.0 0.0 0.0 0.0 0.0 0.0 -3.27680 -3.27680 -3.27680 -3.27680 -3.27680 -3.27680
5.68 5.698250 0.0 180.050 15.006670 0.0960 0.1020 1.0 41.0 200.0 25.384620 500.0 197.0 25.384620 1802.230770 890632.416670 161.0 43.0 841479468.359280 0.0 0.0 0.0 0.0 0.0 0.0 0.0 -3.27680 -3.27680 -3.27680 -3.27680 -3.27680 -3.27680
5.67 5.685650 0.0 180.10 15.003330 0.0960 0.1020 1.0 41.0 200.0 26.769230 500.0 197.0 26.769230 1799.769230 890633.50 161.0 43.0 841481512.913670 0.0 0.0 0.0 0.0 0.0 0.0 0.0 -3.27680 -3.27680 -3.27680 -3.27680 -3.27680 -3.27680
5.66 5.677250 0.0 180.133330 15.0 0.0960 0.1020 1.0 41.0 200.0 28.153850 500.0 197.0 28.153850 1797.307690 890634.583330 161.0 43.0 841483557.468060 0.0 0.0 0.0 0.0 0.0 0.0 0.0 -3.27680 -3.27680 -3.27680 -3.27680 -3.27680 -3.27680
5.65 5.668850 0.0 180.166670 14.996670 0.0960 0.1020 1.0 41.0 200.0 29.538460 500.0 197.0 29.538460 1794.846150 890635.666670 161.0 43.0 841485602.022450 0.0 0.0 0.0 0.0 0.0 0.0 0.0 -3.27680 -3.27680 -3.27680 -3.27680 -3.27680 -3.27680
5.64 5.660450 0.0 180.20 14.993330 0.0960 0.1020 1.0 41.0 200.0 30.923080 500.0 197.0 30.923080 1792.384620 890636.750 161.0 43.0 841487646.576840 0.0 0.0 0.0 0.0 0.0 0.0 0.0 -3.27680 -3.27680 -3.27680 -3.27680 -3.27680 -3.27680
5.63 5.647840 0.0 180.250 14.990 0.0960 0.1020 1.0 40.916670 200.0 32.307690 500.0 197.0 32.307690 1789.923080 890637.833330 161.0 43.0 841489691.131230 0.0 0.0 0.0 0.0 0.0 0.0 0.0 -3.27680 -3.27680 -3.27680 -3.27680 -3.27680 -3.27680
5.62 5.635240 0.0 180.30 14.986670 0.0960 0.1020 1.0 40.833330 200.0 33.692310 500.0 197.0 33.692310 1787.461540 890638.916670 161.0 43.0 841491735.685620 0.0 0.0 0.0 0.0 0.0 0.0 0.0 -3.27680 -3.27680 -3.27680 -3.27680 -3.27680 -3.27680
5.61 5.62710 0.0 180.333330 14.983330 0.0960 0.1020 1.0 40.750 200.0 35.076920 500.0 197.0 35.076920 1785.0 890640.0 161.0 43.0 841493780.240010 0.0 0.0 0.0 0.0 0.0 0.0 0.0 -3.27680 -3.27680 -3.27680 -3.27680 -3.27680 -3.27680
5.60 5.618970 0.0 180.366670 14.980 0.0960 0.1020 1.0 40.666670 200.0 36.461540 500.0 197.0 36.461540 1787.416670 890640.923080 161.0 43.0 841495522.369950 0.0 0.0 0.0 0.0 0.0 0.0 0.0 -3.27680 -3.27680 -3.27680 -3.27680 -3.27680 -3.27680
5.59 5.610830 0.0 180.40 14.976670 0.0960 0.1020 1.0 40.583330 200.0 37.846150 500.0 197.0 37.846150 1789.833330 890641.846150 161.0 43.0 841497264.499890 0.0 0.0 0.0 0.0 0.0 0.0 0.0 -3.27680 -3.27680 -3.27680 -3.27680 -3.27680 -3.27680
5.58 5.598230 0.0 180.450 14.973330 0.0960 0.1020 1.0 40.50 200.0 39.230770 500.0 197.0 39.230770 1792.250 890642.769230 161.0 43.0 841499006.629820 0.0 0.0 0.0 0.0 0.0 0.0 0.0 -3.27680 -3.27680 -3.27680 -3.27680 -3.27680 -3.27680
5.57 5.585620 0.0 180.50 14.970 0.0960 0.1020 1.0 40.416670 200.0 40.615380 500.0 197.0 40.615380 1794.666670 890643.692310 161.0 43.0 841500748.759760 0.0 0.0 0.0 0.0 0.0 0.0 0.0 -3.27680 -3.27680 -3.27680 -3.27680 -3.27680 -3.27680
5.56 5.577220 0.0 180.533330 14.973330 0.0960 0.1020 1.0 40.333330 200.0 42.0 500.0 197.0 42.0 1797.083330 890644.615380 161.0 43.0 841502490.889690 0.0 0.0 0.0 0.0 0.0 0.0 0.0 -3.27680 -3.27680 -3.27680 -3.27680 -3.27680 -3.27680
5.55 5.568820 0.0 180.566670 14.976670 0.0960 0.1020 1.0 40.250 200.0 40.0 500.0 197.0 40.0 1799.50 890645.538460 160.916670 43.0 841504233.019630 0.0 0.0 0.0 0.0 0.0 0.0 0.0 -3.27680 -3.27680 -3.27680 -3.27680 -3.27680 -3.27680
5.54 5.560420 0.0 180.60 14.980 0.0960 0.1020 1.0 40.166670 200.0 38.0 500.0 197.0 38.0 1801.916670 890646.461540 160.833330 43.0 841505975.149560 0.0 0.0 0.0 0.0 0.0 0.0 0.0 -3.27680 -3.27680 -3.27680 -3.27680 -3.27680 -3.27680
5.53 5.548210 0.0 180.650 14.983330 0.0960 0.1020 1.0 40.083330 200.0 36.0 500.0 197.0 36.0 1804.333330 890647.384620 160.750 43.0 841507717.27950 0.0 0.0 0.0 0.0 0.0 0.0 0.0 -3.27680 -3.27680 -3.27680 -3.27680 -3.27680 -3.27680
5.52 5.536010 0.0 180.70 14.986670 0.0960 0.1020 1.0 40.0 200.0 34.0 500.0 197.0 34.0 1806.750 890648.307690 160.666670 43.0 841509459.409440 0.0 0.0 0.0 0.0 0.0 0.0 0.0 -3.27680 -3.27680 -3.27680 -3.27680 -3.27680 -3.27680
5.51 5.52760 0.0 180.733330 14.990 0.0960 0.1020 1.0 40.076920 200.0 32.0 500.0 197.0 32.0 1809.166670 890649.230770 160.583330 43.0 841511201.539370 0.0 0.0 0.0 0.0 0.0 0.0 0.0 -3.27680 -3.27680 -3.27680 -3.27680 -3.27680 -3.27680
5.50 5.51920 0.0 180.766670 14.993330 0.0960 0.1020 1.0 40.153850 200.0 30.0 500.0 197.0 30.0 1811.583330 890650.153850 160.50 43.0 841512943.669310 0.0 0.0 0.0 0.0 0.0 0.0 0.0 -3.27680 -3.27680 -3.27680 -3.27680 -3.27680 -3.27680
5.49 5.51080 0.0 180.80 14.996670 0.0960 0.1020 1.0 40.230770 200.0 28.0 500.0 197.0 28.0 1814.0 890651.076920 160.416670 43.0 841514685.799240 0.0 0.0 0.0 0.0 0.0 0.0 0.0 -3.27680 -3.27680 -3.27680 -3.27680 -3.27680 -3.27680
5.48 5.498590 0.0 180.850 15.0 0.0960 0.1020 1.0 40.307690 200.0 26.0 500.0 197.0 26.0 1812.0 890652.0 160.333330 43.0 841516427.929180 0.0 0.0 0.0 0.0 0.0 0.0 0.0 -3.27680 -3.27680 -3.27680 -3.27680 -3.27680 -3.27680
5.47 5.486390 0.0 180.90 15.003330 0.0960 0.1020 1.0 40.384620 200.0 24.0 500.0 197.0 24.0 1810.0 890652.750 160.250 43.0 841517843.426420 0.0 0.0 0.0 0.0 0.0 0.0 0.0 -3.27680 -3.27680 -3.27680 -3.27680 -3.27680 -3.27680
5.46 5.477990 0.0 180.933330 15.006670 0.0960 0.1020 1.0 40.461540 200.0 22.0 500.0 197.0 22.0 1808.0 890653.50 160.166670 43.0 841519258.923660 0.0 0.0 0.0 0.0 0.0 0.0 0.0 -3.27680 -3.27680 -3.27680 -3.27680 -3.27680 -3.27680
