~VERSION INFORMATION SECTION
VERS. 2.0 : CWLS LAS-VERSION 2.0
WRAP. NO : One line per depth step
~WELL INFORMATION SECTION
# MNEM.UNIT VALUE/NAME DESCRIPTION
#-------- -------------- ---------------------
STRT.Metres 2 : Start
STOP.Metres 22.45 : Stop
STEP.Metres 0.01 : Step
NULL.  -999.25 :NULL VALUE
DATE. 2026-02-09 : DATE
~CURVE INFORMATION SECTION
DEPTH.Metres : 0 Depth
Depth. : 1 Depth
Tension. : 2 Tension
Time. : 3 Time
Speed. : 4 Speed
Voltage. : 5 Voltage
Current. : 6 Current
WET. : 7 WET
Sig. : 8 Sig
Vth. : 9 Vth
GR.CPS : 10 GR
Timebase.ms : 11 Timebase
HeadVoltage.V : 12 Head Voltage
API.API : 13 API
Conductivity.uS : 14 Conductivity
PT100.Ohms : 15 PT100
Vmon.mV : 16 Vmon
Status. : 17 Status
Temperature.C : 18 Temperature
Incline.Deg : 19 Incline
Azimuth.Deg : 20 Azimuth
RelativeBearing.Deg : 21 Relative Bearing
MagneticToolFace.Deg : 22 Magnetic Tool Face
GravityMagnitude.G : 23 Gravity Magnitude
MagnetometerMagnitude.H : 24 Magnetometer Magnitude
Temperature.C : 25 Temperature
GX. : 26 GX
GY. : 27 GY
GZ. : 28 GZ
HX. : 29 HX
HY. : 30 HY
HZ. : 31 HZ
~PARAMETER INFORMATION SECTION
~OTHER
#-------------------------------------------------
#Produced By: GeoVista Logger - Version 7.1.107.0
Verticality Sonde - 6292
Temperature and Conductivity Sonde - Inline - 8974
Natural Gamma Sonde - 9931
WLIS - 10024
#-------------------------------------------------
~ASCII LOG DATA
# ...
15.74 15.73890 0.0 93.450 9.9440 0.0960 0.1040 1.0 32.0 100.0 21.760350 195.0 196.0 21.760350 87.265620 109.601650 152.0 43.0 24.654030 0.20 283.16250 227.96250 151.51250 1.79160 6.060880 21.780 -0.00320 -0.00420 1.79150 0.23090 -0.1190 -0.54740
15.75 15.747170 0.0 93.50 9.9480 0.0960 0.1040 1.0 32.0 100.0 21.808280 247.50 196.0 21.808280 87.109140 109.601190 152.0 43.0 24.652860 0.20 281.3250 230.1250 151.8250 1.79160 6.060750 21.780 -0.002980 -0.004320 1.79150 0.231310 -0.118080 -0.547470
15.76 15.755440 0.0 93.550 9.9520 0.0960 0.1040 1.0 32.0 100.0 21.856210 300.0 196.0 21.856210 86.952670 109.600740 152.0 43.0 24.65170 0.20 279.48750 232.28750 152.13750 1.79160 6.060630 21.780 -0.002760 -0.004440 1.79150 0.231720 -0.117160 -0.547530
15.77 15.763710 0.0 93.60 9.9560 0.0960 0.1040 1.0 32.0 100.0 21.904140 352.50 196.0 21.904140 87.25340 109.600290 152.0 43.0 24.650530 0.20 277.650 234.450 152.450 1.79160 6.06050 21.780 -0.002530 -0.004570 1.79150 0.232130 -0.116230 -0.54760
15.78 15.780250 0.0 93.70 9.960 0.0960 0.1040 1.0 32.0 100.0 21.952070 405.0 196.0 21.952070 87.554130 109.599840 152.0 43.0 24.649370 0.20 275.81250 236.61250 152.76250 1.79160 6.060380 21.780 -0.002310 -0.004690 1.79150 0.232540 -0.115310 -0.547670
15.79 15.788520 0.0 93.750 9.960 0.0960 0.1040 1.0 32.0 100.0 22.0 457.50 196.0 22.0 87.854860 109.599390 152.0 43.0 24.648210 0.20 273.9750 238.7750 153.0750 1.79160 6.060250 21.780 -0.002090 -0.004810 1.79150 0.232960 -0.114390 -0.547730
15.80 15.796790 0.0 93.80 9.960 0.0960 0.1040 1.0 32.0 100.0 20.50 510.0 196.0 20.50 88.15560 109.599080 152.1250 43.0 24.647430 0.20 272.13750 240.93750 153.38750 1.79160 6.060130 21.780 -0.001870 -0.004930 1.79150 0.233370 -0.113470 -0.54780
15.81 15.813330 0.0 93.90 9.960 0.0960 0.1040 1.0 32.0 100.0 19.0 508.888890 196.0 19.0 88.456330 109.598780 152.250 43.0 24.646650 0.20 270.30 243.10 153.70 1.79160 6.060 21.780 -0.001640 -0.005060 1.79150 0.233780 -0.112540 -0.547870
15.82 15.82160 0.0 93.950 9.960 0.0960 0.1040 1.0 32.0 100.0 17.50 507.777780 196.0 17.50 88.757060 109.598480 152.3750 43.0 24.645880 0.20 268.90 244.611110 153.822220 1.79160 6.060330 21.780 -0.001420 -0.005180 1.79150 0.234190 -0.111620 -0.547930
15.83 15.829870 0.0 94.0 9.960 0.0960 0.1040 1.0 32.0 100.0 16.0 506.666670 196.0 16.0 89.05780 109.598180 152.50 43.0 24.64510 0.20 267.50 246.122220 153.944440 1.79160 6.060670 21.780 -0.00120 -0.00530 1.79150 0.23460 -0.11070 -0.5480
15.84 15.838540 0.0 94.050 9.960 0.0960 0.1040 1.0 32.0 100.0 14.50 505.555560 196.0 14.50 89.358530 109.597880 152.6250 43.0 24.644320 0.20 266.10 247.633330 154.066670 1.79160 6.0610 21.780 -0.001270 -0.005240 1.79150 0.23450 -0.111010 -0.5480
15.85 15.84720 0.0 94.10 9.960 0.0960 0.1040 1.0 32.0 100.0 13.0 504.444440 196.0 13.0 89.233830 109.597580 152.750 43.0 24.643550 0.20 264.70 249.144440 154.188890 1.79160 6.061330 21.780 -0.001350 -0.005180 1.79150 0.23440 -0.111330 -0.5480
15.86 15.855470 0.0 94.150 9.960 0.0960 0.1040 1.0 32.0 100.0 11.50 503.333330 196.0 11.50 89.109140 109.597280 152.8750 43.0 24.642770 0.20 263.30 250.655560 154.311110 1.79160 6.061670 21.780 -0.001420 -0.005110 1.79150 0.23430 -0.111640 -0.5480
15.87 15.863740 0.0 94.20 9.960 0.0960 0.1040 1.0 32.0 100.0 10.0 502.222220 196.0 10.0 88.984450 109.596980 153.0 43.0 24.641990 0.20 261.90 252.166670 154.433330 1.79160 6.0620 21.780 -0.00150 -0.005050 1.79150 0.23420 -0.111950 -0.5480
15.88 15.880280 0.0 94.30 9.960 0.0960 0.1040 1.0 31.8750 100.0 12.750 501.111110 196.0 12.750 88.859750 109.596640 152.888890 43.0 24.641130 0.20 260.50 253.677780 154.555560 1.79160 6.062330 21.780 -0.001570 -0.004990 1.79150 0.23410 -0.112260 -0.5480
15.89 15.888940 0.0 94.350 9.9750 0.0960 0.1040 1.0 31.750 100.0 15.50 500.0 196.0 15.50 88.735060 109.596310 152.777780 43.0 24.640270 0.20 259.10 255.188890 154.677780 1.79160 6.062670 21.780 -0.001650 -0.004920 1.79150 0.2340 -0.112580 -0.5480
15.90 15.897610 0.0 94.40 9.990 0.0960 0.1040 1.0 31.6250 100.0 18.250 500.0 196.0 18.250 88.610360 109.595970 152.666670 43.0 24.639410 0.20 257.70 256.70 154.80 1.79160 6.0630 21.780 -0.001720 -0.004860 1.79150 0.23390 -0.112890 -0.5480
15.91 15.905870 0.0 94.450 10.0050 0.0960 0.1040 1.0 31.50 100.0 21.0 500.0 196.0 21.0 88.485670 109.595640 152.555560 43.0 24.638540 0.20 259.6250 254.63750 154.66250 1.79160 6.0630 21.781250 -0.00180 -0.00480 1.79150 0.23380 -0.11320 -0.5480
15.92 15.914140 0.0 94.50 10.020 0.0960 0.1040 1.0 31.3750 100.0 23.750 500.0 196.0 23.750 88.360980 109.59530 152.444440 43.0 24.637680 0.20 261.550 252.5750 154.5250 1.79160 6.0630 21.78250 -0.001880 -0.004730 1.79150 0.233610 -0.113610 -0.547870
15.93 15.930680 0.0 94.60 10.0350 0.0960 0.1040 1.0 31.250 100.0 26.50 500.0 196.0 26.50 88.316970 109.594970 152.333330 43.0 24.636820 0.20 263.4750 250.51250 154.38750 1.79160 6.0630 21.783750 -0.001960 -0.004670 1.79150 0.233420 -0.114020 -0.547730
15.94 15.939350 0.0 94.650 10.050 0.0960 0.1040 1.0 31.1250 100.0 29.250 500.0 196.0 29.250 88.272960 109.594630 152.222220 43.0 24.635960 0.20 265.40 248.450 154.250 1.79160 6.0630 21.7850 -0.002030 -0.00460 1.79150 0.233230 -0.114430 -0.54760
15.95 15.948010 0.0 94.70 10.0650 0.0960 0.1040 1.0 31.0 100.0 32.0 500.0 196.0 32.0 88.228950 109.59430 152.111110 43.0 24.635090 0.20 267.3250 246.38750 154.11250 1.79160 6.0630 21.786250 -0.002110 -0.004530 1.79150 0.233040 -0.114840 -0.547470
15.96 15.956280 0.0 94.750 10.080 0.0960 0.1030 1.0 31.0 100.0 31.111110 500.0 196.0 31.111110 88.184940 109.593960 152.0 43.0 24.634230 0.20 269.250 244.3250 153.9750 1.79160 6.0630 21.78750 -0.002190 -0.004470 1.79150 0.232860 -0.115260 -0.547330
15.97 15.964550 0.0 94.80 10.0950 0.0960 0.1020 1.0 31.0 100.0 30.222220 500.0 196.0 30.222220 88.140930 109.593580 152.0 43.0 24.633260 0.20 271.1750 242.26250 153.83750 1.79160 6.0630 21.788750 -0.002270 -0.00440 1.79150 0.232670 -0.115670 -0.54720
15.98 15.981090 0.0 94.90 10.110 0.0960 0.1040 1.0 31.0 100.0 29.333330 500.0 196.0 29.333330 88.096920 109.593210 152.0 43.0 24.632290 0.20 273.10 240.20 153.70 1.79160 6.0630 21.790 -0.002340 -0.004330 1.79150 0.232480 -0.116080 -0.547070
15.99 15.989360 0.0 94.950 10.1050 0.0960 0.1040 1.0 31.0 100.0 28.444440 500.0 196.0 28.444440 88.052910 109.592830 152.0 43.0 24.631320 0.20 273.2250 240.03750 153.650 1.79160 6.061880 21.790 -0.002420 -0.004270 1.79150 0.232290 -0.116490 -0.546930
16.00 15.997630 0.0 95.0 10.10 0.0960 0.1040 1.0 31.0 100.0 27.555560 500.0 196.0 27.555560 88.00890 109.592450 152.0 43.0 24.630350 0.20 273.350 239.8750 153.60 1.79160 6.060750 21.790 -0.00250 -0.00420 1.79150 0.23210 -0.11690 -0.54680
16.01 16.00590 0.0 95.050 10.0950 0.0960 0.1040 1.0 31.0 100.0 26.666670 500.0 196.0 26.666670 87.924140 109.592080 152.0 43.0 24.629380 0.20 273.4750 239.71250 153.550 1.79160 6.059630 21.790 -0.002450 -0.004250 1.79150 0.232240 -0.116780 -0.546940
16.02 16.014170 0.0 95.10 10.090 0.0960 0.1040 1.0 31.0 100.0 25.777780 500.0 196.0 25.777780 87.839380 109.59170 152.0 43.0 24.628410 0.20 273.60 239.550 153.50 1.79160 6.05850 21.790 -0.00240 -0.00430 1.79150 0.232380 -0.116650 -0.547080
16.03 16.030710 0.0 95.20 10.0850 0.0960 0.1040 1.0 31.0 100.0 24.888890 500.0 196.0 24.888890 87.754620 109.591320 152.0 43.0 24.627440 0.20 273.7250 239.38750 153.450 1.79160 6.057380 21.790 -0.002350 -0.004350 1.79150 0.232510 -0.116530 -0.547210
16.04 16.039370 0.0 95.250 10.080 0.0960 0.1030 1.0 31.0 100.0 24.0 500.0 196.0 24.0 87.669860 109.590950 152.0 43.0 24.626470 0.20 273.850 239.2250 153.40 1.79160 6.056250 21.790 -0.00230 -0.00440 1.79150 0.232650 -0.11640 -0.547350
16.05 16.048040 0.0 95.30 10.0750 0.0960 0.1020 1.0 31.0 100.0 23.250 500.0 196.0 23.250 87.58510 109.590610 152.1250 43.0 24.62560 0.20 273.9750 239.06250 153.350 1.79160 6.055130 21.790 -0.002250 -0.004450 1.79150 0.232790 -0.116280 -0.547490
16.06 16.056310 0.0 95.350 10.070 0.0960 0.1020 1.0 31.0 100.0 22.50 500.0 196.0 22.50 87.500340 109.590280 152.250 43.0 24.624740 0.20 274.10 238.90 153.30 1.79160 6.0540 21.790 -0.00220 -0.00450 1.79150 0.232930 -0.116150 -0.547630
