~VERSION INFORMATION SECTION
VERS. 2.0 : CWLS LAS-VERSION 2.0
WRAP. NO : One line per depth step
~WELL INFORMATION SECTION
# MNEM.UNIT VALUE/NAME DESCRIPTION
#-------- -------------- ---------------------
STRT.Metres 25 : Start
STOP.Metres -2.12 : Stop
STEP.Metres -0.01 : Step
NULL.  -999.25 :NULL VALUE
DATE. 2026-13-09 : DATE
~CURVE INFORMATION SECTION
DEPTH.Metres : 0 Depth
Depth. : 1 Depth
Tension. : 2 Tension
Time. : 3 Time
Speed. : 4 Speed
Voltage. : 5 Voltage
Current. : 6 Current
WET. : 7 WET
Sig. : 8 Sig
Vth. : 9 Vth
GR.CPS : 10 GR
Timebase.ms : 11 Timebase
HeadVoltage.V : 12 Head Voltage
API.API : 13 API
Conductivity.uS : 14 Conductivity
PT100.Ohms : 15 PT100
Vmon.mV : 16 Vmon
Status. : 17 Status
Temperature.C : 18 Temperature
Incline.Deg : 19 Incline
Azimuth.Deg : 20 Azimuth
RelativeBearing.Deg : 21 Relative Bearing
MagneticToolFace.Deg : 22 Magnetic Tool Face
GravityMagnitude.G : 23 Gravity Magnitude
MagnetometerMagnitude.H : 24 Magnetometer Magnitude
Temperature.C : 25 Temperature
GX. : 26 GX
GY. : 27 GY
GZ. : 28 GZ
HX. : 29 HX
HY. : 30 HY
HZ. : 31 HZ
~PARAMETER INFORMATION SECTION
~OTHER
#-------------------------------------------------
#Produced By: GeoVista Logger - Version 7.1.107.0
Verticality Sonde - 9605
Temperature and Conductivity Sonde - Inline - 8974
Natural Gamma Sonde - 9931
WLIS - 10021
#-------------------------------------------------
~ASCII LOG DATA
# ...
21.97 21.987680 0.0 27.350 15.107330 0.0960 0.1020 1.0 1.0 200.0 12.0 500.0 197.0 12.0 18425.0 889082.583330 154.0 47.0 838557042.683230 0.0 0.0 0.0 0.0 0.0 0.0 0.0 -3.27680 -3.27680 -3.27680 -3.27680 -3.27680 -3.27680
21.96 21.975480 0.0 27.40 15.094670 0.0960 0.1020 1.0 1.0 200.0 12.166670 500.0 197.0 12.166670 18419.0 889082.50 154.0 47.0 838556885.683360 0.0 0.0 0.0 0.0 0.0 0.0 0.0 -3.27680 -3.27680 -3.27680 -3.27680 -3.27680 -3.27680
21.95 21.967070 0.0 27.433330 15.0820 0.0960 0.1020 1.0 1.0 200.0 12.333330 500.0 197.0 12.333330 18413.0 889082.416670 154.0 47.0 838556728.683490 0.0 0.0 0.0 0.0 0.0 0.0 0.0 -3.27680 -3.27680 -3.27680 -3.27680 -3.27680 -3.27680
21.94 21.958670 0.0 27.466670 15.069330 0.0960 0.1020 1.0 1.0 200.0 12.50 500.0 197.0 12.50 18407.0 889082.333330 154.0 47.0 838556571.683620 0.0 0.0 0.0 0.0 0.0 0.0 0.0 -3.27680 -3.27680 -3.27680 -3.27680 -3.27680 -3.27680
21.93 21.950270 0.0 27.50 15.056670 0.0960 0.1020 1.0 1.0 200.0 12.666670 500.0 197.0 12.666670 18401.0 889082.250 154.0 47.0 838556414.683750 0.0 0.0 0.0 0.0 0.0 0.0 0.0 -3.27680 -3.27680 -3.27680 -3.27680 -3.27680 -3.27680
21.92 21.941870 0.0 27.533330 15.0440 0.0960 0.1020 1.0 0.916670 200.0 12.833330 500.0 197.0 12.833330 18395.0 889082.166670 154.0 47.0 838556257.683880 0.0 0.0 0.0 0.0 0.0 0.0 0.0 -3.27680 -3.27680 -3.27680 -3.27680 -3.27680 -3.27680
21.91 21.933470 0.0 27.566670 15.031330 0.0960 0.1020 1.0 0.833330 200.0 13.0 500.0 197.0 13.0 18389.0 889082.083330 154.0 47.0 838556100.684010 0.0 0.0 0.0 0.0 0.0 0.0 0.0 -3.27680 -3.27680 -3.27680 -3.27680 -3.27680 -3.27680
21.90 21.925070 0.0 27.60 15.018670 0.0960 0.1020 1.0 0.750 200.0 13.166670 500.0 197.0 13.166670 18383.0 889082.0 154.0 47.0 838555943.684140 0.0 0.0 0.0 0.0 0.0 0.0 0.0 -3.27680 -3.27680 -3.27680 -3.27680 -3.27680 -3.27680
21.89 21.912470 0.0 27.650 15.0060 0.0960 0.1020 1.0 0.666670 200.0 13.333330 500.0 197.0 13.333330 18377.692310 889082.538460 154.0 47.0 838556958.148260 0.0 0.0 0.0 0.0 0.0 0.0 0.0 -3.27680 -3.27680 -3.27680 -3.27680 -3.27680 -3.27680
21.88 21.899870 0.0 27.70 14.993330 0.0960 0.1020 1.0 0.583330 200.0 13.50 500.0 197.0 13.50 18372.384620 889083.076920 154.0 47.0 838557972.612380 0.0 0.0 0.0 0.0 0.0 0.0 0.0 -3.27680 -3.27680 -3.27680 -3.27680 -3.27680 -3.27680
21.87 21.887660 0.0 27.750 14.980670 0.0960 0.1020 1.0 0.50 200.0 13.666670 500.0 197.0 13.666670 18367.076920 889083.615380 154.0 47.0 838558987.076490 0.0 0.0 0.0 0.0 0.0 0.0 0.0 -3.27680 -3.27680 -3.27680 -3.27680 -3.27680 -3.27680
21.86 21.875450 0.0 27.80 14.9680 0.0960 0.1020 1.0 0.416670 200.0 13.833330 500.0 197.0 13.833330 18361.769230 889084.153850 154.0 47.0 838560001.540610 0.0 0.0 0.0 0.0 0.0 0.0 0.0 -3.27680 -3.27680 -3.27680 -3.27680 -3.27680 -3.27680
21.85 21.867050 0.0 27.833330 14.955330 0.0960 0.1020 1.0 0.333330 200.0 14.0 500.0 197.0 14.0 18356.461540 889084.692310 154.0 47.0 838561016.004730 0.0 0.0 0.0 0.0 0.0 0.0 0.0 -3.27680 -3.27680 -3.27680 -3.27680 -3.27680 -3.27680
21.84 21.858650 0.0 27.866670 14.942670 0.0960 0.1020 1.0 0.250 200.0 14.333330 500.0 197.0 14.333330 18351.153850 889085.230770 153.916670 47.0 838562030.468840 0.0 0.0 0.0 0.0 0.0 0.0 0.0 -3.27680 -3.27680 -3.27680 -3.27680 -3.27680 -3.27680
21.83 21.850250 0.0 27.90 14.930 0.0960 0.1020 1.0 0.166670 200.0 14.666670 500.0 197.0 14.666670 18345.846150 889085.769230 153.833330 47.0 838563044.932960 0.0 0.0 0.0 0.0 0.0 0.0 0.0 -3.27680 -3.27680 -3.27680 -3.27680 -3.27680 -3.27680
21.82 21.841850 0.0 27.933330 14.9360 0.0960 0.1020 1.0 0.083330 200.0 15.0 500.769230 197.0 15.0 18340.538460 889086.307690 153.750 47.0 838564059.397080 0.0 0.0 0.0 0.0 0.0 0.0 0.0 -3.27680 -3.27680 -3.27680 -3.27680 -3.27680 -3.27680
21.81 21.833450 0.0 27.966670 14.9420 0.0960 0.1020 1.0 0.0 200.0 15.333330 501.538460 197.0 15.333330 18335.230770 889086.846150 153.666670 47.0 838565073.861190 0.0 0.0 0.0 0.0 0.0 0.0 0.0 -3.27680 -3.27680 -3.27680 -3.27680 -3.27680 -3.27680
21.80 21.825050 0.0 28.0 14.9480 0.0960 0.1020 1.0 0.0 200.0 15.666670 502.307690 197.0 15.666670 18329.923080 889087.384620 153.583330 47.0 838566088.325310 0.0 0.0 0.0 0.0 0.0 0.0 0.0 -3.27680 -3.27680 -3.27680 -3.27680 -3.27680 -3.27680
21.79 21.812440 0.0 28.050 14.9540 0.0960 0.1020 1.0 0.0 200.0 16.0 503.076920 197.0 16.0 18324.615380 889087.923080 153.50 47.0 838567102.789430 0.0 0.0 0.0 0.0 0.0 0.0 0.0 -3.27680 -3.27680 -3.27680 -3.27680 -3.27680 -3.27680
21.78 21.799840 0.0 28.10 14.960 0.0960 0.1020 1.0 0.0 200.0 16.333330 503.846150 197.0 16.333330 18319.307690 889088.461540 153.416670 47.0 838568117.253540 0.0 0.0 0.0 0.0 0.0 0.0 0.0 -3.27680 -3.27680 -3.27680 -3.27680 -3.27680 -3.27680
21.77 21.787630 0.0 28.150 14.9660 0.0960 0.1020 1.0 0.0 200.0 16.666670 504.615380 197.0 16.666670 18314.0 889089.0 153.333330 47.0 838569131.717660 0.0 0.0 0.0 0.0 0.0 0.0 0.0 -3.27680 -3.27680 -3.27680 -3.27680 -3.27680 -3.27680
21.76 21.775430 0.0 28.20 14.9720 0.0960 0.1020 1.0 0.0 200.0 17.0 505.384620 196.923080 17.0 18304.833330 889088.846150 153.250 47.0 838568841.869960 0.0 0.0 0.0 0.0 0.0 0.0 0.0 -3.27680 -3.27680 -3.27680 -3.27680 -3.27680 -3.27680
21.75 21.767030 0.0 28.233330 14.9780 0.0960 0.1020 1.0 0.0 200.0 17.333330 506.153850 196.846150 17.333330 18295.666670 889088.692310 153.166670 47.0 838568552.022250 0.0 0.0 0.0 0.0 0.0 0.0 0.0 -3.27680 -3.27680 -3.27680 -3.27680 -3.27680 -3.27680
21.74 21.758620 0.0 28.266670 14.9840 0.0960 0.1020 1.0 0.0 200.0 17.666670 506.923080 196.769230 17.666670 18286.50 889088.538460 153.083330 47.0 838568262.174550 0.0 0.0 0.0 0.0 0.0 0.0 0.0 -3.27680 -3.27680 -3.27680 -3.27680 -3.27680 -3.27680
21.73 21.750220 0.0 28.30 14.990 0.0960 0.1020 1.0 0.0 200.0 18.0 507.692310 196.692310 18.0 18277.333330 889088.384620 153.0 47.0 838567972.326840 0.0 0.0 0.0 0.0 0.0 0.0 0.0 -3.27680 -3.27680 -3.27680 -3.27680 -3.27680 -3.27680
21.72 21.741820 0.0 28.333330 14.9960 0.0960 0.1020 1.0 0.0 200.0 18.877830 508.461540 196.615380 18.877830 18268.166670 889088.230770 153.076920 47.0 838567682.479140 0.0 0.0 0.0 0.0 0.0 0.0 0.0 -3.27680 -3.27680 -3.27680 -3.27680 -3.27680 -3.27680
21.71 21.733420 0.0 28.366670 15.0020 0.0960 0.1020 1.0 0.0 200.0 19.755660 509.230770 196.538460 19.755660 18259.0 889088.076920 153.153850 47.0 838567392.631430 0.0 0.0 0.0 0.0 0.0 0.0 0.0 -3.27680 -3.27680 -3.27680 -3.27680 -3.27680 -3.27680
21.70 21.725020 0.0 28.40 15.0080 0.0960 0.1020 1.0 0.0 200.0 20.633480 510.0 196.461540 20.633480 18249.833330 889087.923080 153.230770 47.0 838567102.783730 0.0 0.0 0.0 0.0 0.0 0.0 0.0 -3.27680 -3.27680 -3.27680 -3.27680 -3.27680 -3.27680
21.69 21.712420 0.0 28.450 15.0140 0.0960 0.1020 1.0 0.0 200.0 21.511310 509.166670 196.384620 21.511310 18240.666670 889087.769230 153.307690 47.0 838566812.936030 0.0 0.0 0.0 0.0 0.0 0.0 0.0 -3.27680 -3.27680 -3.27680 -3.27680 -3.27680 -3.27680
21.68 21.699820 0.0 28.50 15.020 0.0960 0.1020 1.0 0.0 200.0 22.389140 508.333330 196.307690 22.389140 18231.50 889087.615380 153.384620 47.0 838566523.088320 0.0 0.0 0.0 0.0 0.0 0.0 0.0 -3.27680 -3.27680 -3.27680 -3.27680 -3.27680 -3.27680
21.67 21.691420 0.0 28.533330 15.023330 0.0960 0.1020 1.0 0.0 200.0 23.266970 507.50 196.230770 23.266970 18222.333330 889087.461540 153.461540 47.0 838566233.240620 0.0 0.0 0.0 0.0 0.0 0.0 0.0 -3.27680 -3.27680 -3.27680 -3.27680 -3.27680 -3.27680
21.66 21.683020 0.0 28.566670 15.026670 0.0960 0.1020 1.0 0.0 200.0 24.14480 506.666670 196.153850 24.14480 18213.166670 889087.307690 153.538460 47.0 838565943.392910 0.0 0.0 0.0 0.0 0.0 0.0 0.0 -3.27680 -3.27680 -3.27680 -3.27680 -3.27680 -3.27680
21.65 21.674610 0.0 28.60 15.030 0.0960 0.1020 1.0 0.0 200.0 25.022620 505.833330 196.076920 25.022620 18204.0 889087.153850 153.615380 47.0 838565653.545210 0.0 0.0 0.0 0.0 0.0 0.0 0.0 -3.27680 -3.27680 -3.27680 -3.27680 -3.27680 -3.27680
21.64 21.662010 0.0 28.650 15.033330 0.0960 0.1020 1.0 0.0 200.0 25.900450 505.0 196.0 25.900450 18190.750 889087.0 153.692310 47.0 838565363.69750 0.0 0.0 0.0 0.0 0.0 0.0 0.0 -3.27680 -3.27680 -3.27680 -3.27680 -3.27680 -3.27680
