~VERSION INFORMATION SECTION
VERS. 2.0 : CWLS LAS-VERSION 2.0
WRAP. NO : One line per depth step
~WELL INFORMATION SECTION
# MNEM.UNIT VALUE/NAME DESCRIPTION
#-------- -------------- ---------------------
STRT.Metres 23 : Start
STOP.Metres -2.05 : Stop
STEP.Metres -0.01 : Step
NULL.  -999.25 :NULL VALUE
DATE. 2026-45-09 : DATE
~CURVE INFORMATION SECTION
DEPTH.Metres : 0 Depth
Depth. : 1 Depth
Tension. : 2 Tension
Time. : 3 Time
Speed. : 4 Speed
Voltage. : 5 Voltage
Current. : 6 Current
WET. : 7 WET
Sig. : 8 Sig
Vth. : 9 Vth
GR.CPS : 10 GR
Timebase.ms : 11 Timebase
HeadVoltage.V : 12 Head Voltage
API.API : 13 API
Conductivity.uS : 14 Conductivity
PT100.Ohms : 15 PT100
Vmon.mV : 16 Vmon
Status. : 17 Status
Temperature.C : 18 Temperature
Incline.Deg : 19 Incline
Azimuth.Deg : 20 Azimuth
RelativeBearing.Deg : 21 Relative Bearing
MagneticToolFace.Deg : 22 Magnetic Tool Face
GravityMagnitude.G : 23 Gravity Magnitude
MagnetometerMagnitude.H : 24 Magnetometer Magnitude
Temperature.C : 25 Temperature
GX. : 26 GX
GY. : 27 GY
GZ. : 28 GZ
HX. : 29 HX
HY. : 30 HY
HZ. : 31 HZ
~PARAMETER INFORMATION SECTION
~OTHER
#-------------------------------------------------
#Produced By: GeoVista Logger - Version 7.1.107.0
Verticality Sonde - 9605
Temperature and Conductivity Sonde - Inline - 8974
Natural Gamma Sonde - 9931
WLIS - 10021
#-------------------------------------------------
~ASCII LOG DATA
# ...
8.34 8.360320 0.0 68.750 15.079330 0.0960 0.1020 1.0 42.692310 200.0 10.166670 500.0 197.0 10.166670 1896.0 890234.769230 156.0 42.0 840729164.208050 0.0 0.0 0.0 0.0 0.0 0.0 0.0 -3.27680 -3.27680 -3.27680 -3.27680 -3.27680 -3.27680
8.33 8.347720 0.0 68.80 15.070 0.0960 0.1020 1.0 42.769230 200.0 10.333330 500.0 197.0 10.333330 1896.166670 890236.230770 156.0 42.0 840731921.310690 0.0 0.0 0.0 0.0 0.0 0.0 0.0 -3.27680 -3.27680 -3.27680 -3.27680 -3.27680 -3.27680
8.32 8.339320 0.0 68.833330 15.070 0.0960 0.1020 1.0 42.846150 200.0 10.50 500.0 197.0 10.50 1896.333330 890237.692310 156.0 42.0 840734678.413330 0.0 0.0 0.0 0.0 0.0 0.0 0.0 -3.27680 -3.27680 -3.27680 -3.27680 -3.27680 -3.27680
8.31 8.330920 0.0 68.866670 15.070 0.0960 0.1020 1.0 42.923080 200.0 10.666670 500.0 197.0 10.666670 1896.50 890239.153850 156.0 42.0 840737435.515970 0.0 0.0 0.0 0.0 0.0 0.0 0.0 -3.27680 -3.27680 -3.27680 -3.27680 -3.27680 -3.27680
8.30 8.322520 0.0 68.90 15.070 0.0960 0.1020 1.0 43.0 200.0 10.833330 500.0 197.0 10.833330 1896.666670 890240.615380 156.0 42.0 840740192.618610 0.0 0.0 0.0 0.0 0.0 0.0 0.0 -3.27680 -3.27680 -3.27680 -3.27680 -3.27680 -3.27680
8.29 8.309910 0.0 68.950 15.070 0.0960 0.1020 1.0 42.916670 200.0 11.0 500.0 197.0 11.0 1896.833330 890242.076920 156.0 42.0 840742949.721250 0.0 0.0 0.0 0.0 0.0 0.0 0.0 -3.27680 -3.27680 -3.27680 -3.27680 -3.27680 -3.27680
8.28 8.297310 0.0 69.0 15.070 0.0960 0.1020 1.0 42.833330 200.0 11.166670 500.0 197.0 11.166670 1897.0 890243.538460 156.0 42.0 840745706.823890 0.0 0.0 0.0 0.0 0.0 0.0 0.0 -3.27680 -3.27680 -3.27680 -3.27680 -3.27680 -3.27680
8.27 8.288910 0.0 69.033330 15.070 0.0960 0.1020 1.0 42.750 200.0 11.333330 500.0 197.0 11.333330 1895.923080 890245.0 156.0 42.0 840748463.926530 0.0 0.0 0.0 0.0 0.0 0.0 0.0 -3.27680 -3.27680 -3.27680 -3.27680 -3.27680 -3.27680
8.26 8.280510 0.0 69.066670 15.070 0.0960 0.1020 1.0 42.666670 200.0 11.50 500.0 197.0 11.50 1894.846150 890246.750 156.0 42.0 840751765.268240 0.0 0.0 0.0 0.0 0.0 0.0 0.0 -3.27680 -3.27680 -3.27680 -3.27680 -3.27680 -3.27680
8.25 8.272110 0.0 69.10 15.070 0.0960 0.1020 1.0 42.583330 200.0 11.666670 500.0 197.0 11.666670 1893.769230 890248.50 156.0 42.0 840755066.609950 0.0 0.0 0.0 0.0 0.0 0.0 0.0 -3.27680 -3.27680 -3.27680 -3.27680 -3.27680 -3.27680
8.24 8.25990 0.0 69.150 15.070 0.0960 0.1020 1.0 42.50 200.0 11.833330 500.0 197.0 11.833330 1892.692310 890250.250 156.0 42.0 840758367.951650 0.0 0.0 0.0 0.0 0.0 0.0 0.0 -3.27680 -3.27680 -3.27680 -3.27680 -3.27680 -3.27680
8.23 8.247690 0.0 69.20 15.070 0.0960 0.1020 1.0 42.416670 200.0 12.0 500.0 197.0 12.0 1891.615380 890252.0 156.0 42.0 840761669.293360 0.0 0.0 0.0 0.0 0.0 0.0 0.0 -3.27680 -3.27680 -3.27680 -3.27680 -3.27680 -3.27680
8.22 8.239290 0.0 69.233330 15.070 0.0960 0.1020 1.0 42.333330 200.0 11.692310 500.0 197.0 11.692310 1890.538460 890253.750 156.0 42.0 840764970.635070 0.0 0.0 0.0 0.0 0.0 0.0 0.0 -3.27680 -3.27680 -3.27680 -3.27680 -3.27680 -3.27680
8.21 8.230890 0.0 69.266670 15.070 0.0960 0.1020 1.0 42.250 200.0 11.384620 500.0 197.0 11.384620 1889.461540 890255.50 156.0 42.0 840768271.976780 0.0 0.0 0.0 0.0 0.0 0.0 0.0 -3.27680 -3.27680 -3.27680 -3.27680 -3.27680 -3.27680
8.20 8.222490 0.0 69.30 15.070 0.0960 0.1020 1.0 42.166670 200.0 11.076920 500.0 197.0 11.076920 1888.384620 890257.250 156.0 42.0 840771573.318490 0.0 0.0 0.0 0.0 0.0 0.0 0.0 -3.27680 -3.27680 -3.27680 -3.27680 -3.27680 -3.27680
8.19 8.209890 0.0 69.350 15.070 0.0960 0.1020 1.0 42.083330 200.0 10.769230 500.769230 197.0 10.769230 1887.307690 890259.0 156.0 42.0 840774874.66020 0.0 0.0 0.0 0.0 0.0 0.0 0.0 -3.27680 -3.27680 -3.27680 -3.27680 -3.27680 -3.27680
8.18 8.197290 0.0 69.40 15.070 0.0960 0.1020 1.0 42.0 200.0 10.461540 501.538460 197.0 10.461540 1886.230770 890260.750 156.0 42.0 840778176.00190 0.0 0.0 0.0 0.0 0.0 0.0 0.0 -3.27680 -3.27680 -3.27680 -3.27680 -3.27680 -3.27680
8.17 8.188890 0.0 69.433330 15.070 0.0960 0.1020 1.0 42.0 200.0 10.153850 502.307690 197.0 10.153850 1885.153850 890262.50 156.0 42.0 840781477.343610 0.0 0.0 0.0 0.0 0.0 0.0 0.0 -3.27680 -3.27680 -3.27680 -3.27680 -3.27680 -3.27680
8.16 8.180490 0.0 69.466670 15.070 0.0960 0.1020 1.0 42.0 200.0 9.846150 503.076920 197.0 9.846150 1884.076920 890264.250 156.0 42.0 840784778.685320 0.0 0.0 0.0 0.0 0.0 0.0 0.0 -3.27680 -3.27680 -3.27680 -3.27680 -3.27680 -3.27680
8.15 8.172090 0.0 69.50 15.070 0.0960 0.1020 1.0 42.0 200.0 9.538460 503.846150 197.0 9.538460 1883.0 890266.0 156.0 42.0 840788080.027030 0.0 0.0 0.0 0.0 0.0 0.0 0.0 -3.27680 -3.27680 -3.27680 -3.27680 -3.27680 -3.27680
8.14 8.159480 0.0 69.550 15.070 0.0960 0.1020 1.0 42.0 200.0 9.230770 504.615380 197.0 9.230770 1883.0 890267.615380 156.0 42.0 840791127.491170 0.0 0.0 0.0 0.0 0.0 0.0 0.0 -3.27680 -3.27680 -3.27680 -3.27680 -3.27680 -3.27680
8.13 8.146880 0.0 69.60 15.070 0.0960 0.1020 1.0 42.0 200.0 8.923080 505.384620 197.0 8.923080 1883.0 890269.230770 156.0 42.0 840794174.955310 0.0 0.0 0.0 0.0 0.0 0.0 0.0 -3.27680 -3.27680 -3.27680 -3.27680 -3.27680 -3.27680
8.12 8.138740 0.0 69.633330 15.070 0.0960 0.1020 1.0 42.0 200.0 8.615380 506.153850 197.0 8.615380 1883.0 890270.846150 156.0 42.0 840797222.419450 0.0 0.0 0.0 0.0 0.0 0.0 0.0 -3.27680 -3.27680 -3.27680 -3.27680 -3.27680 -3.27680
8.11 8.130610 0.0 69.666670 15.070 0.0960 0.1020 1.0 42.0 200.0 8.307690 506.923080 197.0 8.307690 1883.0 890272.461540 156.0 42.0 840800269.883590 0.0 0.0 0.0 0.0 0.0 0.0 0.0 -3.27680 -3.27680 -3.27680 -3.27680 -3.27680 -3.27680
8.10 8.122470 0.0 69.70 15.070 0.0960 0.1020 1.0 42.0 200.0 8.0 507.692310 197.0 8.0 1883.0 890274.076920 156.0 42.0 840803317.347730 0.0 0.0 0.0 0.0 0.0 0.0 0.0 -3.27680 -3.27680 -3.27680 -3.27680 -3.27680 -3.27680
8.09 8.109870 0.0 69.750 15.070 0.0960 0.1020 1.0 42.0 200.0 8.289590 508.461540 197.0 8.289590 1883.0 890275.692310 156.0 42.0 840806364.811880 0.0 0.0 0.0 0.0 0.0 0.0 0.0 -3.27680 -3.27680 -3.27680 -3.27680 -3.27680 -3.27680
8.08 8.097260 0.0 69.80 15.070 0.0960 0.1020 1.0 42.0 200.0 8.579190 509.230770 197.0 8.579190 1883.0 890277.307690 156.0 42.0 840809412.276020 0.0 0.0 0.0 0.0 0.0 0.0 0.0 -3.27680 -3.27680 -3.27680 -3.27680 -3.27680 -3.27680
8.07 8.089130 0.0 69.833330 15.070 0.0960 0.1020 1.0 42.0 200.0 8.868780 510.0 197.0 8.868780 1883.0 890278.923080 156.0 42.0 840812459.740160 0.0 0.0 0.0 0.0 0.0 0.0 0.0 -3.27680 -3.27680 -3.27680 -3.27680 -3.27680 -3.27680
8.06 8.080990 0.0 69.866670 15.070 0.0960 0.1020 1.0 42.0 200.0 9.158370 509.166670 197.0 9.158370 1883.0 890280.538460 156.0 42.0 840815507.20430 0.0 0.0 0.0 0.0 0.0 0.0 0.0 -3.27680 -3.27680 -3.27680 -3.27680 -3.27680 -3.27680
8.05 8.072850 0.0 69.90 15.070 0.0960 0.1020 1.0 42.0 200.0 9.447960 508.333330 197.0 9.447960 1883.0 890282.153850 156.0 42.0 840818554.668440 0.0 0.0 0.0 0.0 0.0 0.0 0.0 -3.27680 -3.27680 -3.27680 -3.27680 -3.27680 -3.27680
8.04 8.060250 0.0 69.950 15.070 0.0960 0.1020 1.0 42.0 200.0 9.737560 507.50 197.0 9.737560 1883.0 890283.769230 156.0 42.0 840821602.132580 0.0 0.0 0.0 0.0 0.0 0.0 0.0 -3.27680 -3.27680 -3.27680 -3.27680 -3.27680 -3.27680
8.03 8.047650 0.0 70.0 15.070 0.0960 0.1020 1.0 42.0 200.0 10.027150 506.666670 197.0 10.027150 1883.0 890285.384620 156.0 42.0 840824649.596720 0.0 0.0 0.0 0.0 0.0 0.0 0.0 -3.27680 -3.27680 -3.27680 -3.27680 -3.27680 -3.27680
8.02 8.039240 0.0 70.033330 15.060670 0.0960 0.1020 1.0 42.0 200.0 10.316740 505.833330 197.0 10.316740 1882.153850 890287.0 156.0 42.0 840827697.060860 0.0 0.0 0.0 0.0 0.0 0.0 0.0 -3.27680 -3.27680 -3.27680 -3.27680 -3.27680 -3.27680
8.01 8.030840 0.0 70.066670 15.051330 0.0960 0.1020 1.0 42.0 200.0 10.606330 505.0 197.0 10.606330 1881.307690 890288.333330 156.0 42.0 840830212.480290 0.0 0.0 0.0 0.0 0.0 0.0 0.0 -3.27680 -3.27680 -3.27680 -3.27680 -3.27680 -3.27680
8.00 8.022440 0.0 70.10 15.0420 0.0960 0.1020 1.0 42.0 200.0 10.895930 504.166670 197.0 10.895930 1880.461540 890289.666670 156.0 42.0 840832727.899730 0.0 0.0 0.0 0.0 0.0 0.0 0.0 -3.27680 -3.27680 -3.27680 -3.27680 -3.27680 -3.27680
7.99 8.010230 0.0 70.150 15.032670 0.0960 0.1030 1.0 42.0 200.0 11.185520 503.333330 197.0 11.185520 1879.615380 890291.0 156.0 42.0 840835243.319160 0.0 0.0 0.0 0.0 0.0 0.0 0.0 -3.27680 -3.27680 -3.27680 -3.27680 -3.27680 -3.27680
