~VERSION INFORMATION SECTION
VERS. 2.0 : CWLS LAS-VERSION 2.0
WRAP. NO : One line per depth step
~WELL INFORMATION SECTION
# MNEM.UNIT VALUE/NAME DESCRIPTION
#-------- -------------- ---------------------
STRT.Metres 25 : Start
STOP.Metres -2.12 : Stop
STEP.Metres -0.01 : Step
NULL.  -999.25 :NULL VALUE
DATE. 2026-13-09 : DATE
~CURVE INFORMATION SECTION
DEPTH.Metres : 0 Depth
Depth. : 1 Depth
Tension. : 2 Tension
Time. : 3 Time
Speed. : 4 Speed
Voltage. : 5 Voltage
Current. : 6 Current
WET. : 7 WET
Sig. : 8 Sig
Vth. : 9 Vth
GR.CPS : 10 GR
Timebase.ms : 11 Timebase
HeadVoltage.V : 12 Head Voltage
API.API : 13 API
Conductivity.uS : 14 Conductivity
PT100.Ohms : 15 PT100
Vmon.mV : 16 Vmon
Status. : 17 Status
Temperature.C : 18 Temperature
Incline.Deg : 19 Incline
Azimuth.Deg : 20 Azimuth
RelativeBearing.Deg : 21 Relative Bearing
MagneticToolFace.Deg : 22 Magnetic Tool Face
GravityMagnitude.G : 23 Gravity Magnitude
MagnetometerMagnitude.H : 24 Magnetometer Magnitude
Temperature.C : 25 Temperature
GX. : 26 GX
GY. : 27 GY
GZ. : 28 GZ
HX. : 29 HX
HY. : 30 HY
HZ. : 31 HZ
~PARAMETER INFORMATION SECTION
~OTHER
#-------------------------------------------------
#Produced By: GeoVista Logger - Version 7.1.107.0
Verticality Sonde - 9605
Temperature and Conductivity Sonde - Inline - 8974
Natural Gamma Sonde - 9931
WLIS - 10021
#-------------------------------------------------
~ASCII LOG DATA
# ...
17.09 17.108930 0.0 46.850 14.910 0.0960 0.1020 1.0 12.076920 200.0 22.461540 500.0 196.0 22.461540 3254.0 889272.333330 157.076920 43.0 838914569.537260 0.0 0.0 0.0 0.0 0.0 0.0 0.0 -3.27680 -3.27680 -3.27680 -3.27680 -3.27680 -3.27680
17.08 17.096320 0.0 46.90 14.913330 0.0960 0.1020 1.0 12.307690 200.0 22.923080 500.0 196.0 22.923080 3236.0 889273.0 157.153850 43.0 838915825.8050 0.0 0.0 0.0 0.0 0.0 0.0 0.0 -3.27680 -3.27680 -3.27680 -3.27680 -3.27680 -3.27680
17.07 17.087920 0.0 46.933330 14.916670 0.0960 0.1020 1.0 12.538460 200.0 23.384620 500.0 196.0 23.384620 3218.0 889273.666670 157.230770 43.0 838917082.072740 0.0 0.0 0.0 0.0 0.0 0.0 0.0 -3.27680 -3.27680 -3.27680 -3.27680 -3.27680 -3.27680
17.06 17.079520 0.0 46.966670 14.920 0.0960 0.1020 1.0 12.769230 200.0 23.846150 500.0 196.0 23.846150 3200.0 889274.333330 157.307690 43.0 838918338.340490 0.0 0.0 0.0 0.0 0.0 0.0 0.0 -3.27680 -3.27680 -3.27680 -3.27680 -3.27680 -3.27680
17.05 17.071120 0.0 47.0 14.923330 0.0960 0.1020 1.0 13.0 200.0 24.307690 500.0 196.0 24.307690 3182.0 889275.0 157.384620 43.0 838919594.608230 0.0 0.0 0.0 0.0 0.0 0.0 0.0 -3.27680 -3.27680 -3.27680 -3.27680 -3.27680 -3.27680
17.04 17.058520 0.0 47.050 14.926670 0.0960 0.1020 1.0 13.166670 200.0 24.769230 500.0 196.0 24.769230 3164.0 889275.666670 157.461540 43.0 838920850.875970 0.0 0.0 0.0 0.0 0.0 0.0 0.0 -3.27680 -3.27680 -3.27680 -3.27680 -3.27680 -3.27680
17.03 17.045920 0.0 47.10 14.930 0.0960 0.1020 1.0 13.333330 200.0 25.230770 500.0 196.0 25.230770 3146.0 889276.333330 157.538460 43.0 838922107.143710 0.0 0.0 0.0 0.0 0.0 0.0 0.0 -3.27680 -3.27680 -3.27680 -3.27680 -3.27680 -3.27680
17.02 17.037520 0.0 47.133330 14.942670 0.0960 0.1020 1.0 13.50 200.0 25.692310 500.0 196.0 25.692310 3128.0 889277.0 157.615380 43.0 838923363.411450 0.0 0.0 0.0 0.0 0.0 0.0 0.0 -3.27680 -3.27680 -3.27680 -3.27680 -3.27680 -3.27680
17.01 17.029120 0.0 47.166670 14.955330 0.0960 0.1020 1.0 13.666670 200.0 26.153850 500.0 196.0 26.153850 3119.750 889277.692310 157.692310 43.0 838924668.009640 0.0 0.0 0.0 0.0 0.0 0.0 0.0 -3.27680 -3.27680 -3.27680 -3.27680 -3.27680 -3.27680
17.00 17.020720 0.0 47.20 14.9680 0.0960 0.1020 1.0 13.833330 200.0 26.615380 500.0 196.0 26.615380 3111.50 889278.384620 157.769230 43.0 838925972.607830 0.0 0.0 0.0 0.0 0.0 0.0 0.0 -3.27680 -3.27680 -3.27680 -3.27680 -3.27680 -3.27680
16.99 17.008510 0.0 47.250 14.980670 0.0960 0.1020 1.0 14.0 200.0 27.076920 500.0 196.0 27.076920 3103.250 889279.076920 157.846150 43.0 838927277.206010 0.0 0.0 0.0 0.0 0.0 0.0 0.0 -3.27680 -3.27680 -3.27680 -3.27680 -3.27680 -3.27680
16.98 16.99630 0.0 47.30 14.993330 0.0960 0.1020 1.0 14.166670 200.0 27.538460 500.0 196.0 27.538460 3095.0 889279.769230 157.923080 43.0 838928581.80420 0.0 0.0 0.0 0.0 0.0 0.0 0.0 -3.27680 -3.27680 -3.27680 -3.27680 -3.27680 -3.27680
16.97 16.98790 0.0 47.333330 15.0060 0.0960 0.1020 1.0 14.333330 200.0 28.0 500.0 196.0 28.0 3086.750 889280.461540 158.0 43.0 838929886.402390 0.0 0.0 0.0 0.0 0.0 0.0 0.0 -3.27680 -3.27680 -3.27680 -3.27680 -3.27680 -3.27680
16.96 16.97950 0.0 47.366670 15.018670 0.0960 0.1020 1.0 14.50 200.0 27.833330 500.0 196.0 27.833330 3078.50 889281.153850 158.0 43.0 838931191.000570 0.0 0.0 0.0 0.0 0.0 0.0 0.0 -3.27680 -3.27680 -3.27680 -3.27680 -3.27680 -3.27680
16.95 16.97110 0.0 47.40 15.031330 0.0960 0.1020 1.0 14.666670 200.0 27.666670 500.0 196.0 27.666670 3070.250 889281.846150 158.0 43.0 838932495.598760 0.0 0.0 0.0 0.0 0.0 0.0 0.0 -3.27680 -3.27680 -3.27680 -3.27680 -3.27680 -3.27680
16.94 16.958890 0.0 47.450 15.0440 0.0960 0.1020 1.0 14.833330 200.0 27.50 500.0 196.0 27.50 3062.0 889282.538460 158.0 43.0 838933800.196950 0.0 0.0 0.0 0.0 0.0 0.0 0.0 -3.27680 -3.27680 -3.27680 -3.27680 -3.27680 -3.27680
16.93 16.946680 0.0 47.50 15.056670 0.0960 0.1020 1.0 15.0 200.0 27.333330 500.0 196.0 27.333330 3053.750 889283.230770 158.0 43.0 838935104.795130 0.0 0.0 0.0 0.0 0.0 0.0 0.0 -3.27680 -3.27680 -3.27680 -3.27680 -3.27680 -3.27680
16.92 16.938280 0.0 47.533330 15.069330 0.0960 0.1020 1.0 15.0 200.0 27.166670 500.0 196.0 27.166670 3045.50 889283.923080 158.0 43.0 838936409.393320 0.0 0.0 0.0 0.0 0.0 0.0 0.0 -3.27680 -3.27680 -3.27680 -3.27680 -3.27680 -3.27680
16.91 16.929880 0.0 47.566670 15.0820 0.0960 0.1020 1.0 15.0 200.0 27.0 500.0 196.0 27.0 3037.250 889284.615380 158.0 43.0 838937713.99150 0.0 0.0 0.0 0.0 0.0 0.0 0.0 -3.27680 -3.27680 -3.27680 -3.27680 -3.27680 -3.27680
16.90 16.921480 0.0 47.60 15.094670 0.0960 0.1020 1.0 15.0 200.0 26.833330 500.0 196.0 26.833330 3029.0 889285.307690 158.0 43.0 838939018.589690 0.0 0.0 0.0 0.0 0.0 0.0 0.0 -3.27680 -3.27680 -3.27680 -3.27680 -3.27680 -3.27680
16.89 16.909270 0.0 47.650 15.107330 0.0960 0.1020 1.0 15.0 200.0 26.666670 500.0 196.0 26.666670 3021.0 889286.0 158.0 43.0 838940323.187880 0.0 0.0 0.0 0.0 0.0 0.0 0.0 -3.27680 -3.27680 -3.27680 -3.27680 -3.27680 -3.27680
16.88 16.897060 0.0 47.70 15.120 0.0960 0.1020 1.0 15.0 200.0 26.50 500.0 196.0 26.50 3013.0 889287.083330 158.0 43.0 838942364.667670 0.0 0.0 0.0 0.0 0.0 0.0 0.0 -3.27680 -3.27680 -3.27680 -3.27680 -3.27680 -3.27680
16.87 16.888660 0.0 47.733330 15.1040 0.0960 0.1020 1.0 15.0 200.0 26.333330 500.0 196.0 26.333330 3005.0 889288.166670 158.0 43.0 838944406.147460 0.0 0.0 0.0 0.0 0.0 0.0 0.0 -3.27680 -3.27680 -3.27680 -3.27680 -3.27680 -3.27680
16.86 16.880260 0.0 47.766670 15.0880 0.0960 0.1020 1.0 15.0 200.0 26.166670 500.0 196.0 26.166670 2997.0 889289.250 158.0 43.0 838946447.627250 0.0 0.0 0.0 0.0 0.0 0.0 0.0 -3.27680 -3.27680 -3.27680 -3.27680 -3.27680 -3.27680
16.85 16.871860 0.0 47.80 15.0720 0.0960 0.1020 1.0 15.0 200.0 26.0 500.0 196.0 26.0 2989.0 889290.333330 158.0 43.0 838948489.107040 0.0 0.0 0.0 0.0 0.0 0.0 0.0 -3.27680 -3.27680 -3.27680 -3.27680 -3.27680 -3.27680
16.84 16.859260 0.0 47.850 15.0560 0.0960 0.1020 1.0 15.0 200.0 26.0 500.0 196.0 26.0 2981.0 889291.416670 157.923080 43.0 838950530.586830 0.0 0.0 0.0 0.0 0.0 0.0 0.0 -3.27680 -3.27680 -3.27680 -3.27680 -3.27680 -3.27680
16.83 16.846660 0.0 47.90 15.040 0.0960 0.1020 1.0 15.0 200.0 26.0 500.0 196.0 26.0 2973.0 889292.50 157.846150 43.0 838952572.066620 0.0 0.0 0.0 0.0 0.0 0.0 0.0 -3.27680 -3.27680 -3.27680 -3.27680 -3.27680 -3.27680
16.82 16.838520 0.0 47.933330 15.0240 0.0960 0.1020 1.0 15.0 200.0 26.0 500.0 196.0 26.0 2965.0 889293.583330 157.769230 43.0 838954613.546410 0.0 0.0 0.0 0.0 0.0 0.0 0.0 -3.27680 -3.27680 -3.27680 -3.27680 -3.27680 -3.27680
16.81 16.830380 0.0 47.966670 15.0080 0.0960 0.1020 1.0 15.0 200.0 26.0 500.0 196.0 26.0 2957.0 889294.666670 157.692310 43.0 838956655.02620 0.0 0.0 0.0 0.0 0.0 0.0 0.0 -3.27680 -3.27680 -3.27680 -3.27680 -3.27680 -3.27680
16.80 16.822240 0.0 48.0 14.9920 0.0960 0.1020 1.0 15.0 200.0 26.0 500.0 196.0 26.0 2949.0 889295.750 157.615380 43.0 838958696.505990 0.0 0.0 0.0 0.0 0.0 0.0 0.0 -3.27680 -3.27680 -3.27680 -3.27680 -3.27680 -3.27680
16.79 16.809640 0.0 48.050 14.9760 0.0960 0.1010 1.0 15.0 200.0 26.0 500.0 196.0 26.0 2941.0 889296.833330 157.538460 43.0 838960737.985780 0.0 0.0 0.0 0.0 0.0 0.0 0.0 -3.27680 -3.27680 -3.27680 -3.27680 -3.27680 -3.27680
16.78 16.797040 0.0 48.10 14.960 0.0960 0.10 1.0 15.0 200.0 26.0 500.0 196.0 26.0 2933.0 889297.916670 157.461540 43.0 838962779.465570 0.0 0.0 0.0 0.0 0.0 0.0 0.0 -3.27680 -3.27680 -3.27680 -3.27680 -3.27680 -3.27680
16.77 16.78890 0.0 48.133330 14.9440 0.0960 0.10 1.0 15.0 200.0 26.0 500.0 196.0 26.0 2925.0 889299.0 157.384620 43.0 838964820.945360 0.0 0.0 0.0 0.0 0.0 0.0 0.0 -3.27680 -3.27680 -3.27680 -3.27680 -3.27680 -3.27680
16.76 16.780760 0.0 48.166670 14.9280 0.0960 0.10 1.0 15.0 200.0 26.0 500.0 196.0 26.0 2919.416670 889299.846150 157.307690 43.0 838966415.495440 0.0 0.0 0.0 0.0 0.0 0.0 0.0 -3.27680 -3.27680 -3.27680 -3.27680 -3.27680 -3.27680
16.75 16.772620 0.0 48.20 14.9120 0.0960 0.10 1.0 15.0 200.0 26.0 500.0 196.0 26.0 2913.833330 889300.692310 157.230770 43.0 838968010.045520 0.0 0.0 0.0 0.0 0.0 0.0 0.0 -3.27680 -3.27680 -3.27680 -3.27680 -3.27680 -3.27680
16.74 16.760020 0.0 48.250 14.8960 0.0960 0.1010 1.0 15.0 200.0 26.0 500.0 196.0 26.0 2908.250 889301.538460 157.153850 43.0 838969604.595610 0.0 0.0 0.0 0.0 0.0 0.0 0.0 -3.27680 -3.27680 -3.27680 -3.27680 -3.27680 -3.27680
