~VERSION INFORMATION SECTION
VERS. 2.0 : CWLS LAS-VERSION 2.0
WRAP. NO : One line per depth step
~WELL INFORMATION SECTION
# MNEM.UNIT VALUE/NAME DESCRIPTION
#-------- -------------- ---------------------
STRT.Metres 26 : Start
STOP.Metres -2.05 : Stop
STEP.Metres -0.01 : Step
NULL.  -999.25 :NULL VALUE
DATE. 2026-29-09 : DATE
~CURVE INFORMATION SECTION
DEPTH.Metres : 0 Depth
Depth. : 1 Depth
Tension. : 2 Tension
Time. : 3 Time
Speed. : 4 Speed
Voltage. : 5 Voltage
Current. : 6 Current
WET. : 7 WET
Sig. : 8 Sig
Vth. : 9 Vth
GR.CPS : 10 GR
Timebase.ms : 11 Timebase
HeadVoltage.V : 12 Head Voltage
API.API : 13 API
Conductivity.uS : 14 Conductivity
PT100.Ohms : 15 PT100
Vmon.mV : 16 Vmon
Status. : 17 Status
Temperature.C : 18 Temperature
Incline.Deg : 19 Incline
Azimuth.Deg : 20 Azimuth
RelativeBearing.Deg : 21 Relative Bearing
MagneticToolFace.Deg : 22 Magnetic Tool Face
GravityMagnitude.G : 23 Gravity Magnitude
MagnetometerMagnitude.H : 24 Magnetometer Magnitude
Temperature.C : 25 Temperature
GX. : 26 GX
GY. : 27 GY
GZ. : 28 GZ
HX. : 29 HX
HY. : 30 HY
HZ. : 31 HZ
~PARAMETER INFORMATION SECTION
~OTHER
#-------------------------------------------------
#Produced By: GeoVista Logger - Version 7.1.107.0
Verticality Sonde - 9605
Temperature and Conductivity Sonde - Inline - 8974
Natural Gamma Sonde - 9931
WLIS - 10021
#-------------------------------------------------
~ASCII LOG DATA
# ...
22.98 23.000530 0.0 110.850 15.107330 0.0960 0.1020 1.0 0.0 200.0 16.615380 506.666670 197.0 16.615380 18792.250 889060.615380 141.0 43.0 838515655.617890 0.0 0.0 0.0 0.0 0.0 0.0 0.0 -3.27680 -3.27680 -3.27680 -3.27680 -3.27680 -3.27680
22.97 22.988320 0.0 110.90 15.120 0.0960 0.1020 1.0 0.0 200.0 16.307690 507.50 197.0 16.307690 18790.666670 889061.153850 141.0 43.0 838516670.05580 0.0 0.0 0.0 0.0 0.0 0.0 0.0 -3.27680 -3.27680 -3.27680 -3.27680 -3.27680 -3.27680
22.96 22.979920 0.0 110.933330 15.107330 0.0960 0.1020 1.0 0.0 200.0 16.0 508.333330 197.0 16.0 18789.083330 889061.692310 141.0 43.0 838517684.49370 0.0 0.0 0.0 0.0 0.0 0.0 0.0 -3.27680 -3.27680 -3.27680 -3.27680 -3.27680 -3.27680
22.95 22.971520 0.0 110.966670 15.094670 0.0960 0.1020 1.0 0.0 200.0 15.810460 509.166670 197.0 15.810460 18787.50 889062.230770 141.083330 43.0 838518698.931610 0.0 0.0 0.0 0.0 0.0 0.0 0.0 -3.27680 -3.27680 -3.27680 -3.27680 -3.27680 -3.27680
22.94 22.963120 0.0 111.0 15.0820 0.0960 0.1020 1.0 0.0 200.0 15.620920 510.0 197.0 15.620920 18785.916670 889062.769230 141.166670 43.0 838519713.369510 0.0 0.0 0.0 0.0 0.0 0.0 0.0 -3.27680 -3.27680 -3.27680 -3.27680 -3.27680 -3.27680
22.93 22.950910 0.0 111.050 15.069330 0.0960 0.1020 1.0 0.0 200.0 15.431370 509.230770 197.0 15.431370 18784.333330 889063.307690 141.250 43.0 838520727.807420 0.0 0.0 0.0 0.0 0.0 0.0 0.0 -3.27680 -3.27680 -3.27680 -3.27680 -3.27680 -3.27680
22.92 22.93870 0.0 111.10 15.056670 0.0960 0.1020 1.0 0.0 200.0 15.241830 508.461540 197.0 15.241830 18782.750 889063.846150 141.333330 43.0 838521742.245330 0.0 0.0 0.0 0.0 0.0 0.0 0.0 -3.27680 -3.27680 -3.27680 -3.27680 -3.27680 -3.27680
22.91 22.930040 0.0 111.133330 15.0440 0.0960 0.1020 1.0 0.0 200.0 15.052290 507.692310 197.0 15.052290 18781.166670 889064.384620 141.416670 43.0 838522756.683230 0.0 0.0 0.0 0.0 0.0 0.0 0.0 -3.27680 -3.27680 -3.27680 -3.27680 -3.27680 -3.27680
22.90 22.921380 0.0 111.166670 15.031330 0.0960 0.1020 1.0 0.0 200.0 14.862750 506.923080 197.0 14.862750 18779.583330 889064.923080 141.50 43.0 838523771.121140 0.0 0.0 0.0 0.0 0.0 0.0 0.0 -3.27680 -3.27680 -3.27680 -3.27680 -3.27680 -3.27680
22.89 22.912710 0.0 111.20 15.018670 0.0960 0.1020 1.0 0.0 200.0 14.67320 506.153850 197.0 14.67320 18778.0 889065.461540 141.583330 43.0 838524785.559040 0.0 0.0 0.0 0.0 0.0 0.0 0.0 -3.27680 -3.27680 -3.27680 -3.27680 -3.27680 -3.27680
22.88 22.900510 0.0 111.250 15.0060 0.0960 0.1020 1.0 0.0 200.0 14.483660 505.384620 197.0 14.483660 18770.153850 889066.0 141.666670 43.0 838525799.996950 0.0 0.0 0.0 0.0 0.0 0.0 0.0 -3.27680 -3.27680 -3.27680 -3.27680 -3.27680 -3.27680
22.87 22.88830 0.0 111.30 14.993330 0.0960 0.1020 1.0 0.0 200.0 14.294120 504.615380 197.0 14.294120 18762.307690 889066.250 141.750 43.0 838526270.988620 0.0 0.0 0.0 0.0 0.0 0.0 0.0 -3.27680 -3.27680 -3.27680 -3.27680 -3.27680 -3.27680
22.86 22.87990 0.0 111.333330 14.980670 0.0960 0.1020 1.0 0.0 200.0 14.104580 503.846150 197.0 14.104580 18754.461540 889066.50 141.833330 43.0 838526741.98030 0.0 0.0 0.0 0.0 0.0 0.0 0.0 -3.27680 -3.27680 -3.27680 -3.27680 -3.27680 -3.27680
22.85 22.87150 0.0 111.366670 14.9680 0.0960 0.1020 1.0 0.0 200.0 13.915030 503.076920 197.0 13.915030 18746.615380 889066.750 141.916670 43.0 838527212.971970 0.0 0.0 0.0 0.0 0.0 0.0 0.0 -3.27680 -3.27680 -3.27680 -3.27680 -3.27680 -3.27680
22.84 22.86310 0.0 111.40 14.955330 0.0960 0.1020 1.0 0.0 200.0 13.725490 502.307690 197.0 13.725490 18738.769230 889067.0 142.0 43.0 838527683.963640 0.0 0.0 0.0 0.0 0.0 0.0 0.0 -3.27680 -3.27680 -3.27680 -3.27680 -3.27680 -3.27680
22.83 22.850890 0.0 111.450 14.942670 0.0960 0.1020 1.0 0.0 200.0 13.131220 501.538460 197.0 13.131220 18730.923080 889067.250 141.923080 43.0 838528154.955320 0.0 0.0 0.0 0.0 0.0 0.0 0.0 -3.27680 -3.27680 -3.27680 -3.27680 -3.27680 -3.27680
22.82 22.838680 0.0 111.50 14.930 0.0960 0.1020 1.0 0.0 200.0 12.536950 500.769230 197.0 12.536950 18723.076920 889067.50 141.846150 43.0 838528625.946990 0.0 0.0 0.0 0.0 0.0 0.0 0.0 -3.27680 -3.27680 -3.27680 -3.27680 -3.27680 -3.27680
22.81 22.830280 0.0 111.533330 14.932670 0.0960 0.1020 1.0 0.0 200.0 11.942680 500.0 197.0 11.942680 18715.230770 889067.750 141.769230 43.0 838529096.938660 0.0 0.0 0.0 0.0 0.0 0.0 0.0 -3.27680 -3.27680 -3.27680 -3.27680 -3.27680 -3.27680
22.80 22.821880 0.0 111.566670 14.935330 0.0960 0.1020 1.0 0.0 200.0 11.348420 500.0 197.0 11.348420 18707.384620 889068.0 141.692310 43.0 838529567.930340 0.0 0.0 0.0 0.0 0.0 0.0 0.0 -3.27680 -3.27680 -3.27680 -3.27680 -3.27680 -3.27680
22.79 22.813480 0.0 111.60 14.9380 0.0960 0.1020 1.0 0.0 200.0 10.754150 500.0 197.0 10.754150 18699.538460 889068.250 141.615380 43.0 838530038.922010 0.0 0.0 0.0 0.0 0.0 0.0 0.0 -3.27680 -3.27680 -3.27680 -3.27680 -3.27680 -3.27680
22.78 22.800880 0.0 111.650 14.940670 0.0960 0.1020 1.0 0.0 200.0 10.159880 500.0 197.0 10.159880 18691.692310 889068.50 141.538460 43.0 838530509.913680 0.0 0.0 0.0 0.0 0.0 0.0 0.0 -3.27680 -3.27680 -3.27680 -3.27680 -3.27680 -3.27680
22.77 22.788270 0.0 111.70 14.943330 0.0960 0.1020 1.0 0.0 200.0 9.565610 500.0 197.0 9.565610 18683.846150 889068.750 141.461540 43.0 838530980.905360 0.0 0.0 0.0 0.0 0.0 0.0 0.0 -3.27680 -3.27680 -3.27680 -3.27680 -3.27680 -3.27680
22.76 22.779870 0.0 111.733330 14.9460 0.0960 0.1020 1.0 0.0 200.0 8.971340 500.0 197.0 8.971340 18676.0 889069.0 141.384620 43.0 838531451.897030 0.0 0.0 0.0 0.0 0.0 0.0 0.0 -3.27680 -3.27680 -3.27680 -3.27680 -3.27680 -3.27680
22.75 22.771470 0.0 111.766670 14.948670 0.0960 0.1020 1.0 0.0 200.0 8.377070 500.0 197.0 8.377070 18673.833330 889069.076920 141.307690 43.0 838531596.817870 0.0 0.0 0.0 0.0 0.0 0.0 0.0 -3.27680 -3.27680 -3.27680 -3.27680 -3.27680 -3.27680
22.74 22.763070 0.0 111.80 14.951330 0.0960 0.1020 1.0 0.0 200.0 7.782810 500.0 197.0 7.782810 18671.666670 889069.153850 141.230770 43.0 838531741.738710 0.0 0.0 0.0 0.0 0.0 0.0 0.0 -3.27680 -3.27680 -3.27680 -3.27680 -3.27680 -3.27680
22.73 22.750860 0.0 111.850 14.9540 0.0960 0.1020 1.0 0.0 200.0 7.188540 500.0 197.0 7.188540 18669.50 889069.230770 141.153850 43.0 838531886.659550 0.0 0.0 0.0 0.0 0.0 0.0 0.0 -3.27680 -3.27680 -3.27680 -3.27680 -3.27680 -3.27680
22.72 22.738660 0.0 111.90 14.956670 0.0960 0.1020 1.0 0.0 200.0 6.594270 500.0 197.0 6.594270 18667.333330 889069.307690 141.076920 43.0 838532031.580390 0.0 0.0 0.0 0.0 0.0 0.0 0.0 -3.27680 -3.27680 -3.27680 -3.27680 -3.27680 -3.27680
22.71 22.730520 0.0 111.933330 14.959330 0.0960 0.1020 1.0 0.0 200.0 6.0 500.0 197.0 6.0 18665.166670 889069.384620 141.0 43.0 838532176.501230 0.0 0.0 0.0 0.0 0.0 0.0 0.0 -3.27680 -3.27680 -3.27680 -3.27680 -3.27680 -3.27680
22.70 22.722380 0.0 111.966670 14.9620 0.0960 0.1020 1.0 0.0 200.0 6.833330 500.0 197.0 6.833330 18663.0 889069.461540 141.0 43.0 838532321.422070 0.0 0.0 0.0 0.0 0.0 0.0 0.0 -3.27680 -3.27680 -3.27680 -3.27680 -3.27680 -3.27680
22.69 22.714240 0.0 112.0 14.964670 0.0960 0.1020 1.0 0.0 200.0 7.666670 500.0 197.0 7.666670 18660.833330 889069.538460 141.0 43.0 838532466.342910 0.0 0.0 0.0 0.0 0.0 0.0 0.0 -3.27680 -3.27680 -3.27680 -3.27680 -3.27680 -3.27680
22.68 22.701640 0.0 112.050 14.967330 0.0960 0.1020 1.0 0.0 200.0 8.50 500.0 197.0 8.50 18658.666670 889069.615380 141.0 43.0 838532611.263750 0.0 0.0 0.0 0.0 0.0 0.0 0.0 -3.27680 -3.27680 -3.27680 -3.27680 -3.27680 -3.27680
22.67 22.689040 0.0 112.10 14.970 0.0960 0.1020 1.0 0.0 200.0 9.333330 500.0 197.0 9.333330 18656.50 889069.692310 141.0 43.0 838532756.184590 0.0 0.0 0.0 0.0 0.0 0.0 0.0 -3.27680 -3.27680 -3.27680 -3.27680 -3.27680 -3.27680
22.66 22.680370 0.0 112.133330 14.973330 0.0960 0.1020 1.0 0.0 200.0 10.166670 500.0 197.0 10.166670 18654.333330 889069.769230 141.0 43.0 838532901.105430 0.0 0.0 0.0 0.0 0.0 0.0 0.0 -3.27680 -3.27680 -3.27680 -3.27680 -3.27680 -3.27680
22.65 22.671710 0.0 112.166670 14.976670 0.0960 0.1020 1.0 0.0 200.0 11.0 500.0 197.0 11.0 18652.166670 889069.846150 141.0 43.0 838533046.026270 0.0 0.0 0.0 0.0 0.0 0.0 0.0 -3.27680 -3.27680 -3.27680 -3.27680 -3.27680 -3.27680
