~VERSION INFORMATION SECTION
VERS. 2.0 : CWLS LAS-VERSION 2.0
WRAP. NO : One line per depth step
~WELL INFORMATION SECTION
# MNEM.UNIT VALUE/NAME DESCRIPTION
#-------- -------------- ---------------------
STRT.Metres 26 : Start
STOP.Metres -2.05 : Stop
STEP.Metres -0.01 : Step
NULL.  -999.25 :NULL VALUE
DATE. 2026-23-09 : DATE
~CURVE INFORMATION SECTION
DEPTH.Metres : 0 Depth
Depth. : 1 Depth
Tension. : 2 Tension
Time. : 3 Time
Speed. : 4 Speed
Voltage. : 5 Voltage
Current. : 6 Current
WET. : 7 WET
Sig. : 8 Sig
Vth. : 9 Vth
GR.CPS : 10 GR
Timebase.ms : 11 Timebase
HeadVoltage.V : 12 Head Voltage
API.API : 13 API
Conductivity.uS : 14 Conductivity
PT100.Ohms : 15 PT100
Vmon.mV : 16 Vmon
Status. : 17 Status
Temperature.C : 18 Temperature
Incline.Deg : 19 Incline
Azimuth.Deg : 20 Azimuth
RelativeBearing.Deg : 21 Relative Bearing
MagneticToolFace.Deg : 22 Magnetic Tool Face
GravityMagnitude.G : 23 Gravity Magnitude
MagnetometerMagnitude.H : 24 Magnetometer Magnitude
Temperature.C : 25 Temperature
GX. : 26 GX
GY. : 27 GY
GZ. : 28 GZ
HX. : 29 HX
HY. : 30 HY
HZ. : 31 HZ
~PARAMETER INFORMATION SECTION
~OTHER
#-------------------------------------------------
#Produced By: GeoVista Logger - Version 7.1.107.0
Verticality Sonde - 9605
Temperature and Conductivity Sonde - Inline - 8974
Natural Gamma Sonde - 9931
WLIS - 10021
#-------------------------------------------------
~ASCII LOG DATA
# ...
14.54 14.560790 0.0 57.266670 15.0 0.0960 0.1020 1.0 31.0 200.0 26.923080 500.833330 197.0 26.923080 2596.769230 889480.0 158.0 43.0 839305942.283860 0.0 0.0 0.0 0.0 0.0 0.0 0.0 -3.27680 -3.27680 -3.27680 -3.27680 -3.27680 -3.27680
14.53 14.552390 0.0 57.30 15.003330 0.0960 0.1020 1.0 31.0 200.0 26.153850 501.666670 197.0 26.153850 2593.076920 889480.750 158.0 43.0 839307355.911260 0.0 0.0 0.0 0.0 0.0 0.0 0.0 -3.27680 -3.27680 -3.27680 -3.27680 -3.27680 -3.27680
14.52 14.539790 0.0 57.350 15.006670 0.0960 0.1020 1.0 31.083330 200.0 25.384620 502.50 197.0 25.384620 2589.384620 889481.50 158.0 43.0 839308769.538660 0.0 0.0 0.0 0.0 0.0 0.0 0.0 -3.27680 -3.27680 -3.27680 -3.27680 -3.27680 -3.27680
14.51 14.527190 0.0 57.40 15.010 0.0960 0.1020 1.0 31.166670 200.0 24.615380 503.333330 197.0 24.615380 2585.692310 889482.250 158.0 43.0 839310183.166060 0.0 0.0 0.0 0.0 0.0 0.0 0.0 -3.27680 -3.27680 -3.27680 -3.27680 -3.27680 -3.27680
14.50 14.518790 0.0 57.433330 15.013330 0.0960 0.1020 1.0 31.250 200.0 23.846150 504.166670 197.0 23.846150 2582.0 889483.0 158.0 43.0 839311596.793460 0.0 0.0 0.0 0.0 0.0 0.0 0.0 -3.27680 -3.27680 -3.27680 -3.27680 -3.27680 -3.27680
14.49 14.510390 0.0 57.466670 15.016670 0.0960 0.1020 1.0 31.333330 200.0 23.076920 505.0 197.0 23.076920 2578.416670 889483.846150 158.0 43.0 839313191.673050 0.0 0.0 0.0 0.0 0.0 0.0 0.0 -3.27680 -3.27680 -3.27680 -3.27680 -3.27680 -3.27680
14.48 14.501990 0.0 57.50 15.020 0.0960 0.1020 1.0 31.416670 200.0 22.307690 505.833330 197.0 22.307690 2574.833330 889484.692310 158.0 43.0 839314786.552640 0.0 0.0 0.0 0.0 0.0 0.0 0.0 -3.27680 -3.27680 -3.27680 -3.27680 -3.27680 -3.27680
14.47 14.489390 0.0 57.550 15.023330 0.0960 0.1020 1.0 31.50 200.0 21.538460 506.666670 197.0 21.538460 2571.250 889485.538460 158.0 43.0 839316381.432230 0.0 0.0 0.0 0.0 0.0 0.0 0.0 -3.27680 -3.27680 -3.27680 -3.27680 -3.27680 -3.27680
14.46 14.476780 0.0 57.60 15.026670 0.0960 0.1020 1.0 31.583330 200.0 20.769230 507.50 197.0 20.769230 2567.666670 889486.384620 158.0 43.0 839317976.311820 0.0 0.0 0.0 0.0 0.0 0.0 0.0 -3.27680 -3.27680 -3.27680 -3.27680 -3.27680 -3.27680
14.45 14.468380 0.0 57.633330 15.030 0.0960 0.1020 1.0 31.666670 200.0 20.0 508.333330 197.0 20.0 2564.083330 889487.230770 158.0 43.0 839319571.191410 0.0 0.0 0.0 0.0 0.0 0.0 0.0 -3.27680 -3.27680 -3.27680 -3.27680 -3.27680 -3.27680
14.44 14.459980 0.0 57.666670 15.033330 0.0960 0.1020 1.0 31.750 200.0 20.947710 509.166670 197.0 20.947710 2560.50 889488.076920 158.0 43.0 839321166.0710 0.0 0.0 0.0 0.0 0.0 0.0 0.0 -3.27680 -3.27680 -3.27680 -3.27680 -3.27680 -3.27680
14.43 14.451580 0.0 57.70 15.036670 0.0960 0.1020 1.0 31.833330 200.0 21.895420 510.0 197.0 21.895420 2556.916670 889488.923080 158.0 43.0 839322760.950590 0.0 0.0 0.0 0.0 0.0 0.0 0.0 -3.27680 -3.27680 -3.27680 -3.27680 -3.27680 -3.27680
14.42 14.438980 0.0 57.750 15.040 0.0960 0.1020 1.0 31.916670 200.0 22.843140 509.230770 197.0 22.843140 2553.333330 889489.769230 158.0 43.0 839324355.830180 0.0 0.0 0.0 0.0 0.0 0.0 0.0 -3.27680 -3.27680 -3.27680 -3.27680 -3.27680 -3.27680
14.41 14.426380 0.0 57.80 15.043330 0.0960 0.1020 1.0 32.0 200.0 23.790850 508.461540 197.0 23.790850 2549.750 889490.615380 158.0 43.0 839325950.709770 0.0 0.0 0.0 0.0 0.0 0.0 0.0 -3.27680 -3.27680 -3.27680 -3.27680 -3.27680 -3.27680
14.40 14.417980 0.0 57.833330 15.046670 0.0960 0.1020 1.0 32.0 200.0 24.738560 507.692310 197.0 24.738560 2546.166670 889491.461540 158.0 43.0 839327545.589360 0.0 0.0 0.0 0.0 0.0 0.0 0.0 -3.27680 -3.27680 -3.27680 -3.27680 -3.27680 -3.27680
14.39 14.409580 0.0 57.866670 15.050 0.0960 0.1020 1.0 32.0 200.0 25.686270 506.923080 197.0 25.686270 2542.583330 889492.307690 158.0 43.0 839329140.468950 0.0 0.0 0.0 0.0 0.0 0.0 0.0 -3.27680 -3.27680 -3.27680 -3.27680 -3.27680 -3.27680
14.38 14.401170 0.0 57.90 15.053330 0.0960 0.1020 1.0 32.0 200.0 26.633990 506.153850 197.0 26.633990 2539.0 889493.153850 158.0 43.0 839330735.348540 0.0 0.0 0.0 0.0 0.0 0.0 0.0 -3.27680 -3.27680 -3.27680 -3.27680 -3.27680 -3.27680
14.37 14.388570 0.0 57.950 15.056670 0.0960 0.1020 1.0 32.0 200.0 27.58170 505.384620 197.0 27.58170 2536.0 889494.0 158.0 43.0 839332330.228130 0.0 0.0 0.0 0.0 0.0 0.0 0.0 -3.27680 -3.27680 -3.27680 -3.27680 -3.27680 -3.27680
14.36 14.375970 0.0 58.0 15.060 0.0960 0.1020 1.0 32.0 200.0 28.529410 504.615380 197.0 28.529410 2533.0 889495.083330 158.0 43.0 839334372.184820 0.0 0.0 0.0 0.0 0.0 0.0 0.0 -3.27680 -3.27680 -3.27680 -3.27680 -3.27680 -3.27680
14.35 14.367830 0.0 58.033330 15.063330 0.0960 0.1020 1.0 32.0 200.0 29.477120 503.846150 197.0 29.477120 2530.0 889496.166670 158.0 43.0 839336414.14150 0.0 0.0 0.0 0.0 0.0 0.0 0.0 -3.27680 -3.27680 -3.27680 -3.27680 -3.27680 -3.27680
14.34 14.359690 0.0 58.066670 15.066670 0.0960 0.1020 1.0 32.0 200.0 30.424840 503.076920 197.0 30.424840 2527.0 889497.250 158.0 43.0 839338456.098190 0.0 0.0 0.0 0.0 0.0 0.0 0.0 -3.27680 -3.27680 -3.27680 -3.27680 -3.27680 -3.27680
14.33 14.351560 0.0 58.10 15.070 0.0960 0.1020 1.0 32.0 200.0 31.372550 502.307690 197.0 31.372550 2524.0 889498.333330 158.0 43.0 839340498.054880 0.0 0.0 0.0 0.0 0.0 0.0 0.0 -3.27680 -3.27680 -3.27680 -3.27680 -3.27680 -3.27680
14.32 14.338950 0.0 58.150 15.063330 0.0960 0.1020 1.0 32.0 200.0 30.959280 501.538460 197.0 30.959280 2521.0 889499.416670 158.0 43.0 839342540.011560 0.0 0.0 0.0 0.0 0.0 0.0 0.0 -3.27680 -3.27680 -3.27680 -3.27680 -3.27680 -3.27680
14.31 14.326350 0.0 58.20 15.056670 0.0960 0.1020 1.0 32.0 200.0 30.5460 500.769230 197.0 30.5460 2518.0 889500.50 158.0 43.0 839344581.968250 0.0 0.0 0.0 0.0 0.0 0.0 0.0 -3.27680 -3.27680 -3.27680 -3.27680 -3.27680 -3.27680
14.30 14.318210 0.0 58.233330 15.050 0.0960 0.1020 1.0 32.0 200.0 30.132730 500.0 197.0 30.132730 2515.0 889501.583330 158.0 43.0 839346623.924930 0.0 0.0 0.0 0.0 0.0 0.0 0.0 -3.27680 -3.27680 -3.27680 -3.27680 -3.27680 -3.27680
14.29 14.310080 0.0 58.266670 15.043330 0.0960 0.1020 1.0 32.0 200.0 29.719460 500.0 197.0 29.719460 2512.0 889502.666670 158.0 43.0 839348665.881620 0.0 0.0 0.0 0.0 0.0 0.0 0.0 -3.27680 -3.27680 -3.27680 -3.27680 -3.27680 -3.27680
14.28 14.301940 0.0 58.30 15.036670 0.0960 0.1020 1.0 32.0 200.0 29.306180 500.0 197.0 29.306180 2509.0 889503.750 158.0 43.0 839350707.83830 0.0 0.0 0.0 0.0 0.0 0.0 0.0 -3.27680 -3.27680 -3.27680 -3.27680 -3.27680 -3.27680
14.27 14.289340 0.0 58.350 15.030 0.0960 0.1020 1.0 32.083330 200.0 28.892910 500.0 197.0 28.892910 2506.0 889504.833330 158.0 43.0 839352749.794990 0.0 0.0 0.0 0.0 0.0 0.0 0.0 -3.27680 -3.27680 -3.27680 -3.27680 -3.27680 -3.27680
14.26 14.276730 0.0 58.40 15.023330 0.0960 0.1020 1.0 32.166670 200.0 28.479640 500.0 197.0 28.479640 2503.0 889505.916670 158.0 43.0 839354791.751670 0.0 0.0 0.0 0.0 0.0 0.0 0.0 -3.27680 -3.27680 -3.27680 -3.27680 -3.27680 -3.27680
14.25 14.26860 0.0 58.433330 15.016670 0.0960 0.1020 1.0 32.250 200.0 28.066370 500.0 197.0 28.066370 2500.0 889507.0 158.0 43.0 839356833.708360 0.0 0.0 0.0 0.0 0.0 0.0 0.0 -3.27680 -3.27680 -3.27680 -3.27680 -3.27680 -3.27680
14.24 14.260460 0.0 58.466670 15.010 0.0960 0.1020 1.0 32.333330 200.0 27.653090 500.0 197.0 27.653090 2498.833330 889507.846150 158.0 43.0 839358428.630930 0.0 0.0 0.0 0.0 0.0 0.0 0.0 -3.27680 -3.27680 -3.27680 -3.27680 -3.27680 -3.27680
14.23 14.252320 0.0 58.50 15.003330 0.0960 0.1020 1.0 32.416670 200.0 27.239820 500.0 197.0 27.239820 2497.666670 889508.692310 158.0 43.0 839360023.55350 0.0 0.0 0.0 0.0 0.0 0.0 0.0 -3.27680 -3.27680 -3.27680 -3.27680 -3.27680 -3.27680
14.22 14.239720 0.0 58.550 14.996670 0.0960 0.1020 1.0 32.50 200.0 26.826550 500.0 197.0 26.826550 2496.50 889509.538460 158.0 43.0 839361618.476070 0.0 0.0 0.0 0.0 0.0 0.0 0.0 -3.27680 -3.27680 -3.27680 -3.27680 -3.27680 -3.27680
14.21 14.227120 0.0 58.60 14.990 0.0960 0.1020 1.0 32.583330 200.0 26.413270 500.0 197.0 26.413270 2495.333330 889510.384620 158.0 43.0 839363213.398640 0.0 0.0 0.0 0.0 0.0 0.0 0.0 -3.27680 -3.27680 -3.27680 -3.27680 -3.27680 -3.27680
14.20 14.218720 0.0 58.633330 14.983330 0.0960 0.1020 1.0 32.666670 200.0 26.0 500.0 197.0 26.0 2494.166670 889511.230770 158.0 43.0 839364808.32120 0.0 0.0 0.0 0.0 0.0 0.0 0.0 -3.27680 -3.27680 -3.27680 -3.27680 -3.27680 -3.27680
