~VERSION INFORMATION SECTION
VERS. 2.0 : CWLS LAS-VERSION 2.0
WRAP. NO : One line per depth step
~WELL INFORMATION SECTION
# MNEM.UNIT VALUE/NAME DESCRIPTION
#-------- -------------- ---------------------
STRT.Metres 19 : Start
STOP.Metres -2.05 : Stop
STEP.Metres -0.01 : Step
NULL.  -999.25 :NULL VALUE
DATE. 2026-03-09 : DATE
~CURVE INFORMATION SECTION
DEPTH.Metres : 0 Depth
Depth. : 1 Depth
Tension. : 2 Tension
Time. : 3 Time
Speed. : 4 Speed
Voltage. : 5 Voltage
Current. : 6 Current
WET. : 7 WET
Sig. : 8 Sig
Vth. : 9 Vth
GR.CPS : 10 GR
Timebase.ms : 11 Timebase
HeadVoltage.V : 12 Head Voltage
API.API : 13 API
Conductivity.uS : 14 Conductivity
PT100.Ohms : 15 PT100
Vmon.mV : 16 Vmon
Status. : 17 Status
Temperature.C : 18 Temperature
Incline.Deg : 19 Incline
Azimuth.Deg : 20 Azimuth
RelativeBearing.Deg : 21 Relative Bearing
MagneticToolFace.Deg : 22 Magnetic Tool Face
GravityMagnitude.G : 23 Gravity Magnitude
MagnetometerMagnitude.H : 24 Magnetometer Magnitude
Temperature.C : 25 Temperature
GX. : 26 GX
GY. : 27 GY
GZ. : 28 GZ
HX. : 29 HX
HY. : 30 HY
HZ. : 31 HZ
~PARAMETER INFORMATION SECTION
~OTHER
#-------------------------------------------------
#Produced By: GeoVista Logger - Version 7.1.107.0
Verticality Sonde - 9605
Temperature and Conductivity Sonde - Inline - 8974
Natural Gamma Sonde - 9931
WLIS - 10021
#-------------------------------------------------
~ASCII LOG DATA
# ...
1.59 1.591730 0.0 234.70 4.9920 0.0960 0.1020 1.0 44.0 200.0 19.0 500.0 197.0 19.0 1720.0 890640.750 123.50 41.0 841495195.716620 0.0 0.0 0.0 0.0 0.0 0.0 0.0 -3.27680 -3.27680 -3.27680 -3.27680 -3.27680 -3.27680
1.58 1.583070 0.0 234.80 5.0 0.0960 0.1020 1.0 44.0 200.0 22.0 500.0 197.0 22.0 1723.750 890642.0 115.0 41.0 841497554.833710 0.0 0.0 0.0 0.0 0.0 0.0 0.0 -3.27680 -3.27680 -3.27680 -3.27680 -3.27680 -3.27680
1.57 1.575190 0.0 234.90 5.0 0.0960 0.1020 1.0 44.0 200.0 25.0 500.0 197.0 25.0 1727.50 890640.750 127.0 41.0 841495195.716620 0.0 0.0 0.0 0.0 0.0 0.0 0.0 -3.27680 -3.27680 -3.27680 -3.27680 -3.27680 -3.27680
1.56 1.566530 0.0 235.0 5.0 0.0960 0.1020 0.750 281.0 200.0 28.0 500.0 197.0 28.0 1731.250 890639.50 139.0 41.0 841492836.599530 0.0 0.0 0.0 0.0 0.0 0.0 0.0 -3.27680 -3.27680 -3.27680 -3.27680 -3.27680 -3.27680
1.55 1.557860 0.0 235.10 5.0 0.0960 0.1020 0.50 518.0 200.0 25.50 500.0 197.0 25.50 1735.0 890638.250 151.0 41.0 841490477.482430 0.0 0.0 0.0 0.0 0.0 0.0 0.0 -3.27680 -3.27680 -3.27680 -3.27680 -3.27680 -3.27680
1.54 1.545660 0.0 235.250 5.0 0.0960 0.1020 0.250 755.0 200.0 23.0 500.0 197.0 23.0 1730.60 890637.0 163.0 41.0 841488118.365340 0.0 0.0 0.0 0.0 0.0 0.0 0.0 -3.27680 -3.27680 -3.27680 -3.27680 -3.27680 -3.27680
1.53 1.532660 0.0 235.40 5.0 0.0960 0.1020 0.0 992.0 200.0 20.50 500.0 197.0 20.50 1726.20 890637.250 160.0 41.0 841488590.18770 0.0 0.0 0.0 0.0 0.0 0.0 0.0 -3.27680 -3.27680 -3.27680 -3.27680 -3.27680 -3.27680
1.52 1.524780 0.0 235.50 5.0 0.0960 0.1020 0.0 992.250 200.0 18.0 500.0 197.0 18.0 1721.80 890637.50 157.0 41.0 841489062.010060 0.0 0.0 0.0 0.0 0.0 0.0 0.0 -3.27680 -3.27680 -3.27680 -3.27680 -3.27680 -3.27680
1.51 1.516120 0.0 235.60 5.0 0.0960 0.10 0.0 992.50 200.0 20.80 500.0 197.0 20.80 1717.40 890637.750 154.0 41.0 841489533.832420 0.0 0.0 0.0 0.0 0.0 0.0 0.0 -3.27680 -3.27680 -3.27680 -3.27680 -3.27680 -3.27680
1.50 1.508240 0.0 235.70 5.0 0.0960 0.1020 0.0 992.750 200.0 23.60 500.0 197.0 23.60 1713.0 890638.0 151.0 41.0 841490005.654780 0.0 0.0 0.0 0.0 0.0 0.0 0.0 -3.27680 -3.27680 -3.27680 -3.27680 -3.27680 -3.27680
1.49 1.495250 0.0 235.850 5.0 0.0960 0.1020 0.0 993.0 200.0 26.40 500.0 197.0 26.40 1709.0 890637.50 129.0 41.0 841489062.010590 0.0 0.0 0.0 0.0 0.0 0.0 0.0 -3.27680 -3.27680 -3.27680 -3.27680 -3.27680 -3.27680
1.48 1.483040 0.0 236.0 5.0 0.0960 0.1020 0.0 993.250 200.0 29.20 500.0 197.0 29.20 1705.0 890637.0 107.0 41.0 841488118.36640 0.0 0.0 0.0 0.0 0.0 0.0 0.0 -3.27680 -3.27680 -3.27680 -3.27680 -3.27680 -3.27680
1.47 1.474380 0.0 236.10 4.9920 0.0960 0.1020 0.0 993.50 200.0 32.0 500.0 197.0 32.0 1701.0 890636.50 85.0 41.0 841487174.722210 0.0 0.0 0.0 0.0 0.0 0.0 0.0 -3.27680 -3.27680 -3.27680 -3.27680 -3.27680 -3.27680
1.46 1.46650 0.0 236.20 4.9840 0.0960 0.1020 0.0 993.750 200.0 28.50 500.0 197.0 28.50 1697.0 890636.0 63.0 41.0 841486231.078020 0.0 0.0 0.0 0.0 0.0 0.0 0.0 -3.27680 -3.27680 -3.27680 -3.27680 -3.27680 -3.27680
1.45 1.457840 0.0 236.30 4.9760 0.0960 0.1020 0.0 994.0 200.0 25.0 500.0 197.0 25.0 1699.250 890635.50 51.80 41.0 841485287.435940 0.0 0.0 0.0 0.0 0.0 0.0 0.0 -3.27680 -3.27680 -3.27680 -3.27680 -3.27680 -3.27680
1.44 1.445630 0.0 236.450 4.9680 0.0960 0.1020 0.0 994.250 200.0 21.50 502.50 197.0 21.50 1701.50 890635.0 40.60 41.0 841484343.793870 0.0 0.0 0.0 0.0 0.0 0.0 0.0 -3.27680 -3.27680 -3.27680 -3.27680 -3.27680 -3.27680
1.43 1.432640 0.0 236.60 4.960 0.0960 0.1020 0.0 994.50 200.0 18.0 505.0 197.0 18.0 1703.750 890634.50 29.40 41.0 841483400.151790 0.0 0.0 0.0 0.0 0.0 0.0 0.0 -3.27680 -3.27680 -3.27680 -3.27680 -3.27680 -3.27680
1.42 1.424760 0.0 236.70 4.9680 0.0960 0.1020 0.0 994.750 200.0 17.50 507.50 197.0 17.50 1706.0 890634.0 18.20 41.0 841482456.509720 0.0 0.0 0.0 0.0 0.0 0.0 0.0 -3.27680 -3.27680 -3.27680 -3.27680 -3.27680 -3.27680
1.41 1.416880 0.0 236.80 4.9760 0.0960 0.1020 0.0 995.0 200.0 17.0 510.0 197.0 17.0 1709.750 890634.0 7.0 41.0 841482456.509720 0.0 0.0 0.0 0.0 0.0 0.0 0.0 -3.27680 -3.27680 -3.27680 -3.27680 -3.27680 -3.27680
1.40 1.408220 0.0 236.90 4.9840 0.0960 0.1020 0.0 994.0 200.0 16.50 507.50 197.0 16.50 1713.50 890634.0 5.250 41.0 841482456.509720 0.0 0.0 0.0 0.0 0.0 0.0 0.0 -3.27680 -3.27680 -3.27680 -3.27680 -3.27680 -3.27680
1.39 1.395620 0.0 237.050 4.9920 0.0960 0.1020 0.0 993.0 200.0 16.0 505.0 197.0 16.0 1717.250 890634.0 3.50 41.0 841482456.509720 0.0 0.0 0.0 0.0 0.0 0.0 0.0 -3.27680 -3.27680 -3.27680 -3.27680 -3.27680 -3.27680
1.38 1.383020 0.0 237.20 5.0 0.0960 0.1020 0.0 992.0 200.0 16.0 502.50 197.0 16.0 1721.0 890634.0 1.750 41.0 841482456.509720 0.0 0.0 0.0 0.0 0.0 0.0 0.0 -3.27680 -3.27680 -3.27680 -3.27680 -3.27680 -3.27680
1.37 1.374350 0.0 237.30 5.020 0.0960 0.1020 0.0 991.0 200.0 16.0 500.0 197.0 16.0 1571.750 890634.0 0.0 41.0 841482456.509720 0.0 0.0 0.0 0.0 0.0 0.0 0.0 -3.27680 -3.27680 -3.27680 -3.27680 -3.27680 -3.27680
1.36 1.366480 0.0 237.40 5.040 0.0960 0.1020 0.0 990.0 200.0 16.0 500.0 197.0 16.0 1422.50 890633.50 0.250 41.0 841481512.869760 0.0 0.0 0.0 0.0 0.0 0.0 0.0 -3.27680 -3.27680 -3.27680 -3.27680 -3.27680 -3.27680
1.35 1.357810 0.0 237.50 5.060 0.0960 0.1020 0.0 990.50 200.0 16.0 500.0 197.0 16.0 1273.250 890633.0 0.50 41.0 841480569.22980 0.0 0.0 0.0 0.0 0.0 0.0 0.0 -3.27680 -3.27680 -3.27680 -3.27680 -3.27680 -3.27680
1.34 1.3460 0.0 237.650 5.080 0.0960 0.1020 0.0 991.0 200.0 21.803920 500.0 197.0 21.803920 1124.0 890632.50 0.750 41.0 841479625.589840 0.0 0.0 0.0 0.0 0.0 0.0 0.0 -3.27680 -3.27680 -3.27680 -3.27680 -3.27680 -3.27680
1.33 1.33340 0.0 237.80 5.10 0.0960 0.1020 0.0 991.50 200.0 27.607840 500.0 197.0 27.607840 1120.0 890632.0 1.0 41.0 841478681.949880 0.0 0.0 0.0 0.0 0.0 0.0 0.0 -3.27680 -3.27680 -3.27680 -3.27680 -3.27680 -3.27680
1.32 1.324730 0.0 237.90 5.0720 0.0960 0.1020 0.0 992.0 200.0 33.411760 500.0 197.0 33.411760 1116.0 890632.0 0.750 41.0 841478681.949880 0.0 0.0 0.0 0.0 0.0 0.0 0.0 -3.27680 -3.27680 -3.27680 -3.27680 -3.27680 -3.27680
1.31 1.316860 0.0 238.0 5.0440 0.0960 0.1020 0.0 992.250 200.0 39.215690 500.0 197.0 39.215690 1112.0 890632.0 0.50 41.0 841478681.949880 0.0 0.0 0.0 0.0 0.0 0.0 0.0 -3.27680 -3.27680 -3.27680 -3.27680 -3.27680 -3.27680
1.30 1.304260 0.0 238.150 5.0160 0.0960 0.1020 0.0 992.50 200.0 36.911760 500.0 197.0 36.911760 1108.0 890632.0 0.250 41.0 841478681.949880 0.0 0.0 0.0 0.0 0.0 0.0 0.0 -3.27680 -3.27680 -3.27680 -3.27680 -3.27680 -3.27680
1.29 1.291660 0.0 238.30 4.9880 0.0960 0.1020 0.0 992.750 200.0 34.607840 500.0 197.0 34.607840 883.250 890632.0 0.0 41.0 841478681.949880 0.0 0.0 0.0 0.0 0.0 0.0 0.0 -3.27680 -3.27680 -3.27680 -3.27680 -3.27680 -3.27680
1.28 1.283780 0.0 238.40 4.960 0.0960 0.1020 0.0 993.0 200.0 32.303920 500.0 197.0 32.303920 658.50 890631.250 0.0 41.0 841477266.493910 0.0 0.0 0.0 0.0 0.0 0.0 0.0 -3.27680 -3.27680 -3.27680 -3.27680 -3.27680 -3.27680
1.27 1.275120 0.0 238.50 4.9680 0.0960 0.1020 0.0 993.0 200.0 30.0 500.0 197.0 30.0 433.750 890630.50 0.0 41.0 841475851.037940 0.0 0.0 0.0 0.0 0.0 0.0 0.0 -3.27680 -3.27680 -3.27680 -3.27680 -3.27680 -3.27680
1.26 1.266450 0.0 238.60 4.9760 0.0960 0.1020 0.0 993.0 200.0 31.60 500.0 197.0 31.60 209.0 890629.750 0.0 41.0 841474435.581970 0.0 0.0 0.0 0.0 0.0 0.0 0.0 -3.27680 -3.27680 -3.27680 -3.27680 -3.27680 -3.27680
1.25 1.258580 0.0 238.70 4.9840 0.0960 0.1020 0.0 993.0 200.0 33.20 500.0 197.0 33.20 168.40 890629.0 0.0 41.0 841473020.1260 0.0 0.0 0.0 0.0 0.0 0.0 0.0 -3.27680 -3.27680 -3.27680 -3.27680 -3.27680 -3.27680
1.24 1.245980 0.0 238.850 4.9920 0.0960 0.1020 0.0 993.0 200.0 34.80 500.0 197.0 34.80 127.80 890628.0 0.0 41.0 841471132.858790 0.0 0.0 0.0 0.0 0.0 0.0 0.0 -3.27680 -3.27680 -3.27680 -3.27680 -3.27680 -3.27680
1.23 1.234160 0.0 239.0 5.0 0.0960 0.1020 0.0 993.0 200.0 36.40 500.0 197.0 36.40 87.20 890627.0 0.0 41.0 841469245.591570 0.0 0.0 0.0 0.0 0.0 0.0 0.0 -3.27680 -3.27680 -3.27680 -3.27680 -3.27680 -3.27680
1.22 1.22550 0.0 239.10 5.0 0.0960 0.1020 0.0 993.0 200.0 38.0 500.0 197.0 38.0 46.60 890626.0 0.0 41.0 841467358.324350 0.0 0.0 0.0 0.0 0.0 0.0 0.0 -3.27680 -3.27680 -3.27680 -3.27680 -3.27680 -3.27680
