~VERSION INFORMATION SECTION
VERS. 2.0 : CWLS LAS-VERSION 2.0
WRAP. NO : One line per depth step
~WELL INFORMATION SECTION
# MNEM.UNIT VALUE/NAME DESCRIPTION
#-------- -------------- ---------------------
STRT.Metres 26 : Start
STOP.Metres -2.05 : Stop
STEP.Metres -0.01 : Step
NULL.  -999.25 :NULL VALUE
DATE. 2026-23-09 : DATE
~CURVE INFORMATION SECTION
DEPTH.Metres : 0 Depth
Depth. : 1 Depth
Tension. : 2 Tension
Time. : 3 Time
Speed. : 4 Speed
Voltage. : 5 Voltage
Current. : 6 Current
WET. : 7 WET
Sig. : 8 Sig
Vth. : 9 Vth
GR.CPS : 10 GR
Timebase.ms : 11 Timebase
HeadVoltage.V : 12 Head Voltage
API.API : 13 API
Conductivity.uS : 14 Conductivity
PT100.Ohms : 15 PT100
Vmon.mV : 16 Vmon
Status. : 17 Status
Temperature.C : 18 Temperature
Incline.Deg : 19 Incline
Azimuth.Deg : 20 Azimuth
RelativeBearing.Deg : 21 Relative Bearing
MagneticToolFace.Deg : 22 Magnetic Tool Face
GravityMagnitude.G : 23 Gravity Magnitude
MagnetometerMagnitude.H : 24 Magnetometer Magnitude
Temperature.C : 25 Temperature
GX. : 26 GX
GY. : 27 GY
GZ. : 28 GZ
HX. : 29 HX
HY. : 30 HY
HZ. : 31 HZ
~PARAMETER INFORMATION SECTION
~OTHER
#-------------------------------------------------
#Produced By: GeoVista Logger - Version 7.1.107.0
Verticality Sonde - 9605
Temperature and Conductivity Sonde - Inline - 8974
Natural Gamma Sonde - 9931
WLIS - 10021
#-------------------------------------------------
~ASCII LOG DATA
# ...
21.18 21.204420 0.0 30.70 14.943330 0.0960 0.1020 1.0 1.0 200.0 16.923080 500.0 197.0 16.923080 15582.583330 889011.769230 154.0 47.0 838423634.331170 0.0 0.0 0.0 0.0 0.0 0.0 0.0 -3.27680 -3.27680 -3.27680 -3.27680 -3.27680 -3.27680
21.17 21.191820 0.0 30.750 14.9460 0.0960 0.1020 1.0 1.0 200.0 17.230770 500.0 197.0 17.230770 15569.666670 889012.307690 154.0 47.0 838424648.710960 0.0 0.0 0.0 0.0 0.0 0.0 0.0 -3.27680 -3.27680 -3.27680 -3.27680 -3.27680 -3.27680
21.16 21.179220 0.0 30.80 14.948670 0.0960 0.1020 1.0 1.0 200.0 17.538460 500.0 197.0 17.538460 15556.750 889012.846150 154.0 47.0 838425663.090740 0.0 0.0 0.0 0.0 0.0 0.0 0.0 -3.27680 -3.27680 -3.27680 -3.27680 -3.27680 -3.27680
21.15 21.170820 0.0 30.833330 14.951330 0.0960 0.1020 1.0 1.0 200.0 17.846150 500.0 197.0 17.846150 15543.833330 889013.384620 154.0 47.0 838426677.470530 0.0 0.0 0.0 0.0 0.0 0.0 0.0 -3.27680 -3.27680 -3.27680 -3.27680 -3.27680 -3.27680
21.14 21.162420 0.0 30.866670 14.9540 0.0960 0.1020 1.0 1.0 200.0 18.153850 500.0 197.0 18.153850 15530.916670 889013.923080 154.0 47.0 838427691.850320 0.0 0.0 0.0 0.0 0.0 0.0 0.0 -3.27680 -3.27680 -3.27680 -3.27680 -3.27680 -3.27680
21.13 21.154010 0.0 30.90 14.956670 0.0960 0.1020 1.0 1.0 200.0 18.461540 500.0 197.0 18.461540 15518.0 889014.461540 154.0 47.0 838428706.23010 0.0 0.0 0.0 0.0 0.0 0.0 0.0 -3.27680 -3.27680 -3.27680 -3.27680 -3.27680 -3.27680
21.12 21.141410 0.0 30.950 14.959330 0.0960 0.1020 1.0 1.0 200.0 18.769230 500.0 197.0 18.769230 15510.384620 889015.0 154.0 47.0 838429720.609890 0.0 0.0 0.0 0.0 0.0 0.0 0.0 -3.27680 -3.27680 -3.27680 -3.27680 -3.27680 -3.27680
21.11 21.128810 0.0 31.0 14.9620 0.0960 0.1020 1.0 1.0 200.0 19.076920 500.0 197.0 19.076920 15502.769230 889015.333330 154.0 47.0 838430348.563160 0.0 0.0 0.0 0.0 0.0 0.0 0.0 -3.27680 -3.27680 -3.27680 -3.27680 -3.27680 -3.27680
21.10 21.120410 0.0 31.033330 14.964670 0.0960 0.1020 1.0 1.0 200.0 19.384620 500.0 197.0 19.384620 15495.153850 889015.666670 154.0 47.0 838430976.516430 0.0 0.0 0.0 0.0 0.0 0.0 0.0 -3.27680 -3.27680 -3.27680 -3.27680 -3.27680 -3.27680
21.09 21.112010 0.0 31.066670 14.967330 0.0960 0.1020 1.0 1.0 200.0 19.692310 500.0 197.0 19.692310 15487.538460 889016.0 154.0 47.0 838431604.46970 0.0 0.0 0.0 0.0 0.0 0.0 0.0 -3.27680 -3.27680 -3.27680 -3.27680 -3.27680 -3.27680
21.08 21.103610 0.0 31.10 14.970 0.0960 0.1020 1.0 1.0 200.0 20.0 500.0 197.0 20.0 15479.923080 889016.333330 154.0 47.0 838432232.422980 0.0 0.0 0.0 0.0 0.0 0.0 0.0 -3.27680 -3.27680 -3.27680 -3.27680 -3.27680 -3.27680
21.07 21.09140 0.0 31.150 14.973330 0.0960 0.1020 1.0 1.0 200.0 19.833330 500.0 197.0 19.833330 15472.307690 889016.666670 153.923080 47.0 838432860.376250 0.0 0.0 0.0 0.0 0.0 0.0 0.0 -3.27680 -3.27680 -3.27680 -3.27680 -3.27680 -3.27680
21.06 21.079190 0.0 31.20 14.976670 0.0960 0.1020 1.0 1.0 200.0 19.666670 500.0 197.0 19.666670 15464.692310 889017.0 153.846150 47.0 838433488.329520 0.0 0.0 0.0 0.0 0.0 0.0 0.0 -3.27680 -3.27680 -3.27680 -3.27680 -3.27680 -3.27680
21.05 21.070790 0.0 31.233330 14.980 0.0960 0.1020 1.0 1.0 200.0 19.50 500.0 197.0 19.50 15457.076920 889017.333330 153.769230 47.0 838434116.282790 0.0 0.0 0.0 0.0 0.0 0.0 0.0 -3.27680 -3.27680 -3.27680 -3.27680 -3.27680 -3.27680
21.04 21.062390 0.0 31.266670 14.983330 0.0960 0.1020 1.0 1.0 200.0 19.333330 500.0 197.0 19.333330 15449.461540 889017.666670 153.692310 47.0 838434744.236060 0.0 0.0 0.0 0.0 0.0 0.0 0.0 -3.27680 -3.27680 -3.27680 -3.27680 -3.27680 -3.27680
21.03 21.053990 0.0 31.30 14.986670 0.0960 0.1020 1.0 1.0 200.0 19.166670 500.0 197.0 19.166670 15441.846150 889018.0 153.615380 47.0 838435372.189330 0.0 0.0 0.0 0.0 0.0 0.0 0.0 -3.27680 -3.27680 -3.27680 -3.27680 -3.27680 -3.27680
21.02 21.041780 0.0 31.350 14.990 0.0960 0.1020 1.0 1.0 200.0 19.0 500.0 197.0 19.0 15434.230770 889018.333330 153.538460 47.0 838436000.142610 0.0 0.0 0.0 0.0 0.0 0.0 0.0 -3.27680 -3.27680 -3.27680 -3.27680 -3.27680 -3.27680
21.01 21.029570 0.0 31.40 14.993330 0.0960 0.1020 1.0 1.0 200.0 18.833330 500.0 197.0 18.833330 15426.615380 889018.666670 153.461540 47.0 838436628.095880 0.0 0.0 0.0 0.0 0.0 0.0 0.0 -3.27680 -3.27680 -3.27680 -3.27680 -3.27680 -3.27680
21.00 21.021170 0.0 31.433330 14.996670 0.0960 0.1020 1.0 1.0 200.0 18.666670 500.0 197.0 18.666670 15419.0 889019.0 153.384620 47.0 838437256.049150 0.0 0.0 0.0 0.0 0.0 0.0 0.0 -3.27680 -3.27680 -3.27680 -3.27680 -3.27680 -3.27680
20.99 21.012770 0.0 31.466670 15.0 0.0960 0.1020 1.0 1.0 200.0 18.50 500.0 197.0 18.50 15407.666670 889019.384620 153.307690 47.0 838437980.614280 0.0 0.0 0.0 0.0 0.0 0.0 0.0 -3.27680 -3.27680 -3.27680 -3.27680 -3.27680 -3.27680
20.98 21.004370 0.0 31.50 15.003330 0.0960 0.1020 1.0 1.0 200.0 18.333330 500.0 197.0 18.333330 15396.333330 889019.769230 153.230770 47.0 838438705.179410 0.0 0.0 0.0 0.0 0.0 0.0 0.0 -3.27680 -3.27680 -3.27680 -3.27680 -3.27680 -3.27680
20.97 20.991770 0.0 31.550 15.006670 0.0960 0.1020 1.0 1.0 200.0 18.166670 500.0 197.0 18.166670 15385.0 889020.153850 153.153850 47.0 838439429.744540 0.0 0.0 0.0 0.0 0.0 0.0 0.0 -3.27680 -3.27680 -3.27680 -3.27680 -3.27680 -3.27680
20.96 20.979170 0.0 31.60 15.010 0.0960 0.1020 1.0 1.0 200.0 18.0 500.0 197.0 18.0 15373.666670 889020.538460 153.076920 47.0 838440154.309670 0.0 0.0 0.0 0.0 0.0 0.0 0.0 -3.27680 -3.27680 -3.27680 -3.27680 -3.27680 -3.27680
20.95 20.971030 0.0 31.633330 15.013330 0.0960 0.101330 1.0 1.0 200.0 19.230770 500.0 197.0 19.230770 15362.333330 889020.923080 153.0 47.0 838440878.87480 0.0 0.0 0.0 0.0 0.0 0.0 0.0 -3.27680 -3.27680 -3.27680 -3.27680 -3.27680 -3.27680
20.94 20.962890 0.0 31.666670 15.016670 0.0960 0.100670 1.0 1.0 200.0 20.461540 500.0 197.0 20.461540 15351.0 889021.307690 153.0 47.0 838441603.439930 0.0 0.0 0.0 0.0 0.0 0.0 0.0 -3.27680 -3.27680 -3.27680 -3.27680 -3.27680 -3.27680
20.93 20.954750 0.0 31.70 15.020 0.0960 0.10 1.0 1.0 200.0 21.692310 500.0 197.0 21.692310 15339.666670 889021.692310 153.0 47.0 838442328.005060 0.0 0.0 0.0 0.0 0.0 0.0 0.0 -3.27680 -3.27680 -3.27680 -3.27680 -3.27680 -3.27680
20.92 20.942150 0.0 31.750 15.016670 0.0960 0.1010 1.0 1.0 200.0 22.923080 500.0 197.0 22.923080 15328.333330 889022.076920 153.0 47.0 838443052.570190 0.0 0.0 0.0 0.0 0.0 0.0 0.0 -3.27680 -3.27680 -3.27680 -3.27680 -3.27680 -3.27680
20.91 20.929550 0.0 31.80 15.013330 0.0960 0.1020 1.0 1.0 200.0 24.153850 500.0 197.0 24.153850 15317.0 889022.461540 153.0 47.0 838443777.135320 0.0 0.0 0.0 0.0 0.0 0.0 0.0 -3.27680 -3.27680 -3.27680 -3.27680 -3.27680 -3.27680
20.90 20.921150 0.0 31.833330 15.010 0.0960 0.1020 1.0 0.923080 200.0 25.384620 500.0 197.0 25.384620 15305.666670 889022.846150 153.0 47.0 838444501.700450 0.0 0.0 0.0 0.0 0.0 0.0 0.0 -3.27680 -3.27680 -3.27680 -3.27680 -3.27680 -3.27680
20.89 20.912750 0.0 31.866670 15.006670 0.0960 0.1020 1.0 0.846150 200.0 26.615380 500.0 197.0 26.615380 15294.333330 889023.230770 153.0 47.0 838445226.265580 0.0 0.0 0.0 0.0 0.0 0.0 0.0 -3.27680 -3.27680 -3.27680 -3.27680 -3.27680 -3.27680
20.88 20.904350 0.0 31.90 15.003330 0.0960 0.1020 1.0 0.769230 200.0 27.846150 500.0 197.0 27.846150 15283.0 889023.615380 153.0 47.0 838445950.830710 0.0 0.0 0.0 0.0 0.0 0.0 0.0 -3.27680 -3.27680 -3.27680 -3.27680 -3.27680 -3.27680
20.87 20.891740 0.0 31.950 15.0 0.0960 0.1020 1.0 0.692310 200.0 29.076920 500.0 197.0 29.076920 15272.692310 889024.0 153.0 47.0 838446675.395840 0.0 0.0 0.0 0.0 0.0 0.0 0.0 -3.27680 -3.27680 -3.27680 -3.27680 -3.27680 -3.27680
20.86 20.879140 0.0 32.0 14.996670 0.0960 0.1020 1.0 0.615380 200.0 30.307690 500.0 197.0 30.307690 15262.384620 889024.166670 153.0 47.0 838446989.37530 0.0 0.0 0.0 0.0 0.0 0.0 0.0 -3.27680 -3.27680 -3.27680 -3.27680 -3.27680 -3.27680
20.85 20.8710 0.0 32.033330 14.993330 0.0960 0.101330 1.0 0.538460 200.0 31.538460 500.0 197.0 31.538460 15252.076920 889024.333330 153.0 47.0 838447303.354760 0.0 0.0 0.0 0.0 0.0 0.0 0.0 -3.27680 -3.27680 -3.27680 -3.27680 -3.27680 -3.27680
20.84 20.862870 0.0 32.066670 14.990 0.0960 0.100670 1.0 0.461540 200.0 32.769230 500.0 197.0 32.769230 15241.769230 889024.50 153.0 47.0 838447617.334210 0.0 0.0 0.0 0.0 0.0 0.0 0.0 -3.27680 -3.27680 -3.27680 -3.27680 -3.27680 -3.27680
