~VERSION INFORMATION SECTION
VERS. 2.0 : CWLS LAS-VERSION 2.0
WRAP. NO : One line per depth step
~WELL INFORMATION SECTION
# MNEM.UNIT VALUE/NAME DESCRIPTION
#-------- -------------- ---------------------
STRT.Metres 26 : Start
STOP.Metres -2.04 : Stop
STEP.Metres -0.01 : Step
NULL.  -999.25 :NULL VALUE
DATE. 2026-36-09 : DATE
~CURVE INFORMATION SECTION
DEPTH.Metres : 0 Depth
Depth. : 1 Depth
Tension. : 2 Tension
Time. : 3 Time
Speed. : 4 Speed
Voltage. : 5 Voltage
Current. : 6 Current
WET. : 7 WET
Sig. : 8 Sig
Vth. : 9 Vth
GR.CPS : 10 GR
Timebase.ms : 11 Timebase
HeadVoltage.V : 12 Head Voltage
API.API : 13 API
Conductivity.uS : 14 Conductivity
PT100.Ohms : 15 PT100
Vmon.mV : 16 Vmon
Status. : 17 Status
Temperature.C : 18 Temperature
Incline.Deg : 19 Incline
Azimuth.Deg : 20 Azimuth
RelativeBearing.Deg : 21 Relative Bearing
MagneticToolFace.Deg : 22 Magnetic Tool Face
GravityMagnitude.G : 23 Gravity Magnitude
MagnetometerMagnitude.H : 24 Magnetometer Magnitude
Temperature.C : 25 Temperature
GX. : 26 GX
GY. : 27 GY
GZ. : 28 GZ
HX. : 29 HX
HY. : 30 HY
HZ. : 31 HZ
~PARAMETER INFORMATION SECTION
~OTHER
#-------------------------------------------------
#Produced By: GeoVista Logger - Version 7.1.107.0
Verticality Sonde - 9605
Temperature and Conductivity Sonde - Inline - 8974
Natural Gamma Sonde - 9931
WLIS - 10021
#-------------------------------------------------
~ASCII LOG DATA
# ...
5.77 5.792760 0.0 113.60 14.970 0.0960 0.1020 1.0 42.230770 200.0 20.885620 500.0 197.0 20.885620 1788.0 890599.923080 159.583330 43.0 841418144.988580 0.0 0.0 0.0 0.0 0.0 0.0 0.0 -3.27680 -3.27680 -3.27680 -3.27680 -3.27680 -3.27680
5.76 5.780160 0.0 113.650 14.970 0.0960 0.1020 1.0 42.307690 200.0 21.90850 500.0 197.0 21.90850 1786.538460 890601.0 159.666670 43.0 841420177.354990 0.0 0.0 0.0 0.0 0.0 0.0 0.0 -3.27680 -3.27680 -3.27680 -3.27680 -3.27680 -3.27680
5.75 5.767560 0.0 113.70 14.970 0.0960 0.1020 1.0 42.384620 200.0 22.931370 500.0 197.0 22.931370 1785.076920 890601.916670 159.750 43.0 841421907.310170 0.0 0.0 0.0 0.0 0.0 0.0 0.0 -3.27680 -3.27680 -3.27680 -3.27680 -3.27680 -3.27680
5.74 5.759160 0.0 113.733330 14.970 0.0960 0.1020 1.0 42.461540 200.0 23.954250 500.0 197.0 23.954250 1783.615380 890602.833330 159.833330 43.0 841423637.265350 0.0 0.0 0.0 0.0 0.0 0.0 0.0 -3.27680 -3.27680 -3.27680 -3.27680 -3.27680 -3.27680
5.73 5.750760 0.0 113.766670 14.970 0.0960 0.1020 1.0 42.538460 200.0 24.977120 500.0 197.0 24.977120 1782.153850 890603.750 159.916670 43.0 841425367.220530 0.0 0.0 0.0 0.0 0.0 0.0 0.0 -3.27680 -3.27680 -3.27680 -3.27680 -3.27680 -3.27680
5.72 5.742360 0.0 113.80 14.970 0.0960 0.1020 1.0 42.615380 200.0 26.0 500.0 197.0 26.0 1780.692310 890604.666670 160.0 43.0 841427097.175710 0.0 0.0 0.0 0.0 0.0 0.0 0.0 -3.27680 -3.27680 -3.27680 -3.27680 -3.27680 -3.27680
5.71 5.730150 0.0 113.850 14.970 0.0960 0.1020 1.0 42.692310 200.0 27.384620 500.0 197.0 27.384620 1779.230770 890605.583330 160.0 43.0 841428827.130890 0.0 0.0 0.0 0.0 0.0 0.0 0.0 -3.27680 -3.27680 -3.27680 -3.27680 -3.27680 -3.27680
5.70 5.717940 0.0 113.90 14.970 0.0960 0.1020 1.0 42.769230 200.0 28.769230 500.0 197.0 28.769230 1777.769230 890606.50 160.0 43.0 841430557.086070 0.0 0.0 0.0 0.0 0.0 0.0 0.0 -3.27680 -3.27680 -3.27680 -3.27680 -3.27680 -3.27680
5.69 5.709540 0.0 113.933330 14.970 0.0960 0.1020 1.0 42.846150 200.0 30.153850 500.0 197.0 30.153850 1776.307690 890607.416670 160.0 43.0 841432287.041250 0.0 0.0 0.0 0.0 0.0 0.0 0.0 -3.27680 -3.27680 -3.27680 -3.27680 -3.27680 -3.27680
5.68 5.701140 0.0 113.966670 14.970 0.0960 0.1020 1.0 42.923080 200.0 31.538460 500.0 197.0 31.538460 1774.846150 890608.333330 160.0 43.0 841434016.996430 0.0 0.0 0.0 0.0 0.0 0.0 0.0 -3.27680 -3.27680 -3.27680 -3.27680 -3.27680 -3.27680
5.67 5.692740 0.0 114.0 14.970 0.0960 0.1020 1.0 43.0 200.0 32.923080 500.0 197.0 32.923080 1773.384620 890609.250 160.0 43.0 841435746.951610 0.0 0.0 0.0 0.0 0.0 0.0 0.0 -3.27680 -3.27680 -3.27680 -3.27680 -3.27680 -3.27680
5.66 5.680140 0.0 114.050 14.970 0.0960 0.1020 1.0 43.0 200.0 34.307690 500.0 197.0 34.307690 1771.923080 890610.166670 160.0 43.0 841437476.906790 0.0 0.0 0.0 0.0 0.0 0.0 0.0 -3.27680 -3.27680 -3.27680 -3.27680 -3.27680 -3.27680
5.65 5.667530 0.0 114.10 14.970 0.0960 0.1020 1.0 43.0 200.0 35.692310 500.0 197.0 35.692310 1770.461540 890611.083330 160.0 43.0 841439206.861970 0.0 0.0 0.0 0.0 0.0 0.0 0.0 -3.27680 -3.27680 -3.27680 -3.27680 -3.27680 -3.27680
5.64 5.659130 0.0 114.133330 14.970 0.0960 0.1020 1.0 43.0 200.0 37.076920 500.0 197.0 37.076920 1769.0 890612.0 160.0 43.0 841440936.817150 0.0 0.0 0.0 0.0 0.0 0.0 0.0 -3.27680 -3.27680 -3.27680 -3.27680 -3.27680 -3.27680
5.63 5.650730 0.0 114.166670 14.970 0.0960 0.1020 1.0 43.0 200.0 38.461540 500.0 197.0 38.461540 1770.750 890613.307690 160.0 43.0 841443404.763980 0.0 0.0 0.0 0.0 0.0 0.0 0.0 -3.27680 -3.27680 -3.27680 -3.27680 -3.27680 -3.27680
5.62 5.642330 0.0 114.20 14.970 0.0960 0.1020 1.0 43.0 200.0 39.846150 500.0 197.0 39.846150 1772.50 890614.615380 160.0 43.0 841445872.710820 0.0 0.0 0.0 0.0 0.0 0.0 0.0 -3.27680 -3.27680 -3.27680 -3.27680 -3.27680 -3.27680
5.61 5.630120 0.0 114.250 14.970 0.0960 0.1020 1.0 43.0 200.0 41.230770 500.0 197.0 41.230770 1774.250 890615.923080 160.0 43.0 841448340.657650 0.0 0.0 0.0 0.0 0.0 0.0 0.0 -3.27680 -3.27680 -3.27680 -3.27680 -3.27680 -3.27680
5.60 5.617920 0.0 114.30 14.970 0.0960 0.1020 1.0 43.0 200.0 42.615380 500.0 197.0 42.615380 1776.0 890617.230770 160.0 43.0 841450808.604490 0.0 0.0 0.0 0.0 0.0 0.0 0.0 -3.27680 -3.27680 -3.27680 -3.27680 -3.27680 -3.27680
5.59 5.609250 0.0 114.333330 14.970 0.0960 0.1020 1.0 43.0 200.0 44.0 500.0 197.0 44.0 1777.750 890618.538460 160.0 43.0 841453276.551320 0.0 0.0 0.0 0.0 0.0 0.0 0.0 -3.27680 -3.27680 -3.27680 -3.27680 -3.27680 -3.27680
5.58 5.600590 0.0 114.366670 14.970 0.0960 0.1020 1.0 43.0 200.0 42.0 500.0 197.0 42.0 1779.50 890619.846150 159.916670 43.0 841455744.498160 0.0 0.0 0.0 0.0 0.0 0.0 0.0 -3.27680 -3.27680 -3.27680 -3.27680 -3.27680 -3.27680
5.57 5.591920 0.0 114.40 14.970 0.0960 0.1020 1.0 43.0 200.0 40.0 500.0 197.0 40.0 1781.250 890621.153850 159.833330 43.0 841458212.444990 0.0 0.0 0.0 0.0 0.0 0.0 0.0 -3.27680 -3.27680 -3.27680 -3.27680 -3.27680 -3.27680
5.56 5.579720 0.0 114.450 14.970 0.0960 0.1020 1.0 43.0 200.0 38.0 500.0 197.0 38.0 1783.0 890622.461540 159.750 43.0 841460680.391830 0.0 0.0 0.0 0.0 0.0 0.0 0.0 -3.27680 -3.27680 -3.27680 -3.27680 -3.27680 -3.27680
5.55 5.567510 0.0 114.50 14.970 0.0960 0.1020 1.0 43.0 200.0 36.0 500.0 197.0 36.0 1784.750 890623.769230 159.666670 43.0 841463148.338660 0.0 0.0 0.0 0.0 0.0 0.0 0.0 -3.27680 -3.27680 -3.27680 -3.27680 -3.27680 -3.27680
5.54 5.559110 0.0 114.533330 14.970 0.0960 0.1020 1.0 42.923080 200.0 34.0 500.0 197.0 34.0 1786.50 890625.076920 159.583330 43.0 841465616.28550 0.0 0.0 0.0 0.0 0.0 0.0 0.0 -3.27680 -3.27680 -3.27680 -3.27680 -3.27680 -3.27680
5.53 5.550710 0.0 114.566670 14.970 0.0960 0.1020 1.0 42.846150 200.0 32.0 500.0 197.0 32.0 1788.250 890626.384620 159.50 43.0 841468084.232330 0.0 0.0 0.0 0.0 0.0 0.0 0.0 -3.27680 -3.27680 -3.27680 -3.27680 -3.27680 -3.27680
5.52 5.542310 0.0 114.60 14.970 0.0960 0.1020 1.0 42.769230 200.0 30.0 500.0 197.0 30.0 1790.0 890627.692310 159.416670 43.0 841470552.179170 0.0 0.0 0.0 0.0 0.0 0.0 0.0 -3.27680 -3.27680 -3.27680 -3.27680 -3.27680 -3.27680
5.51 5.53010 0.0 114.650 14.970 0.0960 0.1020 1.0 42.692310 200.0 28.0 500.0 197.0 28.0 1790.230770 890629.0 159.333330 43.0 841473020.126010 0.0 0.0 0.0 0.0 0.0 0.0 0.0 -3.27680 -3.27680 -3.27680 -3.27680 -3.27680 -3.27680
5.50 5.517890 0.0 114.70 14.970 0.0960 0.1020 1.0 42.615380 200.0 26.0 500.0 197.0 26.0 1790.461540 890629.833330 159.250 43.0 841474592.861030 0.0 0.0 0.0 0.0 0.0 0.0 0.0 -3.27680 -3.27680 -3.27680 -3.27680 -3.27680 -3.27680
5.49 5.509490 0.0 114.733330 14.970 0.0960 0.1020 1.0 42.538460 200.0 24.0 500.0 197.0 24.0 1790.692310 890630.666670 159.166670 43.0 841476165.596060 0.0 0.0 0.0 0.0 0.0 0.0 0.0 -3.27680 -3.27680 -3.27680 -3.27680 -3.27680 -3.27680
5.48 5.501090 0.0 114.766670 14.970 0.0960 0.1020 1.0 42.461540 200.0 22.0 500.0 197.0 22.0 1790.923080 890631.50 159.083330 43.0 841477738.331090 0.0 0.0 0.0 0.0 0.0 0.0 0.0 -3.27680 -3.27680 -3.27680 -3.27680 -3.27680 -3.27680
5.47 5.492690 0.0 114.80 14.970 0.0960 0.1020 1.0 42.384620 200.0 20.0 500.0 197.0 20.0 1791.153850 890632.333330 159.0 43.0 841479311.066120 0.0 0.0 0.0 0.0 0.0 0.0 0.0 -3.27680 -3.27680 -3.27680 -3.27680 -3.27680 -3.27680
5.46 5.480090 0.0 114.850 14.967330 0.0960 0.1020 1.0 42.307690 200.0 20.0 500.0 197.0 20.0 1791.384620 890633.166670 159.0 43.0 841480883.801150 0.0 0.0 0.0 0.0 0.0 0.0 0.0 -3.27680 -3.27680 -3.27680 -3.27680 -3.27680 -3.27680
5.45 5.467480 0.0 114.90 14.964670 0.0960 0.1020 1.0 42.230770 200.0 20.0 500.0 197.0 20.0 1791.615380 890634.0 159.0 43.0 841482456.536170 0.0 0.0 0.0 0.0 0.0 0.0 0.0 -3.27680 -3.27680 -3.27680 -3.27680 -3.27680 -3.27680
5.44 5.459350 0.0 114.933330 14.9620 0.0960 0.1020 1.0 42.153850 200.0 20.0 500.0 197.0 20.0 1791.846150 890634.833330 159.0 43.0 841484029.27120 0.0 0.0 0.0 0.0 0.0 0.0 0.0 -3.27680 -3.27680 -3.27680 -3.27680 -3.27680 -3.27680
5.43 5.451210 0.0 114.966670 14.959330 0.0960 0.1020 1.0 42.076920 200.0 20.0 500.0 197.0 20.0 1792.076920 890635.666670 159.0 43.0 841485602.006230 0.0 0.0 0.0 0.0 0.0 0.0 0.0 -3.27680 -3.27680 -3.27680 -3.27680 -3.27680 -3.27680
5.42 5.443070 0.0 115.0 14.956670 0.0960 0.1020 1.0 42.0 200.0 20.0 500.0 197.0 20.0 1792.307690 890636.50 159.0 43.0 841487174.741260 0.0 0.0 0.0 0.0 0.0 0.0 0.0 -3.27680 -3.27680 -3.27680 -3.27680 -3.27680 -3.27680
