~VERSION INFORMATION SECTION
VERS. 2.0 : CWLS LAS-VERSION 2.0
WRAP. NO : One line per depth step
~WELL INFORMATION SECTION
# MNEM.UNIT VALUE/NAME DESCRIPTION
#-------- -------------- ---------------------
STRT.Metres 23 : Start
STOP.Metres -2.05 : Stop
STEP.Metres -0.01 : Step
NULL.  -999.25 :NULL VALUE
DATE. 2026-45-09 : DATE
~CURVE INFORMATION SECTION
DEPTH.Metres : 0 Depth
Depth. : 1 Depth
Tension. : 2 Tension
Time. : 3 Time
Speed. : 4 Speed
Voltage. : 5 Voltage
Current. : 6 Current
WET. : 7 WET
Sig. : 8 Sig
Vth. : 9 Vth
GR.CPS : 10 GR
Timebase.ms : 11 Timebase
HeadVoltage.V : 12 Head Voltage
API.API : 13 API
Conductivity.uS : 14 Conductivity
PT100.Ohms : 15 PT100
Vmon.mV : 16 Vmon
Status. : 17 Status
Temperature.C : 18 Temperature
Incline.Deg : 19 Incline
Azimuth.Deg : 20 Azimuth
RelativeBearing.Deg : 21 Relative Bearing
MagneticToolFace.Deg : 22 Magnetic Tool Face
GravityMagnitude.G : 23 Gravity Magnitude
MagnetometerMagnitude.H : 24 Magnetometer Magnitude
Temperature.C : 25 Temperature
GX. : 26 GX
GY. : 27 GY
GZ. : 28 GZ
HX. : 29 HX
HY. : 30 HY
HZ. : 31 HZ
~PARAMETER INFORMATION SECTION
~OTHER
#-------------------------------------------------
#Produced By: GeoVista Logger - Version 7.1.107.0
Verticality Sonde - 9605
Temperature and Conductivity Sonde - Inline - 8974
Natural Gamma Sonde - 9931
WLIS - 10021
#-------------------------------------------------
~ASCII LOG DATA
# ...
11.53 11.550080 0.0 56.0 14.956670 0.0960 0.1020 1.0 40.230770 200.0 13.0 500.0 197.0 13.0 2219.538460 889768.083330 155.0 42.0 839849021.002620 0.0 0.0 0.0 0.0 0.0 0.0 0.0 -3.27680 -3.27680 -3.27680 -3.27680 -3.27680 -3.27680
11.52 11.537870 0.0 56.050 14.959330 0.0960 0.1020 1.0 40.307690 200.0 14.0 500.0 197.0 14.0 2218.0 889769.0 155.0 42.0 839850749.322350 0.0 0.0 0.0 0.0 0.0 0.0 0.0 -3.27680 -3.27680 -3.27680 -3.27680 -3.27680 -3.27680
11.51 11.525670 0.0 56.10 14.9620 0.0960 0.1020 1.0 40.384620 200.0 15.0 500.0 197.0 15.0 2216.083330 889769.769230 155.0 42.0 839852199.677680 0.0 0.0 0.0 0.0 0.0 0.0 0.0 -3.27680 -3.27680 -3.27680 -3.27680 -3.27680 -3.27680
11.50 11.517260 0.0 56.133330 14.964670 0.0960 0.1020 1.0 40.461540 200.0 16.0 500.0 197.0 16.0 2214.166670 889770.538460 155.0 42.0 839853650.033010 0.0 0.0 0.0 0.0 0.0 0.0 0.0 -3.27680 -3.27680 -3.27680 -3.27680 -3.27680 -3.27680
11.49 11.508860 0.0 56.166670 14.967330 0.0960 0.1020 1.0 40.538460 200.0 17.0 500.0 197.0 17.0 2212.250 889771.307690 155.0 42.0 839855100.388340 0.0 0.0 0.0 0.0 0.0 0.0 0.0 -3.27680 -3.27680 -3.27680 -3.27680 -3.27680 -3.27680
11.48 11.500460 0.0 56.20 14.970 0.0960 0.1020 1.0 40.615380 200.0 18.0 500.0 197.0 18.0 2210.333330 889772.076920 155.0 42.0 839856550.743670 0.0 0.0 0.0 0.0 0.0 0.0 0.0 -3.27680 -3.27680 -3.27680 -3.27680 -3.27680 -3.27680
11.47 11.487860 0.0 56.250 14.970 0.0960 0.1020 1.0 40.692310 200.0 18.0 500.0 197.0 18.0 2208.416670 889772.846150 155.0 42.0 839858001.0990 0.0 0.0 0.0 0.0 0.0 0.0 0.0 -3.27680 -3.27680 -3.27680 -3.27680 -3.27680 -3.27680
11.46 11.475260 0.0 56.30 14.970 0.0960 0.1020 1.0 40.769230 200.0 18.0 500.0 197.0 18.0 2206.50 889773.615380 155.0 42.0 839859451.454330 0.0 0.0 0.0 0.0 0.0 0.0 0.0 -3.27680 -3.27680 -3.27680 -3.27680 -3.27680 -3.27680
11.45 11.466860 0.0 56.333330 14.970 0.0960 0.1020 1.0 40.846150 200.0 18.0 500.0 197.0 18.0 2204.583330 889774.384620 155.0 42.0 839860901.809660 0.0 0.0 0.0 0.0 0.0 0.0 0.0 -3.27680 -3.27680 -3.27680 -3.27680 -3.27680 -3.27680
11.44 11.458460 0.0 56.366670 14.970 0.0960 0.1020 1.0 40.923080 200.0 18.0 500.0 197.0 18.0 2202.666670 889775.153850 155.0 42.0 839862352.164990 0.0 0.0 0.0 0.0 0.0 0.0 0.0 -3.27680 -3.27680 -3.27680 -3.27680 -3.27680 -3.27680
11.43 11.450060 0.0 56.40 14.970 0.0960 0.1020 1.0 41.0 200.0 18.0 500.0 197.0 18.0 2200.750 889775.923080 155.0 42.0 839863802.520320 0.0 0.0 0.0 0.0 0.0 0.0 0.0 -3.27680 -3.27680 -3.27680 -3.27680 -3.27680 -3.27680
11.42 11.441660 0.0 56.433330 14.970 0.0960 0.1020 1.0 40.916670 200.0 18.0 500.0 197.0 18.0 2198.833330 889776.692310 155.0 42.0 839865252.875650 0.0 0.0 0.0 0.0 0.0 0.0 0.0 -3.27680 -3.27680 -3.27680 -3.27680 -3.27680 -3.27680
11.41 11.433250 0.0 56.466670 14.970 0.0960 0.1020 1.0 40.833330 200.0 18.0 500.0 197.0 18.0 2196.916670 889777.461540 155.0 42.0 839866703.230980 0.0 0.0 0.0 0.0 0.0 0.0 0.0 -3.27680 -3.27680 -3.27680 -3.27680 -3.27680 -3.27680
11.40 11.424850 0.0 56.50 14.970 0.0960 0.1020 1.0 40.750 200.0 18.0 500.0 197.0 18.0 2195.0 889778.230770 155.0 42.0 839868153.586310 0.0 0.0 0.0 0.0 0.0 0.0 0.0 -3.27680 -3.27680 -3.27680 -3.27680 -3.27680 -3.27680
11.39 11.412250 0.0 56.550 14.970 0.0960 0.1020 1.0 40.666670 200.0 18.0 500.0 197.0 18.0 2195.833330 889779.0 155.0 42.0 839869603.941650 0.0 0.0 0.0 0.0 0.0 0.0 0.0 -3.27680 -3.27680 -3.27680 -3.27680 -3.27680 -3.27680
11.38 11.399650 0.0 56.60 14.970 0.0960 0.1020 1.0 40.583330 200.0 18.0 500.0 197.0 18.0 2196.666670 889779.750 155.0 42.0 839871018.053170 0.0 0.0 0.0 0.0 0.0 0.0 0.0 -3.27680 -3.27680 -3.27680 -3.27680 -3.27680 -3.27680
11.37 11.387050 0.0 56.650 14.970 0.0960 0.1020 1.0 40.50 200.0 18.0 500.0 197.0 18.0 2197.50 889780.50 155.0 42.0 839872432.16470 0.0 0.0 0.0 0.0 0.0 0.0 0.0 -3.27680 -3.27680 -3.27680 -3.27680 -3.27680 -3.27680
11.36 11.374450 0.0 56.70 14.970 0.0960 0.1020 1.0 40.416670 200.0 18.0 500.0 197.0 18.0 2198.333330 889781.250 155.0 42.0 839873846.276220 0.0 0.0 0.0 0.0 0.0 0.0 0.0 -3.27680 -3.27680 -3.27680 -3.27680 -3.27680 -3.27680
11.35 11.366310 0.0 56.733330 14.970 0.0960 0.1020 1.0 40.333330 200.0 18.0 500.0 197.0 18.0 2199.166670 889782.0 155.0 42.0 839875260.387750 0.0 0.0 0.0 0.0 0.0 0.0 0.0 -3.27680 -3.27680 -3.27680 -3.27680 -3.27680 -3.27680
11.34 11.358170 0.0 56.766670 14.970 0.0960 0.1020 1.0 40.250 200.0 18.666670 500.0 197.0 18.666670 2200.0 889782.750 155.0 42.0 839876674.499280 0.0 0.0 0.0 0.0 0.0 0.0 0.0 -3.27680 -3.27680 -3.27680 -3.27680 -3.27680 -3.27680
11.33 11.350030 0.0 56.80 14.970 0.0960 0.1020 1.0 40.166670 200.0 19.333330 500.0 197.0 19.333330 2200.833330 889783.50 155.0 42.0 839878088.61080 0.0 0.0 0.0 0.0 0.0 0.0 0.0 -3.27680 -3.27680 -3.27680 -3.27680 -3.27680 -3.27680
11.32 11.341630 0.0 56.833330 14.976670 0.0960 0.1020 1.0 40.083330 200.0 20.0 500.0 197.0 20.0 2201.666670 889784.250 155.0 42.0 839879502.722330 0.0 0.0 0.0 0.0 0.0 0.0 0.0 -3.27680 -3.27680 -3.27680 -3.27680 -3.27680 -3.27680
11.31 11.333230 0.0 56.866670 14.983330 0.0960 0.1020 1.0 40.0 200.0 20.666670 500.0 197.0 20.666670 2202.50 889785.0 155.0 42.0 839880916.833860 0.0 0.0 0.0 0.0 0.0 0.0 0.0 -3.27680 -3.27680 -3.27680 -3.27680 -3.27680 -3.27680
11.30 11.324830 0.0 56.90 14.990 0.0960 0.1020 1.0 40.0 200.0 21.333330 500.0 197.0 21.333330 2203.333330 889785.750 155.0 42.0 839882330.945380 0.0 0.0 0.0 0.0 0.0 0.0 0.0 -3.27680 -3.27680 -3.27680 -3.27680 -3.27680 -3.27680
11.29 11.312230 0.0 56.950 14.996670 0.0960 0.1020 1.0 40.0 200.0 22.0 500.0 197.0 22.0 2204.166670 889786.50 155.0 42.0 839883745.056910 0.0 0.0 0.0 0.0 0.0 0.0 0.0 -3.27680 -3.27680 -3.27680 -3.27680 -3.27680 -3.27680
11.28 11.299630 0.0 57.0 15.003330 0.0960 0.1020 1.0 40.0 200.0 22.666670 500.0 197.0 22.666670 2205.0 889787.250 155.0 42.0 839885159.168440 0.0 0.0 0.0 0.0 0.0 0.0 0.0 -3.27680 -3.27680 -3.27680 -3.27680 -3.27680 -3.27680
11.27 11.291220 0.0 57.033330 15.010 0.0960 0.1020 1.0 40.0 200.0 23.333330 500.0 197.0 23.333330 2202.692310 889788.0 155.0 42.0 839886573.279960 0.0 0.0 0.0 0.0 0.0 0.0 0.0 -3.27680 -3.27680 -3.27680 -3.27680 -3.27680 -3.27680
11.26 11.282820 0.0 57.066670 15.016670 0.0960 0.1020 1.0 40.0 200.0 24.0 500.0 197.0 24.0 2200.384620 889789.083330 155.0 42.0 839888615.910720 0.0 0.0 0.0 0.0 0.0 0.0 0.0 -3.27680 -3.27680 -3.27680 -3.27680 -3.27680 -3.27680
11.25 11.274420 0.0 57.10 15.023330 0.0960 0.1020 1.0 40.0 200.0 24.666670 500.0 197.0 24.666670 2198.076920 889790.166670 155.0 42.0 839890658.541480 0.0 0.0 0.0 0.0 0.0 0.0 0.0 -3.27680 -3.27680 -3.27680 -3.27680 -3.27680 -3.27680
11.24 11.261820 0.0 57.150 15.030 0.0960 0.1020 1.0 40.0 200.0 25.333330 500.0 197.0 25.333330 2195.769230 889791.250 155.0 42.0 839892701.172240 0.0 0.0 0.0 0.0 0.0 0.0 0.0 -3.27680 -3.27680 -3.27680 -3.27680 -3.27680 -3.27680
11.23 11.249220 0.0 57.20 15.036670 0.0960 0.1020 1.0 40.0 200.0 26.0 500.0 197.0 26.0 2193.461540 889792.333330 155.0 42.0 839894743.8030 0.0 0.0 0.0 0.0 0.0 0.0 0.0 -3.27680 -3.27680 -3.27680 -3.27680 -3.27680 -3.27680
11.22 11.241080 0.0 57.233330 15.043330 0.0960 0.1020 1.0 40.0 200.0 25.076920 500.0 197.0 25.076920 2191.153850 889793.416670 155.0 42.0 839896786.433760 0.0 0.0 0.0 0.0 0.0 0.0 0.0 -3.27680 -3.27680 -3.27680 -3.27680 -3.27680 -3.27680
11.21 11.232940 0.0 57.266670 15.050 0.0960 0.1020 1.0 40.0 200.0 24.153850 500.0 197.0 24.153850 2188.846150 889794.50 155.0 42.0 839898829.064520 0.0 0.0 0.0 0.0 0.0 0.0 0.0 -3.27680 -3.27680 -3.27680 -3.27680 -3.27680 -3.27680
11.20 11.22480 0.0 57.30 15.056670 0.0960 0.1020 1.0 40.0 200.0 23.230770 500.0 197.0 23.230770 2186.538460 889795.583330 155.0 42.0 839900871.695270 0.0 0.0 0.0 0.0 0.0 0.0 0.0 -3.27680 -3.27680 -3.27680 -3.27680 -3.27680 -3.27680
11.19 11.21220 0.0 57.350 15.063330 0.0960 0.1030 1.0 40.0 200.0 22.307690 500.0 197.0 22.307690 2184.230770 889796.666670 155.0 42.0 839902914.326030 0.0 0.0 0.0 0.0 0.0 0.0 0.0 -3.27680 -3.27680 -3.27680 -3.27680 -3.27680 -3.27680
11.18 11.19960 0.0 57.40 15.070 0.0960 0.1040 1.0 40.0 200.0 21.384620 500.0 197.0 21.384620 2181.923080 889797.750 155.0 42.0 839904956.956790 0.0 0.0 0.0 0.0 0.0 0.0 0.0 -3.27680 -3.27680 -3.27680 -3.27680 -3.27680 -3.27680
