~VERSION INFORMATION SECTION
VERS. 2.0 : CWLS LAS-VERSION 2.0
WRAP. NO : One line per depth step
~WELL INFORMATION SECTION
# MNEM.UNIT VALUE/NAME DESCRIPTION
#-------- -------------- ---------------------
STRT.Metres 26 : Start
STOP.Metres -2.05 : Stop
STEP.Metres -0.01 : Step
NULL.  -999.25 :NULL VALUE
DATE. 2026-40-09 : DATE
~CURVE INFORMATION SECTION
DEPTH.Metres : 0 Depth
Depth. : 1 Depth
Tension. : 2 Tension
Time. : 3 Time
Speed. : 4 Speed
Voltage. : 5 Voltage
Current. : 6 Current
WET. : 7 WET
Sig. : 8 Sig
Vth. : 9 Vth
GR.CPS : 10 GR
Timebase.ms : 11 Timebase
HeadVoltage.V : 12 Head Voltage
API.API : 13 API
Conductivity.uS : 14 Conductivity
PT100.Ohms : 15 PT100
Vmon.mV : 16 Vmon
Status. : 17 Status
Temperature.C : 18 Temperature
Incline.Deg : 19 Incline
Azimuth.Deg : 20 Azimuth
RelativeBearing.Deg : 21 Relative Bearing
MagneticToolFace.Deg : 22 Magnetic Tool Face
GravityMagnitude.G : 23 Gravity Magnitude
MagnetometerMagnitude.H : 24 Magnetometer Magnitude
Temperature.C : 25 Temperature
GX. : 26 GX
GY. : 27 GY
GZ. : 28 GZ
HX. : 29 HX
HY. : 30 HY
HZ. : 31 HZ
~PARAMETER INFORMATION SECTION
~OTHER
#-------------------------------------------------
#Produced By: GeoVista Logger - Version 7.1.107.0
Verticality Sonde - 9605
Temperature and Conductivity Sonde - Inline - 8974
Natural Gamma Sonde - 9931
WLIS - 10021
#-------------------------------------------------
~ASCII LOG DATA
# ...
2.58 2.597490 0.0 126.50 14.970 0.0960 0.1020 1.0 43.0 200.0 42.666670 501.538460 197.0 42.666670 1732.750 890708.923080 156.0 42.0 841623863.42890 0.0 0.0 0.0 0.0 0.0 0.0 0.0 -3.27680 -3.27680 -3.27680 -3.27680 -3.27680 -3.27680
2.57 2.589090 0.0 126.533330 14.973330 0.0960 0.102670 1.0 43.0 200.0 42.833330 502.307690 197.0 42.833330 1732.166670 890708.692310 156.0 42.0 841623427.86540 0.0 0.0 0.0 0.0 0.0 0.0 0.0 -3.27680 -3.27680 -3.27680 -3.27680 -3.27680 -3.27680
2.56 2.580690 0.0 126.566670 14.976670 0.0960 0.103330 1.0 43.0 200.0 43.0 503.076920 197.0 43.0 1731.583330 890708.461540 156.0 42.0 841622992.30190 0.0 0.0 0.0 0.0 0.0 0.0 0.0 -3.27680 -3.27680 -3.27680 -3.27680 -3.27680 -3.27680
2.55 2.572290 0.0 126.60 14.980 0.0960 0.1040 1.0 43.0 200.0 43.166670 503.846150 197.0 43.166670 1731.0 890708.230770 156.0 42.0 841622556.73840 0.0 0.0 0.0 0.0 0.0 0.0 0.0 -3.27680 -3.27680 -3.27680 -3.27680 -3.27680 -3.27680
2.54 2.559680 0.0 126.650 14.983330 0.0960 0.1030 1.0 43.0 200.0 43.333330 504.615380 197.0 43.333330 1730.923080 890708.0 156.0 42.0 841622121.174910 0.0 0.0 0.0 0.0 0.0 0.0 0.0 -3.27680 -3.27680 -3.27680 -3.27680 -3.27680 -3.27680
2.53 2.547080 0.0 126.70 14.986670 0.0960 0.1020 1.0 43.0 200.0 43.50 505.384620 197.0 43.50 1730.846150 890708.0 156.0 42.0 841622121.174910 0.0 0.0 0.0 0.0 0.0 0.0 0.0 -3.27680 -3.27680 -3.27680 -3.27680 -3.27680 -3.27680
2.52 2.538680 0.0 126.733330 14.990 0.0960 0.1020 1.0 43.0 200.0 43.666670 506.153850 197.0 43.666670 1730.769230 890708.0 156.0 42.0 841622121.174910 0.0 0.0 0.0 0.0 0.0 0.0 0.0 -3.27680 -3.27680 -3.27680 -3.27680 -3.27680 -3.27680
2.51 2.530280 0.0 126.766670 14.993330 0.0960 0.1020 1.0 43.0 200.0 43.833330 506.923080 197.0 43.833330 1730.692310 890708.0 156.0 42.0 841622121.174910 0.0 0.0 0.0 0.0 0.0 0.0 0.0 -3.27680 -3.27680 -3.27680 -3.27680 -3.27680 -3.27680
2.50 2.521880 0.0 126.80 14.996670 0.0960 0.1020 1.0 43.0 200.0 44.0 507.692310 197.0 44.0 1730.615380 890708.0 156.0 42.0 841622121.174910 0.0 0.0 0.0 0.0 0.0 0.0 0.0 -3.27680 -3.27680 -3.27680 -3.27680 -3.27680 -3.27680
2.49 2.509280 0.0 126.850 15.0 0.0960 0.1020 1.0 43.0 200.0 43.782810 508.461540 197.0 43.782810 1730.538460 890708.0 156.0 42.0 841622121.174910 0.0 0.0 0.0 0.0 0.0 0.0 0.0 -3.27680 -3.27680 -3.27680 -3.27680 -3.27680 -3.27680
2.48 2.496680 0.0 126.90 15.003330 0.0960 0.1020 1.0 43.0 200.0 43.565610 509.230770 197.0 43.565610 1730.461540 890708.0 156.0 42.0 841622121.174910 0.0 0.0 0.0 0.0 0.0 0.0 0.0 -3.27680 -3.27680 -3.27680 -3.27680 -3.27680 -3.27680
2.47 2.488540 0.0 126.933330 15.006670 0.0960 0.1020 1.0 43.0 200.0 43.348420 510.0 197.0 43.348420 1730.384620 890708.0 156.0 42.0 841622121.174910 0.0 0.0 0.0 0.0 0.0 0.0 0.0 -3.27680 -3.27680 -3.27680 -3.27680 -3.27680 -3.27680
2.46 2.48040 0.0 126.966670 15.010 0.0960 0.1020 1.0 43.0 200.0 43.131220 509.166670 197.0 43.131220 1730.307690 890708.0 156.0 42.0 841622121.174910 0.0 0.0 0.0 0.0 0.0 0.0 0.0 -3.27680 -3.27680 -3.27680 -3.27680 -3.27680 -3.27680
2.45 2.472260 0.0 127.0 15.013330 0.0960 0.1020 1.0 43.0 200.0 42.914030 508.333330 197.0 42.914030 1730.230770 890708.0 156.0 42.0 841622121.174910 0.0 0.0 0.0 0.0 0.0 0.0 0.0 -3.27680 -3.27680 -3.27680 -3.27680 -3.27680 -3.27680
2.44 2.459660 0.0 127.050 15.016670 0.0960 0.1010 1.0 43.0 200.0 42.696830 507.50 197.0 42.696830 1730.153850 890708.0 156.0 42.0 841622121.174910 0.0 0.0 0.0 0.0 0.0 0.0 0.0 -3.27680 -3.27680 -3.27680 -3.27680 -3.27680 -3.27680
2.43 2.447060 0.0 127.10 15.020 0.0960 0.10 1.0 43.0 200.0 42.479640 506.666670 197.0 42.479640 1730.076920 890708.0 156.0 42.0 841622121.174910 0.0 0.0 0.0 0.0 0.0 0.0 0.0 -3.27680 -3.27680 -3.27680 -3.27680 -3.27680 -3.27680
2.42 2.438660 0.0 127.133330 15.023330 0.0960 0.100670 1.0 43.0 200.0 42.262440 505.833330 197.0 42.262440 1730.0 890708.0 156.0 42.0 841622121.174910 0.0 0.0 0.0 0.0 0.0 0.0 0.0 -3.27680 -3.27680 -3.27680 -3.27680 -3.27680 -3.27680
2.41 2.430260 0.0 127.166670 15.026670 0.0960 0.101330 1.0 43.0 200.0 42.045250 505.0 197.0 42.045250 1731.083330 890707.769230 156.0 42.0 841621685.612880 0.0 0.0 0.0 0.0 0.0 0.0 0.0 -3.27680 -3.27680 -3.27680 -3.27680 -3.27680 -3.27680
2.40 2.421850 0.0 127.20 15.030 0.0960 0.1020 1.0 43.0 200.0 41.828050 504.166670 197.0 41.828050 1732.166670 890707.538460 156.0 42.0 841621250.050840 0.0 0.0 0.0 0.0 0.0 0.0 0.0 -3.27680 -3.27680 -3.27680 -3.27680 -3.27680 -3.27680
2.39 2.409650 0.0 127.250 15.033330 0.0960 0.1020 1.0 43.0 200.0 41.610860 503.333330 197.0 41.610860 1733.250 890707.307690 156.0 42.0 841620814.488810 0.0 0.0 0.0 0.0 0.0 0.0 0.0 -3.27680 -3.27680 -3.27680 -3.27680 -3.27680 -3.27680
2.38 2.397440 0.0 127.30 15.036670 0.0960 0.1020 1.0 43.0 200.0 41.393670 502.50 197.0 41.393670 1734.333330 890707.076920 156.0 42.0 841620378.926780 0.0 0.0 0.0 0.0 0.0 0.0 0.0 -3.27680 -3.27680 -3.27680 -3.27680 -3.27680 -3.27680
2.37 2.389040 0.0 127.333330 15.040 0.0960 0.1020 1.0 43.0 200.0 41.176470 501.666670 197.0 41.176470 1735.416670 890706.846150 156.0 42.0 841619943.364750 0.0 0.0 0.0 0.0 0.0 0.0 0.0 -3.27680 -3.27680 -3.27680 -3.27680 -3.27680 -3.27680
2.36 2.380640 0.0 127.366670 15.043330 0.0960 0.1020 1.0 43.0 200.0 41.911760 500.833330 197.0 41.911760 1736.50 890706.615380 156.0 42.0 841619507.802710 0.0 0.0 0.0 0.0 0.0 0.0 0.0 -3.27680 -3.27680 -3.27680 -3.27680 -3.27680 -3.27680
2.35 2.372240 0.0 127.40 15.046670 0.0960 0.1020 1.0 43.0 200.0 42.647060 500.0 197.0 42.647060 1737.583330 890706.384620 156.0 42.0 841619072.240680 0.0 0.0 0.0 0.0 0.0 0.0 0.0 -3.27680 -3.27680 -3.27680 -3.27680 -3.27680 -3.27680
2.34 2.360030 0.0 127.450 15.050 0.0960 0.1020 1.0 43.0 200.0 43.382350 500.0 197.0 43.382350 1738.666670 890706.153850 156.0 42.0 841618636.678650 0.0 0.0 0.0 0.0 0.0 0.0 0.0 -3.27680 -3.27680 -3.27680 -3.27680 -3.27680 -3.27680
2.33 2.347820 0.0 127.50 15.053330 0.0960 0.1020 1.0 43.0 200.0 44.117650 500.0 197.0 44.117650 1739.750 890705.923080 156.0 42.0 841618201.116620 0.0 0.0 0.0 0.0 0.0 0.0 0.0 -3.27680 -3.27680 -3.27680 -3.27680 -3.27680 -3.27680
2.32 2.339420 0.0 127.533330 15.056670 0.0960 0.1020 1.0 43.0 200.0 44.852940 500.0 197.0 44.852940 1740.833330 890705.692310 156.0 42.0 841617765.554590 0.0 0.0 0.0 0.0 0.0 0.0 0.0 -3.27680 -3.27680 -3.27680 -3.27680 -3.27680 -3.27680
2.31 2.331020 0.0 127.566670 15.060 0.0960 0.1020 1.0 43.0 200.0 45.588240 500.0 197.0 45.588240 1741.916670 890705.461540 156.0 42.0 841617329.992550 0.0 0.0 0.0 0.0 0.0 0.0 0.0 -3.27680 -3.27680 -3.27680 -3.27680 -3.27680 -3.27680
2.30 2.322620 0.0 127.60 15.063330 0.0960 0.1020 1.0 43.0 200.0 46.323530 500.0 197.0 46.323530 1743.0 890705.230770 156.0 42.0 841616894.430520 0.0 0.0 0.0 0.0 0.0 0.0 0.0 -3.27680 -3.27680 -3.27680 -3.27680 -3.27680 -3.27680
2.29 2.310410 0.0 127.650 15.066670 0.0960 0.1020 1.0 43.0 200.0 47.058820 500.0 197.0 47.058820 1743.153850 890705.0 156.0 42.0 841616458.868490 0.0 0.0 0.0 0.0 0.0 0.0 0.0 -3.27680 -3.27680 -3.27680 -3.27680 -3.27680 -3.27680
2.28 2.29820 0.0 127.70 15.070 0.0960 0.1020 1.0 43.0 200.0 47.794120 500.0 197.0 47.794120 1743.307690 890704.750 156.0 42.0 841615987.011210 0.0 0.0 0.0 0.0 0.0 0.0 0.0 -3.27680 -3.27680 -3.27680 -3.27680 -3.27680 -3.27680
2.27 2.28980 0.0 127.733330 15.060670 0.0960 0.1020 1.0 43.0 200.0 48.529410 500.0 197.0 48.529410 1743.461540 890704.50 156.0 42.0 841615515.153930 0.0 0.0 0.0 0.0 0.0 0.0 0.0 -3.27680 -3.27680 -3.27680 -3.27680 -3.27680 -3.27680
2.26 2.28140 0.0 127.766670 15.051330 0.0960 0.1020 1.0 43.0 200.0 49.264710 500.0 197.0 49.264710 1743.615380 890704.250 156.0 42.0 841615043.296650 0.0 0.0 0.0 0.0 0.0 0.0 0.0 -3.27680 -3.27680 -3.27680 -3.27680 -3.27680 -3.27680
2.25 2.2730 0.0 127.80 15.0420 0.0960 0.1020 1.0 43.0 200.0 50.0 500.0 197.0 50.0 1743.769230 890704.0 156.0 42.0 841614571.439370 0.0 0.0 0.0 0.0 0.0 0.0 0.0 -3.27680 -3.27680 -3.27680 -3.27680 -3.27680 -3.27680
2.24 2.26040 0.0 127.850 15.032670 0.0960 0.1020 1.0 43.0 200.0 50.153850 500.0 197.0 50.153850 1743.923080 890703.750 156.0 42.0 841614099.582090 0.0 0.0 0.0 0.0 0.0 0.0 0.0 -3.27680 -3.27680 -3.27680 -3.27680 -3.27680 -3.27680
