~VERSION INFORMATION SECTION
VERS. 2.0 : CWLS LAS-VERSION 2.0
WRAP. NO : One line per depth step
~WELL INFORMATION SECTION
# MNEM.UNIT VALUE/NAME DESCRIPTION
#-------- -------------- ---------------------
STRT.Metres 26 : Start
STOP.Metres -2.04 : Stop
STEP.Metres -0.01 : Step
NULL.  -999.25 :NULL VALUE
DATE. 2026-36-09 : DATE
~CURVE INFORMATION SECTION
DEPTH.Metres : 0 Depth
Depth. : 1 Depth
Tension. : 2 Tension
Time. : 3 Time
Speed. : 4 Speed
Voltage. : 5 Voltage
Current. : 6 Current
WET. : 7 WET
Sig. : 8 Sig
Vth. : 9 Vth
GR.CPS : 10 GR
Timebase.ms : 11 Timebase
HeadVoltage.V : 12 Head Voltage
API.API : 13 API
Conductivity.uS : 14 Conductivity
PT100.Ohms : 15 PT100
Vmon.mV : 16 Vmon
Status. : 17 Status
Temperature.C : 18 Temperature
Incline.Deg : 19 Incline
Azimuth.Deg : 20 Azimuth
RelativeBearing.Deg : 21 Relative Bearing
MagneticToolFace.Deg : 22 Magnetic Tool Face
GravityMagnitude.G : 23 Gravity Magnitude
MagnetometerMagnitude.H : 24 Magnetometer Magnitude
Temperature.C : 25 Temperature
GX. : 26 GX
GY. : 27 GY
GZ. : 28 GZ
HX. : 29 HX
HY. : 30 HY
HZ. : 31 HZ
~PARAMETER INFORMATION SECTION
~OTHER
#-------------------------------------------------
#Produced By: GeoVista Logger - Version 7.1.107.0
Verticality Sonde - 9605
Temperature and Conductivity Sonde - Inline - 8974
Natural Gamma Sonde - 9931
WLIS - 10021
#-------------------------------------------------
~ASCII LOG DATA
# ...
22.94 22.958790 0.0 44.950 15.030 0.0960 0.1020 1.0 0.0 200.0 24.0 500.769230 197.0 24.0 18311.666670 889044.461540 141.0 43.0 838485222.816080 0.0 0.0 0.0 0.0 0.0 0.0 0.0 -3.27680 -3.27680 -3.27680 -3.27680 -3.27680 -3.27680
22.93 22.946580 0.0 45.0 15.020 0.0960 0.1020 1.0 0.0 200.0 23.333330 501.538460 197.0 23.333330 18308.250 889044.769230 141.0 43.0 838485802.482840 0.0 0.0 0.0 0.0 0.0 0.0 0.0 -3.27680 -3.27680 -3.27680 -3.27680 -3.27680 -3.27680
22.92 22.938180 0.0 45.033330 15.010 0.0960 0.1020 1.0 0.0 200.0 22.666670 502.307690 197.0 22.666670 18304.833330 889045.076920 141.0 43.0 838486382.149590 0.0 0.0 0.0 0.0 0.0 0.0 0.0 -3.27680 -3.27680 -3.27680 -3.27680 -3.27680 -3.27680
22.91 22.929780 0.0 45.066670 15.0 0.0960 0.1020 1.0 0.0 200.0 22.0 503.076920 197.0 22.0 18301.416670 889045.384620 141.0 43.0 838486961.816350 0.0 0.0 0.0 0.0 0.0 0.0 0.0 -3.27680 -3.27680 -3.27680 -3.27680 -3.27680 -3.27680
22.90 22.921380 0.0 45.10 14.990 0.0960 0.1020 1.0 0.0 200.0 21.333330 503.846150 197.0 21.333330 18298.0 889045.692310 141.0 43.0 838487541.48310 0.0 0.0 0.0 0.0 0.0 0.0 0.0 -3.27680 -3.27680 -3.27680 -3.27680 -3.27680 -3.27680
22.89 22.908780 0.0 45.150 14.980 0.0960 0.1020 1.0 0.0 200.0 20.666670 504.615380 197.0 20.666670 18297.076920 889046.0 141.0 43.0 838488121.149860 0.0 0.0 0.0 0.0 0.0 0.0 0.0 -3.27680 -3.27680 -3.27680 -3.27680 -3.27680 -3.27680
22.88 22.896170 0.0 45.20 14.970 0.0960 0.1020 1.0 0.0 200.0 20.0 505.384620 197.0 20.0 18296.153850 889046.250 141.0 43.0 838488592.130950 0.0 0.0 0.0 0.0 0.0 0.0 0.0 -3.27680 -3.27680 -3.27680 -3.27680 -3.27680 -3.27680
22.87 22.888040 0.0 45.233330 14.967330 0.0960 0.101330 1.0 0.0 200.0 19.333330 506.153850 197.0 19.333330 18295.230770 889046.50 141.0 43.0 838489063.112040 0.0 0.0 0.0 0.0 0.0 0.0 0.0 -3.27680 -3.27680 -3.27680 -3.27680 -3.27680 -3.27680
22.86 22.87990 0.0 45.266670 14.964670 0.0960 0.100670 1.0 0.0 200.0 18.666670 506.923080 197.0 18.666670 18294.307690 889046.750 141.0 43.0 838489534.093130 0.0 0.0 0.0 0.0 0.0 0.0 0.0 -3.27680 -3.27680 -3.27680 -3.27680 -3.27680 -3.27680
22.85 22.871760 0.0 45.30 14.9620 0.0960 0.10 1.0 0.0 200.0 18.0 507.692310 197.0 18.0 18293.384620 889047.0 141.0 43.0 838490005.074230 0.0 0.0 0.0 0.0 0.0 0.0 0.0 -3.27680 -3.27680 -3.27680 -3.27680 -3.27680 -3.27680
22.84 22.859160 0.0 45.350 14.959330 0.0960 0.1010 1.0 0.0 200.0 17.671190 508.461540 197.0 17.671190 18292.461540 889047.250 140.923080 43.0 838490476.055320 0.0 0.0 0.0 0.0 0.0 0.0 0.0 -3.27680 -3.27680 -3.27680 -3.27680 -3.27680 -3.27680
22.83 22.846560 0.0 45.40 14.956670 0.0960 0.1020 1.0 0.0 200.0 17.342380 509.230770 197.0 17.342380 18291.538460 889047.50 140.846150 43.0 838490947.036410 0.0 0.0 0.0 0.0 0.0 0.0 0.0 -3.27680 -3.27680 -3.27680 -3.27680 -3.27680 -3.27680
22.82 22.838150 0.0 45.433330 14.9540 0.0960 0.1020 1.0 0.0 200.0 17.013570 510.0 197.0 17.013570 18290.615380 889047.750 140.769230 43.0 838491418.01750 0.0 0.0 0.0 0.0 0.0 0.0 0.0 -3.27680 -3.27680 -3.27680 -3.27680 -3.27680 -3.27680
22.81 22.829750 0.0 45.466670 14.951330 0.0960 0.1020 1.0 0.0 200.0 16.684770 509.166670 197.0 16.684770 18289.692310 889048.0 140.692310 43.0 838491888.998590 0.0 0.0 0.0 0.0 0.0 0.0 0.0 -3.27680 -3.27680 -3.27680 -3.27680 -3.27680 -3.27680
22.80 22.821350 0.0 45.50 14.948670 0.0960 0.1020 1.0 0.0 200.0 16.355960 508.333330 197.0 16.355960 18288.769230 889048.250 140.615380 43.0 838492359.979680 0.0 0.0 0.0 0.0 0.0 0.0 0.0 -3.27680 -3.27680 -3.27680 -3.27680 -3.27680 -3.27680
22.79 22.809140 0.0 45.550 14.9460 0.0960 0.1020 1.0 0.0 200.0 16.027150 507.50 197.0 16.027150 18287.846150 889048.50 140.538460 43.0 838492830.960770 0.0 0.0 0.0 0.0 0.0 0.0 0.0 -3.27680 -3.27680 -3.27680 -3.27680 -3.27680 -3.27680
22.78 22.796940 0.0 45.60 14.943330 0.0960 0.1020 1.0 0.0 200.0 15.698340 506.666670 197.0 15.698340 18286.923080 889048.750 140.461540 43.0 838493301.941860 0.0 0.0 0.0 0.0 0.0 0.0 0.0 -3.27680 -3.27680 -3.27680 -3.27680 -3.27680 -3.27680
22.77 22.788540 0.0 45.633330 14.940670 0.0960 0.1020 1.0 0.0 200.0 15.369530 505.833330 197.0 15.369530 18286.0 889049.0 140.384620 43.0 838493772.922960 0.0 0.0 0.0 0.0 0.0 0.0 0.0 -3.27680 -3.27680 -3.27680 -3.27680 -3.27680 -3.27680
22.76 22.780140 0.0 45.666670 14.9380 0.0960 0.1020 1.0 0.0 200.0 15.040720 505.0 196.923080 15.040720 18280.333330 889049.153850 140.307690 43.0 838494062.758290 0.0 0.0 0.0 0.0 0.0 0.0 0.0 -3.27680 -3.27680 -3.27680 -3.27680 -3.27680 -3.27680
22.75 22.771730 0.0 45.70 14.935330 0.0960 0.1020 1.0 0.0 200.0 14.711920 504.166670 196.846150 14.711920 18274.666670 889049.307690 140.230770 43.0 838494352.593620 0.0 0.0 0.0 0.0 0.0 0.0 0.0 -3.27680 -3.27680 -3.27680 -3.27680 -3.27680 -3.27680
22.74 22.759130 0.0 45.750 14.932670 0.0960 0.1020 1.0 0.0 200.0 14.383110 503.333330 196.769230 14.383110 18269.0 889049.461540 140.153850 43.0 838494642.428950 0.0 0.0 0.0 0.0 0.0 0.0 0.0 -3.27680 -3.27680 -3.27680 -3.27680 -3.27680 -3.27680
22.73 22.746530 0.0 45.80 14.930 0.0960 0.1020 1.0 0.0 200.0 14.05430 502.50 196.692310 14.05430 18263.333330 889049.615380 140.076920 43.0 838494932.264280 0.0 0.0 0.0 0.0 0.0 0.0 0.0 -3.27680 -3.27680 -3.27680 -3.27680 -3.27680 -3.27680
22.72 22.738390 0.0 45.833330 14.932670 0.0960 0.1020 1.0 0.0 200.0 13.725490 501.666670 196.615380 13.725490 18257.666670 889049.769230 140.0 43.0 838495222.099610 0.0 0.0 0.0 0.0 0.0 0.0 0.0 -3.27680 -3.27680 -3.27680 -3.27680 -3.27680 -3.27680
22.71 22.730250 0.0 45.866670 14.935330 0.0960 0.1020 1.0 0.0 200.0 14.248370 500.833330 196.538460 14.248370 18252.0 889049.923080 140.083330 43.0 838495511.934950 0.0 0.0 0.0 0.0 0.0 0.0 0.0 -3.27680 -3.27680 -3.27680 -3.27680 -3.27680 -3.27680
22.70 22.722120 0.0 45.90 14.9380 0.0960 0.1020 1.0 0.0 200.0 14.771240 500.0 196.461540 14.771240 18246.333330 889050.076920 140.166670 43.0 838495801.770280 0.0 0.0 0.0 0.0 0.0 0.0 0.0 -3.27680 -3.27680 -3.27680 -3.27680 -3.27680 -3.27680
22.69 22.709510 0.0 45.950 14.940670 0.0960 0.1020 1.0 0.0 200.0 15.294120 492.307690 196.384620 15.294120 18240.666670 889050.230770 140.250 43.0 838496091.605610 0.0 0.0 0.0 0.0 0.0 0.0 0.0 -3.27680 -3.27680 -3.27680 -3.27680 -3.27680 -3.27680
22.68 22.696910 0.0 46.0 14.943330 0.0960 0.1020 1.0 0.0 200.0 15.816990 484.615380 196.307690 15.816990 18235.0 889050.384620 140.333330 43.0 838496381.440940 0.0 0.0 0.0 0.0 0.0 0.0 0.0 -3.27680 -3.27680 -3.27680 -3.27680 -3.27680 -3.27680
22.67 22.688510 0.0 46.033330 14.9460 0.0960 0.1020 1.0 0.0 200.0 16.339870 476.923080 196.230770 16.339870 18229.333330 889050.538460 140.416670 43.0 838496671.276270 0.0 0.0 0.0 0.0 0.0 0.0 0.0 -3.27680 -3.27680 -3.27680 -3.27680 -3.27680 -3.27680
22.66 22.680110 0.0 46.066670 14.948670 0.0960 0.1020 1.0 0.0 200.0 16.862750 469.230770 196.153850 16.862750 18223.666670 889050.692310 140.50 43.0 838496961.11160 0.0 0.0 0.0 0.0 0.0 0.0 0.0 -3.27680 -3.27680 -3.27680 -3.27680 -3.27680 -3.27680
22.65 22.671710 0.0 46.10 14.951330 0.0960 0.1020 1.0 0.0 200.0 17.385620 461.538460 196.076920 17.385620 18218.0 889050.846150 140.583330 43.0 838497250.946940 0.0 0.0 0.0 0.0 0.0 0.0 0.0 -3.27680 -3.27680 -3.27680 -3.27680 -3.27680 -3.27680
22.64 22.659110 0.0 46.150 14.9540 0.0960 0.1020 1.0 0.0 200.0 17.90850 453.846150 196.0 17.90850 18213.846150 889051.0 140.666670 43.0 838497540.782270 0.0 0.0 0.0 0.0 0.0 0.0 0.0 -3.27680 -3.27680 -3.27680 -3.27680 -3.27680 -3.27680
22.63 22.646510 0.0 46.20 14.956670 0.0960 0.1020 1.0 0.0 200.0 18.431370 446.153850 196.083330 18.431370 18209.692310 889051.416670 140.750 43.0 838498325.756040 0.0 0.0 0.0 0.0 0.0 0.0 0.0 -3.27680 -3.27680 -3.27680 -3.27680 -3.27680 -3.27680
22.62 22.638110 0.0 46.233330 14.959330 0.0960 0.1020 1.0 0.0 200.0 18.954250 438.461540 196.166670 18.954250 18205.538460 889051.833330 140.833330 43.0 838499110.729820 0.0 0.0 0.0 0.0 0.0 0.0 0.0 -3.27680 -3.27680 -3.27680 -3.27680 -3.27680 -3.27680
22.61 22.62970 0.0 46.266670 14.9620 0.0960 0.1020 1.0 0.0 200.0 19.477120 430.769230 196.250 19.477120 18201.384620 889052.250 140.916670 43.0 838499895.70360 0.0 0.0 0.0 0.0 0.0 0.0 0.0 -3.27680 -3.27680 -3.27680 -3.27680 -3.27680 -3.27680
