~VERSION INFORMATION SECTION
VERS. 2.0 : CWLS LAS-VERSION 2.0
WRAP. NO : One line per depth step
~WELL INFORMATION SECTION
# MNEM.UNIT VALUE/NAME DESCRIPTION
#-------- -------------- ---------------------
STRT.Metres 23 : Start
STOP.Metres -2.05 : Stop
STEP.Metres -0.01 : Step
NULL.  -999.25 :NULL VALUE
DATE. 2026-45-09 : DATE
~CURVE INFORMATION SECTION
DEPTH.Metres : 0 Depth
Depth. : 1 Depth
Tension. : 2 Tension
Time. : 3 Time
Speed. : 4 Speed
Voltage. : 5 Voltage
Current. : 6 Current
WET. : 7 WET
Sig. : 8 Sig
Vth. : 9 Vth
GR.CPS : 10 GR
Timebase.ms : 11 Timebase
HeadVoltage.V : 12 Head Voltage
API.API : 13 API
Conductivity.uS : 14 Conductivity
PT100.Ohms : 15 PT100
Vmon.mV : 16 Vmon
Status. : 17 Status
Temperature.C : 18 Temperature
Incline.Deg : 19 Incline
Azimuth.Deg : 20 Azimuth
RelativeBearing.Deg : 21 Relative Bearing
MagneticToolFace.Deg : 22 Magnetic Tool Face
GravityMagnitude.G : 23 Gravity Magnitude
MagnetometerMagnitude.H : 24 Magnetometer Magnitude
Temperature.C : 25 Temperature
GX. : 26 GX
GY. : 27 GY
GZ. : 28 GZ
HX. : 29 HX
HY. : 30 HY
HZ. : 31 HZ
~PARAMETER INFORMATION SECTION
~OTHER
#-------------------------------------------------
#Produced By: GeoVista Logger - Version 7.1.107.0
Verticality Sonde - 9605
Temperature and Conductivity Sonde - Inline - 8974
Natural Gamma Sonde - 9931
WLIS - 10021
#-------------------------------------------------
~ASCII LOG DATA
# ...
5.50 5.52340 0.0 80.10 15.013330 0.0960 0.1020 1.0 43.0 200.0 22.307690 500.0 197.0 22.307690 1754.0 890617.384620 155.769230 42.0 841451098.896150 0.0 0.0 0.0 0.0 0.0 0.0 0.0 -3.27680 -3.27680 -3.27680 -3.27680 -3.27680 -3.27680
5.49 5.51080 0.0 80.150 15.016670 0.0960 0.1020 1.0 43.0 200.0 21.538460 500.0 197.0 21.538460 1753.0 890618.076920 155.846150 42.0 841452405.456240 0.0 0.0 0.0 0.0 0.0 0.0 0.0 -3.27680 -3.27680 -3.27680 -3.27680 -3.27680 -3.27680
5.48 5.49820 0.0 80.20 15.020 0.0960 0.1020 1.0 43.0 200.0 20.769230 500.0 197.0 20.769230 1752.0 890618.769230 155.923080 42.0 841453712.016330 0.0 0.0 0.0 0.0 0.0 0.0 0.0 -3.27680 -3.27680 -3.27680 -3.27680 -3.27680 -3.27680
5.47 5.48980 0.0 80.233330 15.016670 0.0960 0.1020 1.0 43.0 200.0 20.0 500.0 197.0 20.0 1751.0 890619.461540 156.0 42.0 841455018.576420 0.0 0.0 0.0 0.0 0.0 0.0 0.0 -3.27680 -3.27680 -3.27680 -3.27680 -3.27680 -3.27680
5.46 5.48140 0.0 80.266670 15.013330 0.0960 0.1020 1.0 43.0 200.0 21.333330 500.0 197.0 21.333330 1750.0 890620.153850 155.916670 42.0 841456325.136510 0.0 0.0 0.0 0.0 0.0 0.0 0.0 -3.27680 -3.27680 -3.27680 -3.27680 -3.27680 -3.27680
5.45 5.4730 0.0 80.30 15.010 0.0960 0.1020 1.0 43.0 200.0 22.666670 500.0 197.0 22.666670 1749.0 890620.846150 155.833330 42.0 841457631.696590 0.0 0.0 0.0 0.0 0.0 0.0 0.0 -3.27680 -3.27680 -3.27680 -3.27680 -3.27680 -3.27680
5.44 5.460790 0.0 80.350 15.006670 0.0960 0.1020 1.0 43.0 200.0 24.0 500.0 197.0 24.0 1748.0 890621.538460 155.750 42.0 841458938.256680 0.0 0.0 0.0 0.0 0.0 0.0 0.0 -3.27680 -3.27680 -3.27680 -3.27680 -3.27680 -3.27680
5.43 5.448580 0.0 80.40 15.003330 0.0960 0.1020 1.0 43.0 200.0 25.333330 500.0 197.0 25.333330 1747.0 890622.230770 155.666670 42.0 841460244.816770 0.0 0.0 0.0 0.0 0.0 0.0 0.0 -3.27680 -3.27680 -3.27680 -3.27680 -3.27680 -3.27680
5.42 5.440180 0.0 80.433330 15.0 0.0960 0.1020 1.0 43.0 200.0 26.666670 500.0 197.0 26.666670 1746.0 890622.923080 155.583330 42.0 841461551.376860 0.0 0.0 0.0 0.0 0.0 0.0 0.0 -3.27680 -3.27680 -3.27680 -3.27680 -3.27680 -3.27680
5.41 5.431780 0.0 80.466670 14.996670 0.0960 0.1020 1.0 43.0 200.0 28.0 500.0 197.0 28.0 1745.0 890623.615380 155.50 42.0 841462857.936950 0.0 0.0 0.0 0.0 0.0 0.0 0.0 -3.27680 -3.27680 -3.27680 -3.27680 -3.27680 -3.27680
5.40 5.423380 0.0 80.50 14.993330 0.0960 0.1020 1.0 43.0 200.0 29.333330 500.0 197.0 29.333330 1744.0 890624.307690 155.416670 42.0 841464164.497040 0.0 0.0 0.0 0.0 0.0 0.0 0.0 -3.27680 -3.27680 -3.27680 -3.27680 -3.27680 -3.27680
5.39 5.410780 0.0 80.550 14.990 0.0960 0.1020 1.0 43.0 200.0 30.666670 500.0 197.0 30.666670 1744.846150 890625.0 155.333330 42.0 841465471.057130 0.0 0.0 0.0 0.0 0.0 0.0 0.0 -3.27680 -3.27680 -3.27680 -3.27680 -3.27680 -3.27680
5.38 5.398180 0.0 80.60 14.986670 0.0960 0.1020 1.0 43.0 200.0 32.0 500.0 197.0 32.0 1745.692310 890625.750 155.250 42.0 841466886.511510 0.0 0.0 0.0 0.0 0.0 0.0 0.0 -3.27680 -3.27680 -3.27680 -3.27680 -3.27680 -3.27680
5.37 5.390040 0.0 80.633330 14.983330 0.0960 0.1020 1.0 43.0 200.0 33.333330 500.0 197.0 33.333330 1746.538460 890626.50 155.166670 42.0 841468301.965890 0.0 0.0 0.0 0.0 0.0 0.0 0.0 -3.27680 -3.27680 -3.27680 -3.27680 -3.27680 -3.27680
5.36 5.38190 0.0 80.666670 14.980 0.0960 0.1020 1.0 43.0 200.0 34.666670 500.0 197.0 34.666670 1747.384620 890627.250 155.083330 42.0 841469717.420280 0.0 0.0 0.0 0.0 0.0 0.0 0.0 -3.27680 -3.27680 -3.27680 -3.27680 -3.27680 -3.27680
5.35 5.373760 0.0 80.70 14.976670 0.0960 0.1020 1.0 43.0 200.0 36.0 500.0 197.0 36.0 1748.230770 890628.0 155.0 42.0 841471132.874660 0.0 0.0 0.0 0.0 0.0 0.0 0.0 -3.27680 -3.27680 -3.27680 -3.27680 -3.27680 -3.27680
5.34 5.361160 0.0 80.750 14.973330 0.0960 0.1020 1.0 43.0 200.0 35.538460 500.0 197.0 35.538460 1749.076920 890628.750 155.0 42.0 841472548.329040 0.0 0.0 0.0 0.0 0.0 0.0 0.0 -3.27680 -3.27680 -3.27680 -3.27680 -3.27680 -3.27680
5.33 5.348560 0.0 80.80 14.970 0.0960 0.1020 1.0 43.0 200.0 35.076920 500.0 197.0 35.076920 1749.923080 890629.50 155.0 42.0 841473963.783420 0.0 0.0 0.0 0.0 0.0 0.0 0.0 -3.27680 -3.27680 -3.27680 -3.27680 -3.27680 -3.27680
5.32 5.340160 0.0 80.833330 14.973330 0.0960 0.1020 1.0 43.0 200.0 34.615380 500.0 197.0 34.615380 1750.769230 890630.250 155.0 42.0 841475379.237810 0.0 0.0 0.0 0.0 0.0 0.0 0.0 -3.27680 -3.27680 -3.27680 -3.27680 -3.27680 -3.27680
5.31 5.331760 0.0 80.866670 14.976670 0.0960 0.1020 1.0 43.0 200.0 34.153850 500.833330 197.0 34.153850 1751.615380 890631.0 155.0 42.0 841476794.692190 0.0 0.0 0.0 0.0 0.0 0.0 0.0 -3.27680 -3.27680 -3.27680 -3.27680 -3.27680 -3.27680
5.30 5.323350 0.0 80.90 14.980 0.0960 0.1020 1.0 43.0 200.0 33.692310 501.666670 197.0 33.692310 1752.461540 890631.750 155.0 42.0 841478210.146570 0.0 0.0 0.0 0.0 0.0 0.0 0.0 -3.27680 -3.27680 -3.27680 -3.27680 -3.27680 -3.27680
5.29 5.310750 0.0 80.950 14.983330 0.0960 0.1020 1.0 43.0 200.0 33.230770 502.50 197.0 33.230770 1753.307690 890632.50 155.0 42.0 841479625.600950 0.0 0.0 0.0 0.0 0.0 0.0 0.0 -3.27680 -3.27680 -3.27680 -3.27680 -3.27680 -3.27680
5.28 5.298150 0.0 81.0 14.986670 0.0960 0.1020 1.0 43.0 200.0 32.769230 503.333330 197.0 32.769230 1754.153850 890633.250 155.0 42.0 841481041.055340 0.0 0.0 0.0 0.0 0.0 0.0 0.0 -3.27680 -3.27680 -3.27680 -3.27680 -3.27680 -3.27680
5.27 5.289750 0.0 81.033330 14.990 0.0960 0.1020 1.0 43.0 200.0 32.307690 504.166670 197.0 32.307690 1755.0 890634.0 155.0 42.0 841482456.509720 0.0 0.0 0.0 0.0 0.0 0.0 0.0 -3.27680 -3.27680 -3.27680 -3.27680 -3.27680 -3.27680
5.26 5.281350 0.0 81.066670 14.993330 0.0960 0.1020 1.0 43.0 200.0 31.846150 505.0 197.0 31.846150 1757.0 890634.692310 155.0 42.0 841483763.096180 0.0 0.0 0.0 0.0 0.0 0.0 0.0 -3.27680 -3.27680 -3.27680 -3.27680 -3.27680 -3.27680
5.25 5.272950 0.0 81.10 14.996670 0.0960 0.1020 1.0 43.0 200.0 31.384620 505.833330 197.0 31.384620 1759.0 890635.384620 155.0 42.0 841485069.682640 0.0 0.0 0.0 0.0 0.0 0.0 0.0 -3.27680 -3.27680 -3.27680 -3.27680 -3.27680 -3.27680
5.24 5.260740 0.0 81.150 15.0 0.0960 0.1020 1.0 43.0 200.0 30.923080 506.666670 197.0 30.923080 1761.0 890636.076920 155.0 42.0 841486376.269110 0.0 0.0 0.0 0.0 0.0 0.0 0.0 -3.27680 -3.27680 -3.27680 -3.27680 -3.27680 -3.27680
5.23 5.248530 0.0 81.20 15.003330 0.0960 0.1020 1.0 43.0 200.0 30.461540 507.50 197.0 30.461540 1763.0 890636.769230 155.0 42.0 841487682.855570 0.0 0.0 0.0 0.0 0.0 0.0 0.0 -3.27680 -3.27680 -3.27680 -3.27680 -3.27680 -3.27680
5.22 5.240130 0.0 81.233330 15.006670 0.0960 0.1020 1.0 43.0 200.0 30.0 508.333330 197.0 30.0 1765.0 890637.461540 155.0 42.0 841488989.442030 0.0 0.0 0.0 0.0 0.0 0.0 0.0 -3.27680 -3.27680 -3.27680 -3.27680 -3.27680 -3.27680
5.21 5.231730 0.0 81.266670 15.010 0.0960 0.1020 1.0 43.0 200.0 29.787580 509.166670 197.0 29.787580 1767.0 890638.153850 155.083330 42.0 841490296.028490 0.0 0.0 0.0 0.0 0.0 0.0 0.0 -3.27680 -3.27680 -3.27680 -3.27680 -3.27680 -3.27680
5.20 5.223330 0.0 81.30 15.013330 0.0960 0.1020 1.0 43.0 200.0 29.575160 510.0 197.0 29.575160 1769.0 890638.846150 155.166670 42.0 841491602.614960 0.0 0.0 0.0 0.0 0.0 0.0 0.0 -3.27680 -3.27680 -3.27680 -3.27680 -3.27680 -3.27680
5.19 5.210730 0.0 81.350 15.016670 0.0960 0.1020 1.0 43.0 200.0 29.362750 509.230770 197.0 29.362750 1771.0 890639.538460 155.250 42.0 841492909.201420 0.0 0.0 0.0 0.0 0.0 0.0 0.0 -3.27680 -3.27680 -3.27680 -3.27680 -3.27680 -3.27680
5.18 5.198130 0.0 81.40 15.020 0.0960 0.1020 1.0 43.0 200.0 29.150330 508.461540 197.0 29.150330 1773.0 890640.230770 155.333330 42.0 841494215.787880 0.0 0.0 0.0 0.0 0.0 0.0 0.0 -3.27680 -3.27680 -3.27680 -3.27680 -3.27680 -3.27680
5.17 5.189730 0.0 81.433330 15.023330 0.0960 0.1020 1.0 43.0 200.0 28.937910 507.692310 197.0 28.937910 1775.0 890640.923080 155.416670 42.0 841495522.374350 0.0 0.0 0.0 0.0 0.0 0.0 0.0 -3.27680 -3.27680 -3.27680 -3.27680 -3.27680 -3.27680
5.16 5.181320 0.0 81.466670 15.026670 0.0960 0.1020 1.0 43.0 200.0 28.725490 506.923080 197.0 28.725490 1777.0 890641.615380 155.50 42.0 841496828.960810 0.0 0.0 0.0 0.0 0.0 0.0 0.0 -3.27680 -3.27680 -3.27680 -3.27680 -3.27680 -3.27680
