~VERSION INFORMATION SECTION
VERS. 2.0 : CWLS LAS-VERSION 2.0
WRAP. NO : One line per depth step
~WELL INFORMATION SECTION
# MNEM.UNIT VALUE/NAME DESCRIPTION
#-------- -------------- ---------------------
STRT.Metres 26 : Start
STOP.Metres -2.05 : Stop
STEP.Metres -0.01 : Step
NULL.  -999.25 :NULL VALUE
DATE. 2026-40-09 : DATE
~CURVE INFORMATION SECTION
DEPTH.Metres : 0 Depth
Depth. : 1 Depth
Tension. : 2 Tension
Time. : 3 Time
Speed. : 4 Speed
Voltage. : 5 Voltage
Current. : 6 Current
WET. : 7 WET
Sig. : 8 Sig
Vth. : 9 Vth
GR.CPS : 10 GR
Timebase.ms : 11 Timebase
HeadVoltage.V : 12 Head Voltage
API.API : 13 API
Conductivity.uS : 14 Conductivity
PT100.Ohms : 15 PT100
Vmon.mV : 16 Vmon
Status. : 17 Status
Temperature.C : 18 Temperature
Incline.Deg : 19 Incline
Azimuth.Deg : 20 Azimuth
RelativeBearing.Deg : 21 Relative Bearing
MagneticToolFace.Deg : 22 Magnetic Tool Face
GravityMagnitude.G : 23 Gravity Magnitude
MagnetometerMagnitude.H : 24 Magnetometer Magnitude
Temperature.C : 25 Temperature
GX. : 26 GX
GY. : 27 GY
GZ. : 28 GZ
HX. : 29 HX
HY. : 30 HY
HZ. : 31 HZ
~PARAMETER INFORMATION SECTION
~OTHER
#-------------------------------------------------
#Produced By: GeoVista Logger - Version 7.1.107.0
Verticality Sonde - 9605
Temperature and Conductivity Sonde - Inline - 8974
Natural Gamma Sonde - 9931
WLIS - 10021
#-------------------------------------------------
~ASCII LOG DATA
# ...
19.49 19.509120 0.0 58.850 14.930 0.0960 0.1030 1.0 2.0 200.0 19.0 500.0 197.0 19.0 11450.0 889121.692310 141.250 42.0 838630725.564060 0.0 0.0 0.0 0.0 0.0 0.0 0.0 -3.27680 -3.27680 -3.27680 -3.27680 -3.27680 -3.27680
19.48 19.496130 0.0 58.90 14.930 0.0960 0.1020 1.0 2.0 200.0 18.0 500.0 197.0 18.0 11407.0 889122.153850 141.333330 42.0 838631595.139410 0.0 0.0 0.0 0.0 0.0 0.0 0.0 -3.27680 -3.27680 -3.27680 -3.27680 -3.27680 -3.27680
19.47 19.487730 0.0 58.933330 14.930 0.0960 0.1020 1.0 2.0 200.0 17.0 500.0 197.0 17.0 11364.0 889122.615380 141.416670 42.0 838632464.714760 0.0 0.0 0.0 0.0 0.0 0.0 0.0 -3.27680 -3.27680 -3.27680 -3.27680 -3.27680 -3.27680
19.46 19.479320 0.0 58.966670 14.930 0.0960 0.1020 1.0 2.0 200.0 16.0 500.0 197.0 16.0 11321.0 889123.076920 141.50 42.0 838633334.290110 0.0 0.0 0.0 0.0 0.0 0.0 0.0 -3.27680 -3.27680 -3.27680 -3.27680 -3.27680 -3.27680
19.45 19.470920 0.0 59.0 14.930 0.0960 0.1020 1.0 2.0 200.0 15.0 500.0 197.0 15.0 11278.0 889123.538460 141.583330 42.0 838634203.865450 0.0 0.0 0.0 0.0 0.0 0.0 0.0 -3.27680 -3.27680 -3.27680 -3.27680 -3.27680 -3.27680
19.44 19.458720 0.0 59.050 14.930 0.0960 0.1020 1.0 2.0 200.0 14.0 500.0 197.0 14.0 11243.923080 889124.0 141.666670 42.0 838635073.44080 0.0 0.0 0.0 0.0 0.0 0.0 0.0 -3.27680 -3.27680 -3.27680 -3.27680 -3.27680 -3.27680
19.43 19.446510 0.0 59.10 14.930 0.0960 0.1020 1.0 2.0 200.0 13.0 500.0 197.0 13.0 11209.846150 889124.50 141.750 42.0 838636015.487110 0.0 0.0 0.0 0.0 0.0 0.0 0.0 -3.27680 -3.27680 -3.27680 -3.27680 -3.27680 -3.27680
19.42 19.438110 0.0 59.133330 14.930 0.0960 0.1020 1.0 2.0 200.0 12.0 500.0 197.0 12.0 11175.769230 889125.0 141.833330 42.0 838636957.533420 0.0 0.0 0.0 0.0 0.0 0.0 0.0 -3.27680 -3.27680 -3.27680 -3.27680 -3.27680 -3.27680
19.41 19.429710 0.0 59.166670 14.930 0.0960 0.1020 1.0 2.0 200.0 11.0 500.0 197.0 11.0 11141.692310 889125.50 141.916670 42.0 838637899.579730 0.0 0.0 0.0 0.0 0.0 0.0 0.0 -3.27680 -3.27680 -3.27680 -3.27680 -3.27680 -3.27680
19.40 19.421310 0.0 59.20 14.930 0.0960 0.1020 1.0 2.0 200.0 10.0 500.0 197.0 10.0 11107.615380 889126.0 142.0 42.0 838638841.626040 0.0 0.0 0.0 0.0 0.0 0.0 0.0 -3.27680 -3.27680 -3.27680 -3.27680 -3.27680 -3.27680
19.39 19.40910 0.0 59.250 14.930 0.0960 0.1020 1.0 2.0 200.0 11.538460 500.0 197.0 11.538460 11073.538460 889126.50 142.0 42.0 838639783.672350 0.0 0.0 0.0 0.0 0.0 0.0 0.0 -3.27680 -3.27680 -3.27680 -3.27680 -3.27680 -3.27680
19.38 19.396890 0.0 59.30 14.930 0.0960 0.1020 1.0 2.0 200.0 13.076920 500.0 197.0 13.076920 11039.461540 889127.0 142.0 42.0 838640725.718660 0.0 0.0 0.0 0.0 0.0 0.0 0.0 -3.27680 -3.27680 -3.27680 -3.27680 -3.27680 -3.27680
19.37 19.388490 0.0 59.333330 14.930 0.0960 0.1020 1.0 2.0 200.0 14.615380 500.0 197.0 14.615380 11005.384620 889127.50 142.0 42.0 838641667.764970 0.0 0.0 0.0 0.0 0.0 0.0 0.0 -3.27680 -3.27680 -3.27680 -3.27680 -3.27680 -3.27680
19.36 19.380090 0.0 59.366670 14.930 0.0960 0.1020 1.0 2.0 200.0 16.153850 500.0 197.0 16.153850 10971.307690 889128.0 142.0 42.0 838642609.811280 0.0 0.0 0.0 0.0 0.0 0.0 0.0 -3.27680 -3.27680 -3.27680 -3.27680 -3.27680 -3.27680
19.35 19.371690 0.0 59.40 14.930 0.0960 0.1020 1.0 2.0 200.0 17.692310 500.0 197.0 17.692310 10937.230770 889128.50 142.0 42.0 838643551.857590 0.0 0.0 0.0 0.0 0.0 0.0 0.0 -3.27680 -3.27680 -3.27680 -3.27680 -3.27680 -3.27680
19.34 19.359090 0.0 59.450 14.930 0.0960 0.1020 1.0 2.0 200.0 19.230770 500.0 197.0 19.230770 10903.153850 889129.0 142.0 42.0 838644493.90390 0.0 0.0 0.0 0.0 0.0 0.0 0.0 -3.27680 -3.27680 -3.27680 -3.27680 -3.27680 -3.27680
19.33 19.346480 0.0 59.50 14.930 0.0960 0.1020 1.0 2.0 200.0 20.769230 500.0 197.0 20.769230 10869.076920 889129.50 142.0 42.0 838645435.95020 0.0 0.0 0.0 0.0 0.0 0.0 0.0 -3.27680 -3.27680 -3.27680 -3.27680 -3.27680 -3.27680
19.32 19.338080 0.0 59.533330 14.930 0.0960 0.1020 1.0 2.0 200.0 22.307690 500.0 197.0 22.307690 10835.0 889130.0 142.0 42.0 838646377.996510 0.0 0.0 0.0 0.0 0.0 0.0 0.0 -3.27680 -3.27680 -3.27680 -3.27680 -3.27680 -3.27680
19.31 19.329680 0.0 59.566670 14.930 0.0960 0.1020 1.0 2.0 200.0 23.846150 500.0 197.0 23.846150 10795.333330 889130.846150 142.0 42.0 838647972.243950 0.0 0.0 0.0 0.0 0.0 0.0 0.0 -3.27680 -3.27680 -3.27680 -3.27680 -3.27680 -3.27680
19.30 19.321280 0.0 59.60 14.930 0.0960 0.1020 1.0 2.0 200.0 25.384620 500.0 197.0 25.384620 10755.666670 889131.692310 142.0 42.0 838649566.491390 0.0 0.0 0.0 0.0 0.0 0.0 0.0 -3.27680 -3.27680 -3.27680 -3.27680 -3.27680 -3.27680
19.29 19.309070 0.0 59.650 14.930 0.0960 0.1030 1.0 2.0 200.0 26.923080 500.0 197.0 26.923080 10716.0 889132.538460 142.0 42.0 838651160.738830 0.0 0.0 0.0 0.0 0.0 0.0 0.0 -3.27680 -3.27680 -3.27680 -3.27680 -3.27680 -3.27680
19.28 19.296870 0.0 59.70 14.930 0.0960 0.1040 1.0 2.0 200.0 28.461540 500.0 197.0 28.461540 10676.333330 889133.384620 142.0 42.0 838652754.986260 0.0 0.0 0.0 0.0 0.0 0.0 0.0 -3.27680 -3.27680 -3.27680 -3.27680 -3.27680 -3.27680
19.27 19.288730 0.0 59.733330 14.930 0.0960 0.1040 1.0 2.0 200.0 30.0 500.0 197.0 30.0 10636.666670 889134.230770 142.0 42.0 838654349.23370 0.0 0.0 0.0 0.0 0.0 0.0 0.0 -3.27680 -3.27680 -3.27680 -3.27680 -3.27680 -3.27680
19.26 19.280590 0.0 59.766670 14.930 0.0960 0.1040 1.0 2.0 200.0 30.50 500.0 197.0 30.50 10597.0 889135.076920 142.0 42.0 838655943.481140 0.0 0.0 0.0 0.0 0.0 0.0 0.0 -3.27680 -3.27680 -3.27680 -3.27680 -3.27680 -3.27680
19.25 19.272450 0.0 59.80 14.930 0.0960 0.1040 1.0 2.0 200.0 31.0 500.0 197.0 31.0 10557.333330 889135.923080 142.0 42.0 838657537.728580 0.0 0.0 0.0 0.0 0.0 0.0 0.0 -3.27680 -3.27680 -3.27680 -3.27680 -3.27680 -3.27680
19.24 19.259850 0.0 59.850 14.930 0.0960 0.1030 1.0 2.0 200.0 31.50 500.769230 197.0 31.50 10517.666670 889136.769230 142.0 42.0 838659131.976020 0.0 0.0 0.0 0.0 0.0 0.0 0.0 -3.27680 -3.27680 -3.27680 -3.27680 -3.27680 -3.27680
19.23 19.247250 0.0 59.90 14.930 0.0960 0.1020 1.0 2.0 200.0 32.0 501.538460 197.0 32.0 10478.0 889137.615380 142.0 42.0 838660726.223450 0.0 0.0 0.0 0.0 0.0 0.0 0.0 -3.27680 -3.27680 -3.27680 -3.27680 -3.27680 -3.27680
19.22 19.238850 0.0 59.933330 14.932670 0.0960 0.1020 1.0 2.0 200.0 32.50 502.307690 197.0 32.50 10438.333330 889138.461540 142.0 42.0 838662320.470890 0.0 0.0 0.0 0.0 0.0 0.0 0.0 -3.27680 -3.27680 -3.27680 -3.27680 -3.27680 -3.27680
19.21 19.230440 0.0 59.966670 14.935330 0.0960 0.1020 1.0 2.0 200.0 33.0 503.076920 197.0 33.0 10398.666670 889139.307690 142.0 42.0 838663914.718330 0.0 0.0 0.0 0.0 0.0 0.0 0.0 -3.27680 -3.27680 -3.27680 -3.27680 -3.27680 -3.27680
19.20 19.222040 0.0 60.0 14.9380 0.0960 0.1020 1.0 2.0 200.0 33.50 503.846150 197.0 33.50 10359.0 889140.153850 142.0 42.0 838665508.965770 0.0 0.0 0.0 0.0 0.0 0.0 0.0 -3.27680 -3.27680 -3.27680 -3.27680 -3.27680 -3.27680
19.19 19.209050 0.0 60.050 14.940670 0.0960 0.1020 1.0 2.0 200.0 34.0 504.615380 197.0 34.0 10318.615380 889141.0 142.0 42.0 838667103.21320 0.0 0.0 0.0 0.0 0.0 0.0 0.0 -3.27680 -3.27680 -3.27680 -3.27680 -3.27680 -3.27680
19.18 19.196050 0.0 60.10 14.943330 0.0960 0.1020 1.0 2.0 200.0 34.50 505.384620 197.0 34.50 10278.230770 889141.583330 142.0 42.0 838668202.288840 0.0 0.0 0.0 0.0 0.0 0.0 0.0 -3.27680 -3.27680 -3.27680 -3.27680 -3.27680 -3.27680
19.17 19.187650 0.0 60.133330 14.9460 0.0960 0.1020 1.0 2.0 200.0 35.0 506.153850 197.0 35.0 10237.846150 889142.166670 142.0 42.0 838669301.364470 0.0 0.0 0.0 0.0 0.0 0.0 0.0 -3.27680 -3.27680 -3.27680 -3.27680 -3.27680 -3.27680
19.16 19.179250 0.0 60.166670 14.948670 0.0960 0.1020 1.0 2.0 200.0 35.50 506.923080 197.0 35.50 10197.461540 889142.750 142.0 42.0 838670400.44010 0.0 0.0 0.0 0.0 0.0 0.0 0.0 -3.27680 -3.27680 -3.27680 -3.27680 -3.27680 -3.27680
19.15 19.170850 0.0 60.20 14.951330 0.0960 0.1020 1.0 2.0 200.0 36.0 507.692310 197.0 36.0 10157.076920 889143.333330 142.0 42.0 838671499.515730 0.0 0.0 0.0 0.0 0.0 0.0 0.0 -3.27680 -3.27680 -3.27680 -3.27680 -3.27680 -3.27680
19.14 19.158640 0.0 60.250 14.9540 0.0960 0.1020 1.0 2.0 200.0 35.493210 508.461540 197.0 35.493210 10116.692310 889143.916670 142.153850 42.0 838672598.591370 0.0 0.0 0.0 0.0 0.0 0.0 0.0 -3.27680 -3.27680 -3.27680 -3.27680 -3.27680 -3.27680
