~VERSION INFORMATION SECTION
VERS. 2.0 : CWLS LAS-VERSION 2.0
WRAP. NO : One line per depth step
~WELL INFORMATION SECTION
# MNEM.UNIT VALUE/NAME DESCRIPTION
#-------- -------------- ---------------------
STRT.Metres 2 : Start
STOP.Metres 22.45 : Stop
STEP.Metres 0.01 : Step
NULL.  -999.25 :NULL VALUE
DATE. 2026-02-09 : DATE
~CURVE INFORMATION SECTION
DEPTH.Metres : 0 Depth
Depth. : 1 Depth
Tension. : 2 Tension
Time. : 3 Time
Speed. : 4 Speed
Voltage. : 5 Voltage
Current. : 6 Current
WET. : 7 WET
Sig. : 8 Sig
Vth. : 9 Vth
GR.CPS : 10 GR
Timebase.ms : 11 Timebase
HeadVoltage.V : 12 Head Voltage
API.API : 13 API
Conductivity.uS : 14 Conductivity
PT100.Ohms : 15 PT100
Vmon.mV : 16 Vmon
Status. : 17 Status
Temperature.C : 18 Temperature
Incline.Deg : 19 Incline
Azimuth.Deg : 20 Azimuth
RelativeBearing.Deg : 21 Relative Bearing
MagneticToolFace.Deg : 22 Magnetic Tool Face
GravityMagnitude.G : 23 Gravity Magnitude
MagnetometerMagnitude.H : 24 Magnetometer Magnitude
Temperature.C : 25 Temperature
GX. : 26 GX
GY. : 27 GY
GZ. : 28 GZ
HX. : 29 HX
HY. : 30 HY
HZ. : 31 HZ
~PARAMETER INFORMATION SECTION
~OTHER
#-------------------------------------------------
#Produced By: GeoVista Logger - Version 7.1.107.0
Verticality Sonde - 6292
Temperature and Conductivity Sonde - Inline - 8974
Natural Gamma Sonde - 9931
WLIS - 10024
#-------------------------------------------------
~ASCII LOG DATA
2.00 -999.25 -999.25 -999.25 -999.25 -999.25 -999.25 -999.25 -999.25 -999.25 -999.25 -999.25 -999.25 -999.25 -999.25 -999.25 -999.25 -999.25 -999.25 -999.25 -999.25 -999.25 -999.25 -999.25 -999.25 -999.25 -999.25 -999.25 -999.25 -999.25 -999.25 -999.25
2.01 -999.25 -999.25 -999.25 -999.25 -999.25 -999.25 -999.25 -999.25 -999.25 -999.25 186.172840 -999.25 -999.25 -999.25 -999.25 -999.25 -999.25 -999.25 -999.25 -999.25 -999.25 -999.25 -999.25 -999.25 -999.25 -999.25 -999.25 -999.25 -999.25 -999.25 -999.25
2.02 -999.25 -999.25 -999.25 -999.25 -999.25 -999.25 -999.25 -999.25 -999.25 3.0 372.345680 -999.25 3.0 -999.25 -999.25 0.111110 -999.25 -999.25 -999.25 -999.25 -999.25 -999.25 -999.25 -999.25 -999.25 -999.25 -999.25 -999.25 -999.25 -999.25 -999.25
2.03 -999.25 -999.25 -999.25 -999.25 -999.25 -999.25 -999.25 -999.25 -999.25 6.0 558.518520 -999.25 6.0 -999.25 13.597570 0.222220 -999.25 2.817430 -999.25 -999.25 -999.25 -999.25 -999.25 -999.25 -999.25 -999.25 -999.25 -999.25 -999.25 -999.25 -999.25
2.04 -999.25 -999.25 -999.25 -999.25 -999.25 -999.25 -999.25 -999.25 -999.25 9.0 551.20370 -999.25 9.0 -999.25 27.195140 0.333330 -999.25 5.634870 -999.25 -999.25 -999.25 -999.25 -999.25 -999.25 -999.25 -999.25 -999.25 -999.25 -999.25 -999.25 -999.25
2.05 -999.25 -999.25 -999.25 -999.25 -999.25 -999.25 -999.25 -999.25 -999.25 12.0 543.888890 -999.25 12.0 -999.25 40.792710 0.444440 -999.25 8.45230 0.03750 7.1750 8.33750 15.43750 0.223750 0.7390 2.663750 -999.25 -999.25 -999.25 -999.25 -999.25 -999.25
2.06 -999.25 -999.25 -999.25 -999.25 -999.25 -999.25 -999.25 -999.25 -999.25 15.0 536.574070 -999.25 15.0 -999.25 54.390280 0.555560 -999.25 11.269740 0.0750 14.350 16.6750 30.8750 0.44750 1.4780 5.32750 0.000460 0.00110 0.198860 0.014520 -0.0220 -0.060260
2.07 -999.25 -999.25 -999.25 -999.25 -999.25 -999.25 -999.25 -999.25 -999.25 18.0 529.259260 -999.25 18.0 -1.266010 67.987850 0.666670 28.333330 14.087170 0.11250 21.5250 25.01250 46.31250 0.671250 2.2170 7.991250 0.000910 0.00220 0.397710 0.029040 -0.0440 -0.120510
2.08 -999.25 -999.25 -999.25 -999.25 -999.25 -999.25 -999.25 -999.25 -999.25 21.0 521.944440 65.333330 21.0 -2.532020 81.585420 0.777780 56.666670 16.904610 0.150 28.70 33.350 61.750 0.8950 2.9560 10.6550 0.001370 0.00330 0.596570 0.043570 -0.0660 -0.180770
2.09 -999.25 -999.25 -999.25 -999.25 -999.25 -999.25 -999.25 -999.25 -999.25 24.0 514.629630 130.666670 24.0 -3.798030 95.182990 0.888890 85.0 19.722040 0.18750 35.8750 41.68750 77.18750 1.118750 3.6950 13.318750 0.001820 0.00440 0.795420 0.058090 -0.0880 -0.241020
2.10 -999.25 -999.25 -999.25 -999.25 -999.25 -999.25 -999.25 -999.25 -999.25 24.0 507.314810 196.0 24.0 -5.064030 108.780560 1.0 113.333330 22.539470 0.2250 43.050 50.0250 92.6250 1.34250 4.4340 15.98250 0.002280 0.00550 0.994280 0.072610 -0.110 -0.301280
2.11 -999.25 -999.25 -999.25 -999.25 -999.25 -999.25 -999.25 -999.25 -999.25 24.0 500.0 196.0 24.0 -6.330040 108.780680 1.1250 141.666670 22.539760 0.26250 50.2250 58.36250 108.06250 1.566250 5.1730 18.646250 0.002730 0.00660 1.193130 0.087130 -0.1320 -0.361530
2.12 -999.25 -999.25 -999.25 -999.25 -999.25 -999.25 -999.25 -999.25 -999.25 24.0 500.0 196.0 24.0 -7.596050 108.780790 1.250 170.0 22.540060 0.30 57.40 66.70 123.50 1.790 5.9120 21.310 0.003190 0.00770 1.391990 0.101660 -0.1540 -0.421790
2.13 -999.25 -999.25 -999.25 -999.25 -999.25 -999.25 -999.25 -999.25 -999.25 24.0 500.0 196.0 24.0 -8.862060 108.78090 1.3750 198.333330 22.540350 0.30 57.33750 66.76250 123.50 1.789990 5.912880 21.30750 0.003640 0.00880 1.590840 0.116180 -0.1760 -0.482040
2.14 -999.25 -999.25 -999.25 -999.25 -999.25 -999.25 -999.25 -999.25 -999.25 24.0 500.0 196.0 24.0 -10.128070 108.781020 1.50 226.666670 22.540640 0.30 57.2750 66.8250 123.50 1.789980 5.913750 21.3050 0.00410 0.00990 1.78970 0.13070 -0.1980 -0.54230
2.15 -999.25 -999.25 -999.25 -999.25 -999.25 -999.25 -999.25 -999.25 -999.25 24.0 500.0 196.0 24.0 -11.394080 108.781130 1.6250 255.0 22.540930 0.30 57.21250 66.88750 123.50 1.789960 5.914630 21.30250 0.004010 0.009880 1.789710 0.130740 -0.198110 -0.542340
2.16 -999.25 -999.25 -999.25 -999.25 -999.25 -999.25 -999.25 -999.25 -999.25 24.0 500.0 196.0 24.0 -11.394080 108.781240 1.750 255.0 22.541220 0.30 57.150 66.950 123.50 1.789950 5.91550 21.30 0.003930 0.009850 1.789730 0.130780 -0.198230 -0.542380
2.17 -999.25 -999.25 -999.25 -999.25 -999.25 -999.25 -999.25 -999.25 -999.25 24.0 500.0 196.0 24.0 -11.394080 108.781360 1.8750 255.0 22.541510 0.30 57.08750 67.01250 123.50 1.789940 5.916380 21.29750 0.003840 0.009830 1.789740 0.130810 -0.198340 -0.542410
2.18 -999.25 -999.25 -999.25 -999.25 -999.25 -999.25 -999.25 -999.25 -999.25 24.0 500.0 196.0 24.0 -11.394080 108.781470 2.0 255.0 22.54180 0.30 57.0250 67.0750 123.50 1.789930 5.917250 21.2950 0.003750 0.00980 1.789750 0.130850 -0.198450 -0.542450
2.19 -999.25 -999.25 -999.25 -999.25 -999.25 -999.25 -999.25 -999.25 -999.25 23.0 500.0 196.0 23.0 -11.394080 108.781640 2.0 255.0 22.542230 0.30 56.96250 67.13750 123.50 1.789910 5.918130 21.29250 0.003660 0.009780 1.789760 0.130890 -0.198560 -0.542490
2.20 -999.25 -999.25 -999.25 -999.25 -999.25 -999.25 -999.25 -999.25 -999.25 22.0 500.0 196.0 22.0 -11.394080 108.78180 2.0 255.0 22.542660 0.30 56.90 67.20 123.50 1.78990 5.9190 21.290 0.003580 0.009750 1.789780 0.130930 -0.198680 -0.542530
2.21 -999.25 -999.25 -999.25 -999.25 -999.25 -999.25 -999.25 -999.25 -999.25 21.0 500.0 196.0 21.0 -11.394080 108.781970 2.0 255.0 22.543090 0.30 56.566670 67.466670 123.433330 1.789910 5.920110 21.292220 0.003490 0.009730 1.789790 0.130960 -0.198790 -0.542560
2.22 -999.25 -999.25 -999.25 -999.25 -999.25 -999.25 -999.25 -999.25 -999.25 20.0 500.0 196.0 20.0 -11.394080 108.782140 2.0 255.0 22.543530 0.30 56.233330 67.733330 123.366670 1.789920 5.921220 21.294440 0.00340 0.00970 1.78980 0.1310 -0.19890 -0.54260
2.23 -999.25 -999.25 -999.25 -999.25 -999.25 -999.25 -999.25 -999.25 -999.25 19.0 500.0 196.0 19.0 -11.394080 108.782310 2.0 255.0 22.543960 0.30 55.90 68.0 123.30 1.789930 5.922330 21.296670 0.00340 0.009660 1.789810 0.130770 -0.199210 -0.542660
2.24 -999.25 -999.25 -999.25 -999.25 -999.25 -999.25 -999.25 -999.25 25.0 18.0 500.0 196.0 18.0 -11.394080 108.782470 2.0 255.0 22.544390 0.30 55.566670 68.266670 123.233330 1.789940 5.923440 21.298890 0.00340 0.009610 1.789820 0.130530 -0.199520 -0.542710
2.25 -999.25 -999.25 -999.25 -999.25 -999.25 -999.25 -999.25 -999.25 50.0 17.0 500.0 196.0 17.0 -11.394080 108.782640 2.0 255.0 22.544820 0.30 55.233330 68.533330 123.166670 1.789960 5.924560 21.301110 0.00340 0.009570 1.789830 0.13030 -0.199830 -0.542770
2.26 -999.25 -999.25 -999.25 -999.25 -999.25 -999.25 -999.25 -999.25 75.0 16.0 500.0 196.0 16.0 -11.394080 108.782810 2.0 255.0 22.545250 0.30 54.90 68.80 123.10 1.789970 5.925670 21.303330 0.00340 0.009520 1.789840 0.130070 -0.200140 -0.542820
2.27 -999.25 -999.25 -999.25 -999.25 -999.25 -999.25 -999.25 -999.25 100.0 16.888890 500.0 196.0 16.888890 -11.394080 108.782980 2.0 255.0 22.545680 0.30 54.566670 69.066670 123.033330 1.789980 5.926780 21.305560 0.00340 0.009480 1.789860 0.129830 -0.200460 -0.542880
2.28 -999.25 -999.25 -999.25 -999.25 -999.25 -999.25 -999.25 -999.25 100.0 17.777780 500.0 196.0 17.777780 -11.394080 108.783050 2.0 255.0 22.545870 0.30 54.233330 69.333330 122.966670 1.789990 5.927890 21.307780 0.00340 0.009430 1.789870 0.12960 -0.200770 -0.542930
2.29 -999.25 -999.25 -999.25 -999.25 -999.25 -999.25 -999.25 -999.25 100.0 18.666670 500.0 196.0 18.666670 -11.394080 108.783130 2.0 255.0 22.546070 0.30 53.90 69.60 122.90 1.790 5.9290 21.310 0.00340 0.009390 1.789880 0.129370 -0.201080 -0.542990
2.30 -999.25 -999.25 -999.25 -999.25 -999.25 -999.25 -999.25 -999.25 100.0 19.555560 500.0 196.0 19.555560 -11.394080 108.78320 2.0 255.0 22.546260 0.30 53.88750 69.5750 122.86250 1.790 5.929750 21.310 0.00340 0.009340 1.789890 0.129130 -0.201390 -0.543040
2.31 -999.25 -999.25 -999.25 -999.25 -999.25 -999.25 -999.25 -999.25 100.0 20.444440 500.0 196.0 20.444440 -11.394080 108.783280 2.0 255.0 22.546460 0.30 53.8750 69.550 122.8250 1.790 5.93050 21.310 0.00340 0.00930 1.78990 0.12890 -0.20170 -0.54310
