~VERSION INFORMATION SECTION
VERS. 2.0 : CWLS LAS-VERSION 2.0
WRAP. NO : One line per depth step
~WELL INFORMATION SECTION
# MNEM.UNIT VALUE/NAME DESCRIPTION
#-------- -------------- ---------------------
STRT.Metres 26 : Start
STOP.Metres -2.05 : Stop
STEP.Metres -0.01 : Step
NULL.  -999.25 :NULL VALUE
DATE. 2026-23-09 : DATE
~CURVE INFORMATION SECTION
DEPTH.Metres : 0 Depth
Depth. : 1 Depth
Tension. : 2 Tension
Time. : 3 Time
Speed. : 4 Speed
Voltage. : 5 Voltage
Current. : 6 Current
WET. : 7 WET
Sig. : 8 Sig
Vth. : 9 Vth
GR.CPS : 10 GR
Timebase.ms : 11 Timebase
HeadVoltage.V : 12 Head Voltage
API.API : 13 API
Conductivity.uS : 14 Conductivity
PT100.Ohms : 15 PT100
Vmon.mV : 16 Vmon
Status. : 17 Status
Temperature.C : 18 Temperature
Incline.Deg : 19 Incline
Azimuth.Deg : 20 Azimuth
RelativeBearing.Deg : 21 Relative Bearing
MagneticToolFace.Deg : 22 Magnetic Tool Face
GravityMagnitude.G : 23 Gravity Magnitude
MagnetometerMagnitude.H : 24 Magnetometer Magnitude
Temperature.C : 25 Temperature
GX. : 26 GX
GY. : 27 GY
GZ. : 28 GZ
HX. : 29 HX
HY. : 30 HY
HZ. : 31 HZ
~PARAMETER INFORMATION SECTION
~OTHER
#-------------------------------------------------
#Produced By: GeoVista Logger - Version 7.1.107.0
Verticality Sonde - 9605
Temperature and Conductivity Sonde - Inline - 8974
Natural Gamma Sonde - 9931
WLIS - 10021
#-------------------------------------------------
~ASCII LOG DATA
# ...
4.25 4.275070 0.0 98.40 14.970 0.0960 0.10 1.0 44.0 200.0 14.153850 500.0 197.0 14.153850 1744.0 890751.0 159.0 43.0 841703282.993350 0.0 0.0 0.0 0.0 0.0 0.0 0.0 -3.27680 -3.27680 -3.27680 -3.27680 -3.27680 -3.27680
4.24 4.262460 0.0 98.450 14.970 0.0960 0.1010 1.0 44.0 200.0 14.923080 500.0 197.0 14.923080 1744.384620 890751.538460 159.0 43.0 841704299.359460 0.0 0.0 0.0 0.0 0.0 0.0 0.0 -3.27680 -3.27680 -3.27680 -3.27680 -3.27680 -3.27680
4.23 4.249860 0.0 98.50 14.970 0.0960 0.1020 1.0 44.0 200.0 15.692310 500.0 197.0 15.692310 1744.769230 890752.076920 159.0 43.0 841705315.725570 0.0 0.0 0.0 0.0 0.0 0.0 0.0 -3.27680 -3.27680 -3.27680 -3.27680 -3.27680 -3.27680
4.22 4.237650 0.0 98.550 14.970 0.0960 0.1020 1.0 44.0 200.0 16.461540 500.0 197.0 16.461540 1745.153850 890752.615380 159.0 43.0 841706332.091680 0.0 0.0 0.0 0.0 0.0 0.0 0.0 -3.27680 -3.27680 -3.27680 -3.27680 -3.27680 -3.27680
4.21 4.225450 0.0 98.60 14.970 0.0960 0.1020 1.0 44.0 200.0 17.230770 500.0 197.0 17.230770 1745.538460 890753.153850 159.0 43.0 841707348.457790 0.0 0.0 0.0 0.0 0.0 0.0 0.0 -3.27680 -3.27680 -3.27680 -3.27680 -3.27680 -3.27680
4.20 4.217050 0.0 98.633330 14.970 0.0960 0.1020 1.0 44.0 200.0 18.0 500.0 197.0 18.0 1745.923080 890753.692310 159.0 43.0 841708364.823890 0.0 0.0 0.0 0.0 0.0 0.0 0.0 -3.27680 -3.27680 -3.27680 -3.27680 -3.27680 -3.27680
4.19 4.208650 0.0 98.666670 14.970 0.0960 0.1020 1.0 44.0 200.0 18.166670 500.0 197.0 18.166670 1746.307690 890754.230770 159.0 43.0 841709381.190 0.0 0.0 0.0 0.0 0.0 0.0 0.0 -3.27680 -3.27680 -3.27680 -3.27680 -3.27680 -3.27680
4.18 4.200240 0.0 98.70 14.970 0.0960 0.1020 1.0 44.0 200.0 18.333330 500.0 197.0 18.333330 1746.692310 890754.769230 159.0 43.0 841710397.556110 0.0 0.0 0.0 0.0 0.0 0.0 0.0 -3.27680 -3.27680 -3.27680 -3.27680 -3.27680 -3.27680
4.17 4.191840 0.0 98.733330 14.970 0.0960 0.1020 1.0 44.0 200.0 18.50 500.0 197.0 18.50 1747.076920 890755.307690 159.0 43.0 841711413.922220 0.0 0.0 0.0 0.0 0.0 0.0 0.0 -3.27680 -3.27680 -3.27680 -3.27680 -3.27680 -3.27680
4.16 4.183440 0.0 98.766670 14.970 0.0960 0.1020 1.0 44.0 200.0 18.666670 500.0 197.0 18.666670 1747.461540 890755.846150 159.0 43.0 841712430.288330 0.0 0.0 0.0 0.0 0.0 0.0 0.0 -3.27680 -3.27680 -3.27680 -3.27680 -3.27680 -3.27680
4.15 4.175040 0.0 98.80 14.970 0.0960 0.1020 1.0 44.0 200.0 18.833330 500.0 197.0 18.833330 1747.846150 890756.384620 159.0 43.0 841713446.654440 0.0 0.0 0.0 0.0 0.0 0.0 0.0 -3.27680 -3.27680 -3.27680 -3.27680 -3.27680 -3.27680
4.14 4.162440 0.0 98.850 14.970 0.0960 0.1020 1.0 44.0 200.0 19.0 500.0 197.0 19.0 1748.230770 890756.923080 159.0 43.0 841714463.020550 0.0 0.0 0.0 0.0 0.0 0.0 0.0 -3.27680 -3.27680 -3.27680 -3.27680 -3.27680 -3.27680
4.13 4.149840 0.0 98.90 14.970 0.0960 0.1020 1.0 44.0 200.0 19.166670 500.0 197.0 19.166670 1748.615380 890757.461540 159.0 43.0 841715479.386660 0.0 0.0 0.0 0.0 0.0 0.0 0.0 -3.27680 -3.27680 -3.27680 -3.27680 -3.27680 -3.27680
4.12 4.141440 0.0 98.933330 14.973330 0.0960 0.1020 1.0 44.0 200.0 19.333330 500.0 197.0 19.333330 1749.0 890758.0 159.0 43.0 841716495.752770 0.0 0.0 0.0 0.0 0.0 0.0 0.0 -3.27680 -3.27680 -3.27680 -3.27680 -3.27680 -3.27680
4.11 4.133040 0.0 98.966670 14.976670 0.0960 0.1020 1.0 44.0 200.0 19.50 500.0 197.0 19.50 1747.166670 890758.384620 159.0 43.0 841717221.733440 0.0 0.0 0.0 0.0 0.0 0.0 0.0 -3.27680 -3.27680 -3.27680 -3.27680 -3.27680 -3.27680
4.10 4.124640 0.0 99.0 14.980 0.0960 0.1020 1.0 44.0 200.0 19.666670 500.0 197.0 19.666670 1745.333330 890758.769230 159.0 43.0 841717947.714120 0.0 0.0 0.0 0.0 0.0 0.0 0.0 -3.27680 -3.27680 -3.27680 -3.27680 -3.27680 -3.27680
4.09 4.112030 0.0 99.050 14.983330 0.0960 0.1020 1.0 44.0 200.0 19.833330 500.0 197.0 19.833330 1743.50 890759.153850 159.0 43.0 841718673.69480 0.0 0.0 0.0 0.0 0.0 0.0 0.0 -3.27680 -3.27680 -3.27680 -3.27680 -3.27680 -3.27680
4.08 4.099430 0.0 99.10 14.986670 0.0960 0.1020 1.0 44.0 200.0 20.0 500.0 197.0 20.0 1741.666670 890759.538460 159.0 43.0 841719399.675470 0.0 0.0 0.0 0.0 0.0 0.0 0.0 -3.27680 -3.27680 -3.27680 -3.27680 -3.27680 -3.27680
4.07 4.091290 0.0 99.133330 14.990 0.0960 0.1020 1.0 44.0 200.0 19.846150 500.0 197.0 19.846150 1739.833330 890759.923080 159.0 43.0 841720125.656150 0.0 0.0 0.0 0.0 0.0 0.0 0.0 -3.27680 -3.27680 -3.27680 -3.27680 -3.27680 -3.27680
4.06 4.083160 0.0 99.166670 14.993330 0.0960 0.1020 1.0 44.0 200.0 19.692310 500.0 197.0 19.692310 1738.0 890760.307690 159.0 43.0 841720851.636820 0.0 0.0 0.0 0.0 0.0 0.0 0.0 -3.27680 -3.27680 -3.27680 -3.27680 -3.27680 -3.27680
4.05 4.075020 0.0 99.20 14.996670 0.0960 0.1020 1.0 44.0 200.0 19.538460 500.0 197.0 19.538460 1736.166670 890760.692310 159.0 43.0 841721577.61750 0.0 0.0 0.0 0.0 0.0 0.0 0.0 -3.27680 -3.27680 -3.27680 -3.27680 -3.27680 -3.27680
4.04 4.062420 0.0 99.250 15.0 0.0960 0.1020 1.0 44.0 200.0 19.384620 500.0 197.0 19.384620 1734.333330 890761.076920 159.0 43.0 841722303.598180 0.0 0.0 0.0 0.0 0.0 0.0 0.0 -3.27680 -3.27680 -3.27680 -3.27680 -3.27680 -3.27680
4.03 4.049810 0.0 99.30 15.003330 0.0960 0.1020 1.0 44.0 200.0 19.230770 500.0 197.0 19.230770 1732.50 890761.461540 159.0 43.0 841723029.578850 0.0 0.0 0.0 0.0 0.0 0.0 0.0 -3.27680 -3.27680 -3.27680 -3.27680 -3.27680 -3.27680
4.02 4.041410 0.0 99.333330 15.006670 0.0960 0.1020 1.0 43.916670 200.0 19.076920 500.0 197.0 19.076920 1730.666670 890761.846150 159.0 43.0 841723755.559530 0.0 0.0 0.0 0.0 0.0 0.0 0.0 -3.27680 -3.27680 -3.27680 -3.27680 -3.27680 -3.27680
4.01 4.033010 0.0 99.366670 15.010 0.0960 0.1020 1.0 43.833330 200.0 18.923080 500.0 197.0 18.923080 1728.833330 890762.230770 159.0 43.0 841724481.540210 0.0 0.0 0.0 0.0 0.0 0.0 0.0 -3.27680 -3.27680 -3.27680 -3.27680 -3.27680 -3.27680
4.00 4.024610 0.0 99.40 15.013330 0.0960 0.1020 1.0 43.750 200.0 18.769230 500.0 197.0 18.769230 1727.0 890762.615380 159.0 43.0 841725207.520880 0.0 0.0 0.0 0.0 0.0 0.0 0.0 -3.27680 -3.27680 -3.27680 -3.27680 -3.27680 -3.27680
3.99 4.012010 0.0 99.450 15.016670 0.0960 0.1020 1.0 43.666670 200.0 18.615380 500.0 197.0 18.615380 1728.833330 890763.0 159.0 43.0 841725933.501560 0.0 0.0 0.0 0.0 0.0 0.0 0.0 -3.27680 -3.27680 -3.27680 -3.27680 -3.27680 -3.27680
3.98 3.999410 0.0 99.50 15.020 0.0960 0.1020 1.0 43.583330 200.0 18.461540 500.0 197.0 18.461540 1730.666670 890763.083330 159.0 43.0 841726090.79790 0.0 0.0 0.0 0.0 0.0 0.0 0.0 -3.27680 -3.27680 -3.27680 -3.27680 -3.27680 -3.27680
3.97 3.991010 0.0 99.533330 15.020 0.0960 0.1020 1.0 43.50 200.0 18.307690 500.0 197.0 18.307690 1732.50 890763.166670 159.0 43.0 841726248.094240 0.0 0.0 0.0 0.0 0.0 0.0 0.0 -3.27680 -3.27680 -3.27680 -3.27680 -3.27680 -3.27680
3.96 3.982610 0.0 99.566670 15.020 0.0960 0.1020 1.0 43.416670 200.0 18.153850 500.0 197.0 18.153850 1734.333330 890763.250 159.0 43.0 841726405.390580 0.0 0.0 0.0 0.0 0.0 0.0 0.0 -3.27680 -3.27680 -3.27680 -3.27680 -3.27680 -3.27680
3.95 3.97420 0.0 99.60 15.020 0.0960 0.1020 1.0 43.333330 200.0 18.0 500.0 197.0 18.0 1736.166670 890763.333330 159.0 43.0 841726562.686930 0.0 0.0 0.0 0.0 0.0 0.0 0.0 -3.27680 -3.27680 -3.27680 -3.27680 -3.27680 -3.27680
3.94 3.9620 0.0 99.650 15.020 0.0960 0.1020 1.0 43.250 200.0 19.166670 500.0 197.0 19.166670 1738.0 890763.416670 159.0 43.0 841726719.983270 0.0 0.0 0.0 0.0 0.0 0.0 0.0 -3.27680 -3.27680 -3.27680 -3.27680 -3.27680 -3.27680
3.93 3.949790 0.0 99.70 15.020 0.0960 0.1020 1.0 43.166670 200.0 20.333330 500.0 197.0 20.333330 1739.833330 890763.50 159.0 43.0 841726877.279610 0.0 0.0 0.0 0.0 0.0 0.0 0.0 -3.27680 -3.27680 -3.27680 -3.27680 -3.27680 -3.27680
3.92 3.937190 0.0 99.750 15.020 0.0960 0.1020 1.0 43.083330 200.0 21.50 500.0 197.0 21.50 1741.666670 890763.583330 159.0 43.0 841727034.575950 0.0 0.0 0.0 0.0 0.0 0.0 0.0 -3.27680 -3.27680 -3.27680 -3.27680 -3.27680 -3.27680
3.91 3.924590 0.0 99.80 15.020 0.0960 0.1020 1.0 43.0 200.0 22.666670 500.0 197.0 22.666670 1743.50 890763.666670 159.0 43.0 841727191.87230 0.0 0.0 0.0 0.0 0.0 0.0 0.0 -3.27680 -3.27680 -3.27680 -3.27680 -3.27680 -3.27680
3.90 3.916450 0.0 99.833330 15.020 0.0960 0.1020 1.0 43.0 200.0 23.833330 500.0 197.0 23.833330 1745.333330 890763.750 159.0 43.0 841727349.168640 0.0 0.0 0.0 0.0 0.0 0.0 0.0 -3.27680 -3.27680 -3.27680 -3.27680 -3.27680 -3.27680
