~VERSION INFORMATION SECTION
VERS. 2.0 : CWLS LAS-VERSION 2.0
WRAP. NO : One line per depth step
~WELL INFORMATION SECTION
# MNEM.UNIT VALUE/NAME DESCRIPTION
#-------- -------------- ---------------------
STRT.Metres 26 : Start
STOP.Metres -2.04 : Stop
STEP.Metres -0.01 : Step
NULL.  -999.25 :NULL VALUE
DATE. 2026-36-09 : DATE
~CURVE INFORMATION SECTION
DEPTH.Metres : 0 Depth
Depth. : 1 Depth
Tension. : 2 Tension
Time. : 3 Time
Speed. : 4 Speed
Voltage. : 5 Voltage
Current. : 6 Current
WET. : 7 WET
Sig. : 8 Sig
Vth. : 9 Vth
GR.CPS : 10 GR
Timebase.ms : 11 Timebase
HeadVoltage.V : 12 Head Voltage
API.API : 13 API
Conductivity.uS : 14 Conductivity
PT100.Ohms : 15 PT100
Vmon.mV : 16 Vmon
Status. : 17 Status
Temperature.C : 18 Temperature
Incline.Deg : 19 Incline
Azimuth.Deg : 20 Azimuth
RelativeBearing.Deg : 21 Relative Bearing
MagneticToolFace.Deg : 22 Magnetic Tool Face
GravityMagnitude.G : 23 Gravity Magnitude
MagnetometerMagnitude.H : 24 Magnetometer Magnitude
Temperature.C : 25 Temperature
GX. : 26 GX
GY. : 27 GY
GZ. : 28 GZ
HX. : 29 HX
HY. : 30 HY
HZ. : 31 HZ
~PARAMETER INFORMATION SECTION
~OTHER
#-------------------------------------------------
#Produced By: GeoVista Logger - Version 7.1.107.0
Verticality Sonde - 9605
Temperature and Conductivity Sonde - Inline - 8974
Natural Gamma Sonde - 9931
WLIS - 10021
#-------------------------------------------------
~ASCII LOG DATA
# ...
4.35 4.3680 0.0 119.30 14.996670 0.0960 0.1020 1.0 42.583330 200.0 11.936650 502.50 197.0 11.936650 1769.0 890711.230770 159.0 43.0 841628219.068270 0.0 0.0 0.0 0.0 0.0 0.0 0.0 -3.27680 -3.27680 -3.27680 -3.27680 -3.27680 -3.27680
4.34 4.35960 0.0 119.333330 14.993330 0.0960 0.1020 1.0 42.666670 200.0 11.764710 501.666670 197.0 11.764710 1768.50 890711.538460 159.0 43.0 841628799.821220 0.0 0.0 0.0 0.0 0.0 0.0 0.0 -3.27680 -3.27680 -3.27680 -3.27680 -3.27680 -3.27680
4.33 4.35120 0.0 119.366670 14.990 0.0960 0.1020 1.0 42.750 200.0 12.117650 500.833330 197.0 12.117650 1768.0 890711.846150 158.916670 43.0 841629380.574180 0.0 0.0 0.0 0.0 0.0 0.0 0.0 -3.27680 -3.27680 -3.27680 -3.27680 -3.27680 -3.27680
4.32 4.34280 0.0 119.40 14.986670 0.0960 0.1020 1.0 42.833330 200.0 12.470590 500.0 197.0 12.470590 1767.50 890712.153850 158.833330 43.0 841629961.327140 0.0 0.0 0.0 0.0 0.0 0.0 0.0 -3.27680 -3.27680 -3.27680 -3.27680 -3.27680 -3.27680
4.31 4.33020 0.0 119.450 14.983330 0.0960 0.1020 1.0 42.916670 200.0 12.823530 500.0 197.0 12.823530 1767.0 890712.461540 158.750 43.0 841630542.08010 0.0 0.0 0.0 0.0 0.0 0.0 0.0 -3.27680 -3.27680 -3.27680 -3.27680 -3.27680 -3.27680
4.30 4.31760 0.0 119.50 14.980 0.0960 0.1020 1.0 43.0 200.0 13.176470 500.0 197.0 13.176470 1766.50 890712.769230 158.666670 43.0 841631122.833050 0.0 0.0 0.0 0.0 0.0 0.0 0.0 -3.27680 -3.27680 -3.27680 -3.27680 -3.27680 -3.27680
4.29 4.309190 0.0 119.533330 14.976670 0.0960 0.1020 1.0 42.923080 200.0 13.529410 500.0 197.0 13.529410 1766.0 890713.076920 158.583330 43.0 841631703.586010 0.0 0.0 0.0 0.0 0.0 0.0 0.0 -3.27680 -3.27680 -3.27680 -3.27680 -3.27680 -3.27680
4.28 4.300790 0.0 119.566670 14.973330 0.0960 0.1020 1.0 42.846150 200.0 13.882350 500.0 197.0 13.882350 1765.50 890713.384620 158.50 43.0 841632284.338970 0.0 0.0 0.0 0.0 0.0 0.0 0.0 -3.27680 -3.27680 -3.27680 -3.27680 -3.27680 -3.27680
4.27 4.292390 0.0 119.60 14.970 0.0960 0.1020 1.0 42.769230 200.0 14.235290 500.0 197.0 14.235290 1765.0 890713.692310 158.416670 43.0 841632865.091930 0.0 0.0 0.0 0.0 0.0 0.0 0.0 -3.27680 -3.27680 -3.27680 -3.27680 -3.27680 -3.27680
4.26 4.280190 0.0 119.650 14.970 0.0960 0.1020 1.0 42.692310 200.0 14.588240 500.0 197.0 14.588240 1765.384620 890714.0 158.333330 43.0 841633445.844890 0.0 0.0 0.0 0.0 0.0 0.0 0.0 -3.27680 -3.27680 -3.27680 -3.27680 -3.27680 -3.27680
4.25 4.267980 0.0 119.70 14.970 0.0960 0.1020 1.0 42.615380 200.0 14.941180 500.0 197.0 14.941180 1765.769230 890714.416670 158.250 43.0 841634232.285150 0.0 0.0 0.0 0.0 0.0 0.0 0.0 -3.27680 -3.27680 -3.27680 -3.27680 -3.27680 -3.27680
4.24 4.259580 0.0 119.733330 14.970 0.0960 0.1020 1.0 42.538460 200.0 15.294120 500.0 197.0 15.294120 1766.153850 890714.833330 158.166670 43.0 841635018.725420 0.0 0.0 0.0 0.0 0.0 0.0 0.0 -3.27680 -3.27680 -3.27680 -3.27680 -3.27680 -3.27680
4.23 4.251180 0.0 119.766670 14.970 0.0960 0.1020 1.0 42.461540 200.0 15.647060 500.0 197.0 15.647060 1766.538460 890715.250 158.083330 43.0 841635805.165680 0.0 0.0 0.0 0.0 0.0 0.0 0.0 -3.27680 -3.27680 -3.27680 -3.27680 -3.27680 -3.27680
4.22 4.242770 0.0 119.80 14.970 0.0960 0.1020 1.0 42.384620 200.0 16.0 500.0 197.0 16.0 1766.923080 890715.666670 158.0 43.0 841636591.605950 0.0 0.0 0.0 0.0 0.0 0.0 0.0 -3.27680 -3.27680 -3.27680 -3.27680 -3.27680 -3.27680
4.21 4.230170 0.0 119.850 14.970 0.0960 0.1020 1.0 42.307690 200.0 16.461540 500.0 197.0 16.461540 1767.307690 890716.083330 158.076920 43.0 841637378.046210 0.0 0.0 0.0 0.0 0.0 0.0 0.0 -3.27680 -3.27680 -3.27680 -3.27680 -3.27680 -3.27680
4.20 4.217570 0.0 119.90 14.970 0.0960 0.1020 1.0 42.230770 200.0 16.923080 500.0 197.0 16.923080 1767.692310 890716.50 158.153850 43.0 841638164.486480 0.0 0.0 0.0 0.0 0.0 0.0 0.0 -3.27680 -3.27680 -3.27680 -3.27680 -3.27680 -3.27680
4.19 4.209430 0.0 119.933330 14.970 0.0960 0.1020 1.0 42.153850 200.0 17.384620 500.0 197.0 17.384620 1768.076920 890716.916670 158.230770 43.0 841638950.926740 0.0 0.0 0.0 0.0 0.0 0.0 0.0 -3.27680 -3.27680 -3.27680 -3.27680 -3.27680 -3.27680
4.18 4.201290 0.0 119.966670 14.970 0.0960 0.1020 1.0 42.076920 200.0 17.846150 500.0 197.0 17.846150 1768.461540 890717.333330 158.307690 43.0 841639737.367010 0.0 0.0 0.0 0.0 0.0 0.0 0.0 -3.27680 -3.27680 -3.27680 -3.27680 -3.27680 -3.27680
4.17 4.193160 0.0 120.0 14.970 0.0960 0.1020 1.0 42.0 200.0 18.307690 500.0 197.0 18.307690 1768.846150 890717.750 158.384620 43.0 841640523.807270 0.0 0.0 0.0 0.0 0.0 0.0 0.0 -3.27680 -3.27680 -3.27680 -3.27680 -3.27680 -3.27680
4.16 4.180550 0.0 120.050 14.970 0.0960 0.1020 1.0 42.0 200.0 18.769230 500.0 197.0 18.769230 1769.230770 890718.166670 158.461540 43.0 841641310.247540 0.0 0.0 0.0 0.0 0.0 0.0 0.0 -3.27680 -3.27680 -3.27680 -3.27680 -3.27680 -3.27680
4.15 4.167950 0.0 120.10 14.970 0.0960 0.1020 1.0 42.0 200.0 19.230770 500.0 197.0 19.230770 1769.615380 890718.583330 158.538460 43.0 841642096.68780 0.0 0.0 0.0 0.0 0.0 0.0 0.0 -3.27680 -3.27680 -3.27680 -3.27680 -3.27680 -3.27680
4.14 4.159550 0.0 120.133330 14.970 0.0960 0.1020 1.0 42.0 200.0 19.692310 500.0 197.0 19.692310 1770.0 890719.0 158.615380 43.0 841642883.128070 0.0 0.0 0.0 0.0 0.0 0.0 0.0 -3.27680 -3.27680 -3.27680 -3.27680 -3.27680 -3.27680
4.13 4.151150 0.0 120.166670 14.970 0.0960 0.1020 1.0 42.0 200.0 20.153850 500.0 197.0 20.153850 1767.250 890719.230770 158.692310 43.0 841643318.696940 0.0 0.0 0.0 0.0 0.0 0.0 0.0 -3.27680 -3.27680 -3.27680 -3.27680 -3.27680 -3.27680
4.12 4.142750 0.0 120.20 14.970 0.0960 0.1020 1.0 42.0 200.0 20.615380 500.0 197.0 20.615380 1764.50 890719.461540 158.769230 43.0 841643754.265810 0.0 0.0 0.0 0.0 0.0 0.0 0.0 -3.27680 -3.27680 -3.27680 -3.27680 -3.27680 -3.27680
4.11 4.130150 0.0 120.250 14.970 0.0960 0.1020 1.0 42.0 200.0 21.076920 500.0 197.0 21.076920 1761.750 890719.692310 158.846150 43.0 841644189.834680 0.0 0.0 0.0 0.0 0.0 0.0 0.0 -3.27680 -3.27680 -3.27680 -3.27680 -3.27680 -3.27680
4.10 4.117550 0.0 120.30 14.970 0.0960 0.1020 1.0 42.0 200.0 21.538460 500.0 197.0 21.538460 1759.0 890719.923080 158.923080 43.0 841644625.403550 0.0 0.0 0.0 0.0 0.0 0.0 0.0 -3.27680 -3.27680 -3.27680 -3.27680 -3.27680 -3.27680
4.09 4.109150 0.0 120.333330 14.970 0.0960 0.1020 1.0 42.0 200.0 22.0 500.0 197.0 22.0 1756.250 890720.153850 159.0 43.0 841645060.972420 0.0 0.0 0.0 0.0 0.0 0.0 0.0 -3.27680 -3.27680 -3.27680 -3.27680 -3.27680 -3.27680
4.08 4.100740 0.0 120.366670 14.970 0.0960 0.1020 1.0 42.0 200.0 20.833330 500.0 197.0 20.833330 1753.50 890720.384620 159.0 43.0 841645496.541290 0.0 0.0 0.0 0.0 0.0 0.0 0.0 -3.27680 -3.27680 -3.27680 -3.27680 -3.27680 -3.27680
4.07 4.092340 0.0 120.40 14.970 0.0960 0.1020 1.0 42.0 200.0 19.666670 500.0 197.0 19.666670 1750.750 890720.615380 159.0 43.0 841645932.110160 0.0 0.0 0.0 0.0 0.0 0.0 0.0 -3.27680 -3.27680 -3.27680 -3.27680 -3.27680 -3.27680
4.06 4.079740 0.0 120.450 14.970 0.0960 0.1020 1.0 42.0 200.0 18.50 500.0 197.0 18.50 1748.0 890720.846150 159.0 43.0 841646367.679030 0.0 0.0 0.0 0.0 0.0 0.0 0.0 -3.27680 -3.27680 -3.27680 -3.27680 -3.27680 -3.27680
4.05 4.067140 0.0 120.50 14.970 0.0960 0.1020 1.0 42.0 200.0 17.333330 500.0 197.0 17.333330 1745.250 890721.076920 159.0 43.0 841646803.24790 0.0 0.0 0.0 0.0 0.0 0.0 0.0 -3.27680 -3.27680 -3.27680 -3.27680 -3.27680 -3.27680
4.04 4.0590 0.0 120.533330 14.970 0.0960 0.1020 1.0 42.0 200.0 16.166670 500.0 197.0 16.166670 1742.50 890721.307690 159.0 43.0 841647238.816770 0.0 0.0 0.0 0.0 0.0 0.0 0.0 -3.27680 -3.27680 -3.27680 -3.27680 -3.27680 -3.27680
4.03 4.050860 0.0 120.566670 14.970 0.0960 0.1020 1.0 42.0 200.0 15.0 500.0 197.0 15.0 1739.750 890721.538460 159.0 43.0 841647674.385640 0.0 0.0 0.0 0.0 0.0 0.0 0.0 -3.27680 -3.27680 -3.27680 -3.27680 -3.27680 -3.27680
4.02 4.042730 0.0 120.60 14.970 0.0960 0.1020 1.0 42.0 200.0 13.833330 500.0 197.0 13.833330 1737.0 890721.769230 159.0 43.0 841648109.954510 0.0 0.0 0.0 0.0 0.0 0.0 0.0 -3.27680 -3.27680 -3.27680 -3.27680 -3.27680 -3.27680
4.01 4.030120 0.0 120.650 14.970 0.0960 0.1020 1.0 42.0 200.0 12.666670 500.0 197.0 12.666670 1738.307690 890722.0 159.0 43.0 841648545.523380 0.0 0.0 0.0 0.0 0.0 0.0 0.0 -3.27680 -3.27680 -3.27680 -3.27680 -3.27680 -3.27680
