~VERSION INFORMATION SECTION
VERS. 2.0 : CWLS LAS-VERSION 2.0
WRAP. NO : One line per depth step
~WELL INFORMATION SECTION
# MNEM.UNIT VALUE/NAME DESCRIPTION
#-------- -------------- ---------------------
STRT.Metres 2 : Start
STOP.Metres 22.45 : Stop
STEP.Metres 0.01 : Step
NULL.  -999.25 :NULL VALUE
DATE. 2026-02-09 : DATE
~CURVE INFORMATION SECTION
DEPTH.Metres : 0 Depth
Depth. : 1 Depth
Tension. : 2 Tension
Time. : 3 Time
Speed. : 4 Speed
Voltage. : 5 Voltage
Current. : 6 Current
WET. : 7 WET
Sig. : 8 Sig
Vth. : 9 Vth
GR.CPS : 10 GR
Timebase.ms : 11 Timebase
HeadVoltage.V : 12 Head Voltage
API.API : 13 API
Conductivity.uS : 14 Conductivity
PT100.Ohms : 15 PT100
Vmon.mV : 16 Vmon
Status. : 17 Status
Temperature.C : 18 Temperature
Incline.Deg : 19 Incline
Azimuth.Deg : 20 Azimuth
RelativeBearing.Deg : 21 Relative Bearing
MagneticToolFace.Deg : 22 Magnetic Tool Face
GravityMagnitude.G : 23 Gravity Magnitude
MagnetometerMagnitude.H : 24 Magnetometer Magnitude
Temperature.C : 25 Temperature
GX. : 26 GX
GY. : 27 GY
GZ. : 28 GZ
HX. : 29 HX
HY. : 30 HY
HZ. : 31 HZ
~PARAMETER INFORMATION SECTION
~OTHER
#-------------------------------------------------
#Produced By: GeoVista Logger - Version 7.1.107.0
Verticality Sonde - 6292
Temperature and Conductivity Sonde - Inline - 8974
Natural Gamma Sonde - 9931
WLIS - 10024
#-------------------------------------------------
~ASCII LOG DATA
# ...
17.06 17.058130 0.0 101.350 10.0450 0.0960 0.1030 1.0 29.0 100.0 26.0 500.0 196.0 26.0 90.781510 109.55770 152.250 43.0 24.540810 0.20 259.40 258.70 158.50 1.79180 6.0680 21.810 -0.001170 -0.005550 1.79170 0.24230 -0.09490 -0.548030
17.07 17.06640 0.0 101.40 10.050 0.0960 0.1020 1.0 29.0 100.0 27.0 500.0 196.0 27.0 90.796180 109.55750 152.3750 43.0 24.540290 0.20 258.844440 259.30 158.544440 1.79180 6.067890 21.810 -0.001190 -0.005570 1.79170 0.242350 -0.09480 -0.548010
17.08 17.074670 0.0 101.450 10.0550 0.0960 0.1030 1.0 29.0 100.0 28.0 500.0 196.0 28.0 90.810850 109.557290 152.50 43.0 24.539770 0.20 258.288890 259.90 158.588890 1.79180 6.067780 21.810 -0.00120 -0.00560 1.79170 0.24240 -0.09470 -0.5480
17.09 17.082940 0.0 101.50 10.060 0.0960 0.1040 1.0 29.0 100.0 29.0 500.0 196.0 29.0 90.825520 109.557090 152.6250 43.0 24.539250 0.20 257.733330 260.50 158.633330 1.79180 6.067670 21.810 -0.001110 -0.005550 1.79170 0.242540 -0.09430 -0.548040
17.10 17.100260 0.0 101.60 10.048890 0.0960 0.1040 1.0 29.0 100.0 30.0 500.0 196.0 30.0 91.03090 109.556890 152.750 43.0 24.538740 0.20 257.177780 261.10 158.677780 1.79180 6.067560 21.810 -0.001020 -0.00550 1.79170 0.242680 -0.09390 -0.548080
17.11 17.108530 0.0 101.650 10.037780 0.0960 0.1040 1.0 29.0 100.0 31.0 500.0 196.0 31.0 91.236270 109.556690 152.8750 43.0 24.538220 0.20 256.622220 261.70 158.722220 1.79180 6.067440 21.810 -0.000940 -0.005450 1.79170 0.242810 -0.09350 -0.548110
17.12 17.11680 0.0 101.70 10.026670 0.0960 0.1040 1.0 29.0 100.0 32.0 500.0 196.0 32.0 91.441650 109.556490 153.0 43.0 24.53770 0.20 256.066670 262.30 158.766670 1.79180 6.067330 21.810 -0.000850 -0.00540 1.79170 0.242950 -0.09310 -0.548150
17.13 17.133340 0.0 101.80 10.015560 0.0960 0.1040 1.0 29.1250 100.0 30.666670 500.0 196.0 30.666670 91.647030 109.556290 153.0 43.0 24.537180 0.20 255.511110 262.90 158.811110 1.79180 6.067220 21.810 -0.000760 -0.005350 1.79170 0.243090 -0.09270 -0.548190
17.14 17.141610 0.0 101.850 10.004440 0.0960 0.1040 1.0 29.250 100.0 29.333330 500.0 196.0 29.333330 91.852410 109.556030 153.0 43.0 24.53650 0.20 254.955560 263.50 158.855560 1.79180 6.067110 21.810 -0.000680 -0.00530 1.79170 0.243230 -0.09230 -0.548230
17.15 17.149880 0.0 101.90 9.993330 0.0960 0.1040 1.0 29.3750 100.0 28.0 500.0 196.0 28.0 92.057790 109.555760 153.0 43.0 24.535830 0.20 254.40 264.10 158.90 1.79180 6.0670 21.810 -0.000590 -0.005250 1.79170 0.243360 -0.09190 -0.548260
17.16 17.158150 0.0 101.950 9.982220 0.0960 0.1040 1.0 29.50 100.0 26.666670 500.0 196.0 26.666670 92.263170 109.55550 153.0 43.0 24.535150 0.20 254.43750 264.13750 158.96250 1.79180 6.067250 21.810 -0.00050 -0.00520 1.79170 0.24350 -0.09150 -0.54830
17.17 17.166420 0.0 102.0 9.971110 0.0960 0.1040 1.0 29.6250 100.0 25.333330 500.0 196.0 25.333330 92.468550 109.555240 153.0 43.0 24.534470 0.20 254.4750 264.1750 159.0250 1.79180 6.06750 21.810 -0.000480 -0.005040 1.791690 0.243560 -0.091330 -0.54830
17.18 17.182960 0.0 102.10 9.960 0.0960 0.1040 1.0 29.750 100.0 24.0 500.0 196.0 24.0 92.579390 109.554970 153.0 43.0 24.533790 0.20 254.51250 264.21250 159.08750 1.79180 6.067750 21.810 -0.000460 -0.004890 1.791680 0.243610 -0.091170 -0.54830
17.19 17.191230 0.0 102.150 9.964550 0.0960 0.1030 1.0 29.8750 100.0 22.666670 500.0 196.0 22.666670 92.690220 109.554710 153.0 43.0 24.533110 0.20 254.550 264.250 159.150 1.79180 6.0680 21.810 -0.000430 -0.004730 1.791670 0.243670 -0.0910 -0.54830
17.20 17.19950 0.0 102.20 9.969090 0.0960 0.1020 1.0 30.0 100.0 21.333330 500.0 196.0 21.333330 92.801060 109.554440 153.0 43.0 24.532430 0.20 254.58750 264.28750 159.21250 1.79180 6.068250 21.810 -0.000410 -0.004580 1.791660 0.243720 -0.090830 -0.54830
17.21 17.208160 0.0 102.250 9.973640 0.0960 0.1030 1.0 29.888890 100.0 20.0 500.0 196.0 20.0 92.91190 109.554180 153.0 43.0 24.531750 0.20 254.6250 264.3250 159.2750 1.79180 6.06850 21.810 -0.000390 -0.004420 1.791640 0.243780 -0.090670 -0.54830
17.22 17.216830 0.0 102.30 9.978180 0.0960 0.1040 1.0 29.777780 100.0 20.50 500.0 196.0 20.50 93.022740 109.553950 153.0 43.0 24.531170 0.20 254.66250 264.36250 159.33750 1.79180 6.068750 21.810 -0.000370 -0.004270 1.791630 0.243830 -0.09050 -0.54830
17.23 17.233370 0.0 102.40 9.982730 0.0960 0.1040 1.0 29.666670 100.0 21.0 500.0 196.0 21.0 93.133580 109.553730 153.0 43.0 24.530590 0.20 254.70 264.40 159.40 1.79180 6.0690 21.810 -0.000340 -0.004110 1.791620 0.243890 -0.090330 -0.54830
17.24 17.241640 0.0 102.450 9.987270 0.0960 0.1040 1.0 29.555560 100.0 21.50 500.0 196.0 21.50 93.244420 109.55350 153.0 43.0 24.530 0.20 255.244440 263.90 159.455560 1.791810 6.0690 21.810 -0.000320 -0.003960 1.791610 0.243940 -0.090170 -0.54830
17.25 17.249910 0.0 102.50 9.991820 0.0960 0.1040 1.0 29.444440 100.0 22.0 500.0 196.0 22.0 93.355260 109.553280 153.0 43.0 24.529420 0.20 255.788890 263.40 159.511110 1.791820 6.0690 21.810 -0.00030 -0.00380 1.79160 0.2440 -0.090 -0.54830
17.26 17.258570 0.0 102.550 9.996360 0.0960 0.1040 1.0 29.333330 100.0 22.50 500.0 196.0 22.50 93.46610 109.553050 153.0 43.0 24.528840 0.20 256.333330 262.90 159.566670 1.791830 6.0690 21.810 -0.000340 -0.004090 1.791610 0.24410 -0.08970 -0.54830
17.27 17.267230 0.0 102.60 10.000910 0.0960 0.1040 1.0 29.222220 100.0 23.0 500.0 196.0 23.0 93.15070 109.552820 153.0 43.0 24.528260 0.20 256.877780 262.40 159.622220 1.791840 6.0690 21.810 -0.000380 -0.004380 1.791630 0.24420 -0.08940 -0.54830
17.28 17.275110 0.0 102.650 10.005450 0.0960 0.1040 1.0 29.111110 100.0 23.50 500.0 196.0 23.50 92.835290 109.55260 153.0 43.0 24.527670 0.20 257.422220 261.90 159.677780 1.791860 6.0690 21.810 -0.000410 -0.004660 1.791640 0.24430 -0.08910 -0.54830
17.29 17.282980 0.0 102.70 10.010 0.0960 0.1040 1.0 29.0 100.0 24.0 500.0 196.0 24.0 92.519890 109.552370 153.0 43.0 24.527090 0.20 257.966670 261.40 159.733330 1.791870 6.0690 21.810 -0.000450 -0.004950 1.791650 0.24440 -0.08880 -0.54830
17.30 17.300310 0.0 102.80 10.010 0.0960 0.1040 1.0 29.0 100.0 25.0 500.0 196.0 25.0 92.204490 109.55220 153.0 43.0 24.526660 0.20 258.511110 260.90 159.788890 1.791880 6.0690 21.810 -0.000490 -0.005240 1.791660 0.24450 -0.08850 -0.54830
17.31 17.308580 0.0 102.850 10.010 0.0960 0.1040 1.0 29.0 100.0 26.0 500.0 196.0 26.0 91.889090 109.552040 153.0 43.0 24.526230 0.20 259.055560 260.40 159.844440 1.791890 6.0690 21.810 -0.000520 -0.005530 1.791680 0.24460 -0.08820 -0.54830
17.32 17.316850 0.0 102.90 10.010 0.0960 0.1040 1.0 29.0 100.0 27.0 500.0 196.0 27.0 91.573680 109.551870 153.0 43.0 24.52580 0.20 259.60 259.90 159.90 1.79190 6.0690 21.810 -0.000560 -0.005810 1.791690 0.24470 -0.08790 -0.54830
17.33 17.333390 0.0 103.0 10.010 0.0960 0.1040 1.0 29.0 100.0 28.0 500.0 196.0 28.0 91.258280 109.55170 153.0 43.0 24.525370 0.20 259.08750 260.46250 159.950 1.791890 6.068880 21.810 -0.00060 -0.00610 1.79170 0.24480 -0.08760 -0.54830
17.34 17.341660 0.0 103.050 10.010 0.0960 0.1040 1.0 29.0 100.0 29.0 500.0 196.0 29.0 90.942880 109.551540 153.0 43.0 24.524940 0.20 258.5750 261.0250 160.0 1.791880 6.068750 21.810 -0.000610 -0.006060 1.79170 0.244910 -0.087290 -0.548280
17.35 17.349930 0.0 103.10 10.010 0.0960 0.1040 1.0 29.0 100.0 30.0 500.0 196.0 30.0 91.096910 109.551370 153.0 43.0 24.52450 0.20 258.06250 261.58750 160.050 1.791860 6.068630 21.810 -0.000620 -0.006020 1.79170 0.245030 -0.086980 -0.548250
17.36 17.35820 0.0 103.150 10.010 0.0960 0.1040 1.0 29.0 100.0 31.0 500.0 196.0 31.0 91.250940 109.55120 153.0 43.0 24.524070 0.20 257.550 262.150 160.10 1.791850 6.06850 21.810 -0.000640 -0.005990 1.79170 0.245140 -0.086660 -0.548230
17.37 17.366470 0.0 103.20 10.010 0.0960 0.1040 1.0 29.0 100.0 32.0 500.0 196.0 32.0 91.404980 109.551030 153.0 43.0 24.523640 0.20 257.03750 262.71250 160.150 1.791840 6.068380 21.810 -0.000650 -0.005950 1.79170 0.245250 -0.086350 -0.54820
17.38 17.383010 0.0 103.30 10.010 0.0960 0.1040 1.0 28.8750 100.0 33.111110 500.0 196.0 33.111110 91.559010 109.550870 152.888890 43.0 24.523210 0.20 256.5250 263.2750 160.20 1.791830 6.068250 21.810 -0.000660 -0.005910 1.79170 0.245360 -0.086040 -0.548180
