~VERSION INFORMATION SECTION
VERS. 2.0 : CWLS LAS-VERSION 2.0
WRAP. NO : One line per depth step
~WELL INFORMATION SECTION
# MNEM.UNIT VALUE/NAME DESCRIPTION
#-------- -------------- ---------------------
STRT.Metres 26 : Start
STOP.Metres -2.05 : Stop
STEP.Metres -0.01 : Step
NULL.  -999.25 :NULL VALUE
DATE. 2026-40-09 : DATE
~CURVE INFORMATION SECTION
DEPTH.Metres : 0 Depth
Depth. : 1 Depth
Tension. : 2 Tension
Time. : 3 Time
Speed. : 4 Speed
Voltage. : 5 Voltage
Current. : 6 Current
WET. : 7 WET
Sig. : 8 Sig
Vth. : 9 Vth
GR.CPS : 10 GR
Timebase.ms : 11 Timebase
HeadVoltage.V : 12 Head Voltage
API.API : 13 API
Conductivity.uS : 14 Conductivity
PT100.Ohms : 15 PT100
Vmon.mV : 16 Vmon
Status. : 17 Status
Temperature.C : 18 Temperature
Incline.Deg : 19 Incline
Azimuth.Deg : 20 Azimuth
RelativeBearing.Deg : 21 Relative Bearing
MagneticToolFace.Deg : 22 Magnetic Tool Face
GravityMagnitude.G : 23 Gravity Magnitude
MagnetometerMagnitude.H : 24 Magnetometer Magnitude
Temperature.C : 25 Temperature
GX. : 26 GX
GY. : 27 GY
GZ. : 28 GZ
HX. : 29 HX
HY. : 30 HY
HZ. : 31 HZ
~PARAMETER INFORMATION SECTION
~OTHER
#-------------------------------------------------
#Produced By: GeoVista Logger - Version 7.1.107.0
Verticality Sonde - 9605
Temperature and Conductivity Sonde - Inline - 8974
Natural Gamma Sonde - 9931
WLIS - 10021
#-------------------------------------------------
~ASCII LOG DATA
# ...
5.75 5.772280 0.0 113.80 14.970 0.0960 0.1020 1.0 42.230770 200.0 34.0 430.769230 197.0 34.0 1787.846150 890596.0 156.0 42.0 841410741.354340 0.0 0.0 0.0 0.0 0.0 0.0 0.0 -3.27680 -3.27680 -3.27680 -3.27680 -3.27680 -3.27680
5.74 5.759680 0.0 113.850 14.970 0.0960 0.1020 1.0 42.384620 200.0 34.198870 423.846150 197.0 34.198870 1787.615380 890597.0 156.0 42.0 841412628.560190 0.0 0.0 0.0 0.0 0.0 0.0 0.0 -3.27680 -3.27680 -3.27680 -3.27680 -3.27680 -3.27680
5.73 5.747080 0.0 113.90 14.970 0.0960 0.1020 1.0 42.538460 200.0 34.397750 416.923080 197.0 34.397750 1787.384620 890598.0 156.0 42.0 841414515.766030 0.0 0.0 0.0 0.0 0.0 0.0 0.0 -3.27680 -3.27680 -3.27680 -3.27680 -3.27680 -3.27680
5.72 5.738680 0.0 113.933330 14.967330 0.0960 0.1020 1.0 42.692310 200.0 34.596620 410.0 197.0 34.596620 1787.153850 890599.0 156.0 42.0 841416402.971870 0.0 0.0 0.0 0.0 0.0 0.0 0.0 -3.27680 -3.27680 -3.27680 -3.27680 -3.27680 -3.27680
5.71 5.730280 0.0 113.966670 14.964670 0.0960 0.1020 1.0 42.846150 200.0 34.79550 383.333330 197.0 34.79550 1786.923080 890600.0 156.0 42.0 841418290.177720 0.0 0.0 0.0 0.0 0.0 0.0 0.0 -3.27680 -3.27680 -3.27680 -3.27680 -3.27680 -3.27680
5.70 5.721880 0.0 114.0 14.9620 0.0960 0.1020 1.0 43.0 200.0 34.994370 356.666670 197.0 34.994370 1786.692310 890601.0 156.0 42.0 841420177.383560 0.0 0.0 0.0 0.0 0.0 0.0 0.0 -3.27680 -3.27680 -3.27680 -3.27680 -3.27680 -3.27680
5.69 5.709280 0.0 114.050 14.959330 0.0960 0.1020 1.0 43.0 200.0 35.193250 330.0 197.0 35.193250 1786.461540 890602.0 156.0 42.0 841422064.58940 0.0 0.0 0.0 0.0 0.0 0.0 0.0 -3.27680 -3.27680 -3.27680 -3.27680 -3.27680 -3.27680
5.68 5.696670 0.0 114.10 14.956670 0.0960 0.1020 1.0 43.0 200.0 35.392120 303.333330 197.0 35.392120 1786.230770 890603.0 156.0 42.0 841423951.795250 0.0 0.0 0.0 0.0 0.0 0.0 0.0 -3.27680 -3.27680 -3.27680 -3.27680 -3.27680 -3.27680
5.67 5.688270 0.0 114.133330 14.9540 0.0960 0.1020 1.0 43.0 200.0 35.590990 276.666670 197.0 35.590990 1786.0 890604.0 156.0 42.0 841425839.001090 0.0 0.0 0.0 0.0 0.0 0.0 0.0 -3.27680 -3.27680 -3.27680 -3.27680 -3.27680 -3.27680
5.66 5.679870 0.0 114.166670 14.951330 0.0960 0.1020 1.0 43.0 200.0 35.789870 250.0 197.0 35.789870 1786.666670 890605.076920 156.0 42.0 841427871.406240 0.0 0.0 0.0 0.0 0.0 0.0 0.0 -3.27680 -3.27680 -3.27680 -3.27680 -3.27680 -3.27680
5.65 5.671470 0.0 114.20 14.948670 0.0960 0.1020 1.0 43.0 200.0 35.988740 223.333330 197.0 35.988740 1787.333330 890606.153850 156.0 42.0 841429903.81140 0.0 0.0 0.0 0.0 0.0 0.0 0.0 -3.27680 -3.27680 -3.27680 -3.27680 -3.27680 -3.27680
5.64 5.658870 0.0 114.250 14.9460 0.0960 0.1020 1.0 43.0 200.0 36.187620 196.666670 197.0 36.187620 1788.0 890607.230770 156.0 42.0 841431936.216550 0.0 0.0 0.0 0.0 0.0 0.0 0.0 -3.27680 -3.27680 -3.27680 -3.27680 -3.27680 -3.27680
5.63 5.646270 0.0 114.30 14.943330 0.0960 0.1020 1.0 43.0 200.0 36.386490 170.0 197.0 36.386490 1788.666670 890608.307690 156.0 42.0 841433968.62170 0.0 0.0 0.0 0.0 0.0 0.0 0.0 -3.27680 -3.27680 -3.27680 -3.27680 -3.27680 -3.27680
5.62 5.638130 0.0 114.333330 14.940670 0.0960 0.1020 1.0 43.0 200.0 36.585370 143.333330 197.0 36.585370 1789.333330 890609.384620 156.0 42.0 841436001.026860 0.0 0.0 0.0 0.0 0.0 0.0 0.0 -3.27680 -3.27680 -3.27680 -3.27680 -3.27680 -3.27680
5.61 5.629990 0.0 114.366670 14.9380 0.0960 0.1020 1.0 43.0 200.0 34.462510 116.666670 197.0 34.462510 1790.0 890610.461540 156.0 42.0 841438033.432010 0.0 0.0 0.0 0.0 0.0 0.0 0.0 -3.27680 -3.27680 -3.27680 -3.27680 -3.27680 -3.27680
5.60 5.621850 0.0 114.40 14.935330 0.0960 0.1020 1.0 43.0 200.0 32.339660 90.0 197.0 32.339660 1790.666670 890611.538460 156.0 42.0 841440065.837160 0.0 0.0 0.0 0.0 0.0 0.0 0.0 -3.27680 -3.27680 -3.27680 -3.27680 -3.27680 -3.27680
5.59 5.609250 0.0 114.450 14.932670 0.0960 0.1020 1.0 43.0 200.0 30.21680 121.538460 197.0 30.21680 1791.333330 890612.615380 156.0 42.0 841442098.242310 0.0 0.0 0.0 0.0 0.0 0.0 0.0 -3.27680 -3.27680 -3.27680 -3.27680 -3.27680 -3.27680
5.58 5.596650 0.0 114.50 14.930 0.0960 0.1020 1.0 43.0 200.0 28.093950 153.076920 197.0 28.093950 1792.0 890613.692310 156.0 42.0 841444130.647470 0.0 0.0 0.0 0.0 0.0 0.0 0.0 -3.27680 -3.27680 -3.27680 -3.27680 -3.27680 -3.27680
5.57 5.588250 0.0 114.533330 14.939330 0.0960 0.1020 1.0 43.0 200.0 25.971090 184.615380 197.0 25.971090 1792.666670 890614.769230 156.0 42.0 841446163.052620 0.0 0.0 0.0 0.0 0.0 0.0 0.0 -3.27680 -3.27680 -3.27680 -3.27680 -3.27680 -3.27680
5.56 5.579850 0.0 114.566670 14.948670 0.0960 0.1020 1.0 43.0 200.0 23.848240 216.153850 197.0 23.848240 1793.333330 890615.846150 156.0 42.0 841448195.457770 0.0 0.0 0.0 0.0 0.0 0.0 0.0 -3.27680 -3.27680 -3.27680 -3.27680 -3.27680 -3.27680
5.55 5.571450 0.0 114.60 14.9580 0.0960 0.1020 1.0 43.0 200.0 21.725380 247.692310 197.0 21.725380 1794.0 890616.923080 156.0 42.0 841450227.862930 0.0 0.0 0.0 0.0 0.0 0.0 0.0 -3.27680 -3.27680 -3.27680 -3.27680 -3.27680 -3.27680
5.54 5.559240 0.0 114.650 14.967330 0.0960 0.1020 1.0 43.0 200.0 19.602530 279.230770 197.0 19.602530 1794.384620 890618.0 156.0 42.0 841452260.268080 0.0 0.0 0.0 0.0 0.0 0.0 0.0 -3.27680 -3.27680 -3.27680 -3.27680 -3.27680 -3.27680
5.53 5.547030 0.0 114.70 14.976670 0.0960 0.1020 1.0 43.0 200.0 17.479670 310.769230 197.0 17.479670 1794.769230 890618.750 156.0 42.0 841453675.711350 0.0 0.0 0.0 0.0 0.0 0.0 0.0 -3.27680 -3.27680 -3.27680 -3.27680 -3.27680 -3.27680
5.52 5.538630 0.0 114.733330 14.9860 0.0960 0.1020 1.0 43.0 200.0 15.356820 342.307690 197.0 15.356820 1795.153850 890619.50 156.0 42.0 841455091.154620 0.0 0.0 0.0 0.0 0.0 0.0 0.0 -3.27680 -3.27680 -3.27680 -3.27680 -3.27680 -3.27680
5.51 5.530230 0.0 114.766670 14.995330 0.0960 0.1020 1.0 43.0 200.0 13.233970 373.846150 197.0 13.233970 1795.538460 890620.250 156.0 42.0 841456506.597890 0.0 0.0 0.0 0.0 0.0 0.0 0.0 -3.27680 -3.27680 -3.27680 -3.27680 -3.27680 -3.27680
5.50 5.521830 0.0 114.80 15.004670 0.0960 0.1020 1.0 43.0 200.0 11.111110 405.384620 197.0 11.111110 1795.923080 890621.0 156.0 42.0 841457922.041160 0.0 0.0 0.0 0.0 0.0 0.0 0.0 -3.27680 -3.27680 -3.27680 -3.27680 -3.27680 -3.27680
5.49 5.509230 0.0 114.850 15.0140 0.0960 0.1020 1.0 43.0 200.0 11.641030 436.923080 197.0 11.641030 1796.307690 890621.750 156.076920 42.0 841459337.484440 0.0 0.0 0.0 0.0 0.0 0.0 0.0 -3.27680 -3.27680 -3.27680 -3.27680 -3.27680 -3.27680
5.48 5.496630 0.0 114.90 15.023330 0.0960 0.1020 1.0 43.0 200.0 12.170940 468.461540 197.0 12.170940 1796.692310 890622.50 156.153850 42.0 841460752.927710 0.0 0.0 0.0 0.0 0.0 0.0 0.0 -3.27680 -3.27680 -3.27680 -3.27680 -3.27680 -3.27680
5.47 5.488490 0.0 114.933330 15.032670 0.0960 0.1020 1.0 43.0 200.0 12.700850 500.0 197.0 12.700850 1797.076920 890623.250 156.230770 42.0 841462168.370980 0.0 0.0 0.0 0.0 0.0 0.0 0.0 -3.27680 -3.27680 -3.27680 -3.27680 -3.27680 -3.27680
5.46 5.480350 0.0 114.966670 15.0420 0.0960 0.1020 1.0 43.0 200.0 13.230770 500.833330 197.0 13.230770 1797.461540 890624.0 156.307690 42.0 841463583.814250 0.0 0.0 0.0 0.0 0.0 0.0 0.0 -3.27680 -3.27680 -3.27680 -3.27680 -3.27680 -3.27680
5.45 5.472210 0.0 115.0 15.051330 0.0960 0.1020 1.0 43.0 200.0 13.760680 501.666670 197.0 13.760680 1797.846150 890624.750 156.384620 42.0 841464999.257520 0.0 0.0 0.0 0.0 0.0 0.0 0.0 -3.27680 -3.27680 -3.27680 -3.27680 -3.27680 -3.27680
5.44 5.459610 0.0 115.050 15.060670 0.0960 0.1010 1.0 43.0 200.0 14.29060 502.50 197.0 14.29060 1798.230770 890625.50 156.461540 42.0 841466414.700790 0.0 0.0 0.0 0.0 0.0 0.0 0.0 -3.27680 -3.27680 -3.27680 -3.27680 -3.27680 -3.27680
5.43 5.447010 0.0 115.10 15.070 0.0960 0.10 1.0 43.0 200.0 14.820510 503.333330 197.0 14.820510 1798.615380 890626.250 156.538460 42.0 841467830.144060 0.0 0.0 0.0 0.0 0.0 0.0 0.0 -3.27680 -3.27680 -3.27680 -3.27680 -3.27680 -3.27680
5.42 5.438870 0.0 115.133330 15.060670 0.0960 0.100670 1.0 43.0 200.0 15.350430 504.166670 197.0 15.350430 1799.0 890627.0 156.615380 42.0 841469245.587330 0.0 0.0 0.0 0.0 0.0 0.0 0.0 -3.27680 -3.27680 -3.27680 -3.27680 -3.27680 -3.27680
5.41 5.430730 0.0 115.166670 15.051330 0.0960 0.101330 1.0 43.0 200.0 15.880340 505.0 197.0 15.880340 1796.833330 890627.615380 156.692310 42.0 841470406.987750 0.0 0.0 0.0 0.0 0.0 0.0 0.0 -3.27680 -3.27680 -3.27680 -3.27680 -3.27680 -3.27680
