~VERSION INFORMATION SECTION
VERS. 2.0 : CWLS LAS-VERSION 2.0
WRAP. NO : One line per depth step
~WELL INFORMATION SECTION
# MNEM.UNIT VALUE/NAME DESCRIPTION
#-------- -------------- ---------------------
STRT.Metres 26 : Start
STOP.Metres -2.05 : Stop
STEP.Metres -0.01 : Step
NULL.  -999.25 :NULL VALUE
DATE. 2026-40-09 : DATE
~CURVE INFORMATION SECTION
DEPTH.Metres : 0 Depth
Depth. : 1 Depth
Tension. : 2 Tension
Time. : 3 Time
Speed. : 4 Speed
Voltage. : 5 Voltage
Current. : 6 Current
WET. : 7 WET
Sig. : 8 Sig
Vth. : 9 Vth
GR.CPS : 10 GR
Timebase.ms : 11 Timebase
HeadVoltage.V : 12 Head Voltage
API.API : 13 API
Conductivity.uS : 14 Conductivity
PT100.Ohms : 15 PT100
Vmon.mV : 16 Vmon
Status. : 17 Status
Temperature.C : 18 Temperature
Incline.Deg : 19 Incline
Azimuth.Deg : 20 Azimuth
RelativeBearing.Deg : 21 Relative Bearing
MagneticToolFace.Deg : 22 Magnetic Tool Face
GravityMagnitude.G : 23 Gravity Magnitude
MagnetometerMagnitude.H : 24 Magnetometer Magnitude
Temperature.C : 25 Temperature
GX. : 26 GX
GY. : 27 GY
GZ. : 28 GZ
HX. : 29 HX
HY. : 30 HY
HZ. : 31 HZ
~PARAMETER INFORMATION SECTION
~OTHER
#-------------------------------------------------
#Produced By: GeoVista Logger - Version 7.1.107.0
Verticality Sonde - 9605
Temperature and Conductivity Sonde - Inline - 8974
Natural Gamma Sonde - 9931
WLIS - 10021
#-------------------------------------------------
~ASCII LOG DATA
# ...
12.84 12.859460 0.0 85.450 15.060 0.0960 0.1020 1.0 35.0 200.0 31.230770 500.0 197.0 31.230770 2438.384620 889637.50 155.0 42.0 839602830.78070 0.0 0.0 0.0 0.0 0.0 0.0 0.0 -3.27680 -3.27680 -3.27680 -3.27680 -3.27680 -3.27680
12.83 12.847250 0.0 85.50 15.070 0.0960 0.1020 1.0 35.0 200.0 30.769230 500.0 197.0 30.769230 2437.692310 889638.250 155.0 42.0 839604244.655720 0.0 0.0 0.0 0.0 0.0 0.0 0.0 -3.27680 -3.27680 -3.27680 -3.27680 -3.27680 -3.27680
12.82 12.838850 0.0 85.533330 15.080 0.0960 0.1020 1.0 35.076920 200.0 30.307690 500.0 197.0 30.307690 2437.0 889639.0 155.0 42.0 839605658.530740 0.0 0.0 0.0 0.0 0.0 0.0 0.0 -3.27680 -3.27680 -3.27680 -3.27680 -3.27680 -3.27680
12.81 12.830450 0.0 85.566670 15.090 0.0960 0.1020 1.0 35.153850 200.0 29.846150 500.0 197.0 29.846150 2435.583330 889639.461540 155.0 42.0 839606528.6150 0.0 0.0 0.0 0.0 0.0 0.0 0.0 -3.27680 -3.27680 -3.27680 -3.27680 -3.27680 -3.27680
12.80 12.822050 0.0 85.60 15.10 0.0960 0.1020 1.0 35.230770 200.0 29.384620 500.0 197.0 29.384620 2434.166670 889639.923080 155.0 42.0 839607398.699260 0.0 0.0 0.0 0.0 0.0 0.0 0.0 -3.27680 -3.27680 -3.27680 -3.27680 -3.27680 -3.27680
12.79 12.809840 0.0 85.650 15.110 0.0960 0.1020 1.0 35.307690 200.0 28.923080 500.0 197.0 28.923080 2432.750 889640.384620 155.0 42.0 839608268.783520 0.0 0.0 0.0 0.0 0.0 0.0 0.0 -3.27680 -3.27680 -3.27680 -3.27680 -3.27680 -3.27680
12.78 12.797630 0.0 85.70 15.120 0.0960 0.1020 1.0 35.384620 200.0 28.461540 500.0 197.0 28.461540 2431.333330 889640.846150 155.0 42.0 839609138.867780 0.0 0.0 0.0 0.0 0.0 0.0 0.0 -3.27680 -3.27680 -3.27680 -3.27680 -3.27680 -3.27680
12.77 12.789230 0.0 85.733330 15.1040 0.0960 0.1020 1.0 35.461540 200.0 28.0 500.0 197.0 28.0 2429.916670 889641.307690 155.0 42.0 839610008.952040 0.0 0.0 0.0 0.0 0.0 0.0 0.0 -3.27680 -3.27680 -3.27680 -3.27680 -3.27680 -3.27680
12.76 12.780830 0.0 85.766670 15.0880 0.0960 0.1020 1.0 35.538460 200.0 26.833330 500.0 197.0 26.833330 2428.50 889641.769230 155.0 42.0 839610879.03630 0.0 0.0 0.0 0.0 0.0 0.0 0.0 -3.27680 -3.27680 -3.27680 -3.27680 -3.27680 -3.27680
12.75 12.772430 0.0 85.80 15.0720 0.0960 0.1020 1.0 35.615380 200.0 25.666670 500.0 197.0 25.666670 2427.083330 889642.230770 155.0 42.0 839611749.120560 0.0 0.0 0.0 0.0 0.0 0.0 0.0 -3.27680 -3.27680 -3.27680 -3.27680 -3.27680 -3.27680
12.74 12.760220 0.0 85.850 15.0560 0.0960 0.1020 1.0 35.692310 200.0 24.50 500.0 197.0 24.50 2425.666670 889642.692310 155.0 42.0 839612619.204830 0.0 0.0 0.0 0.0 0.0 0.0 0.0 -3.27680 -3.27680 -3.27680 -3.27680 -3.27680 -3.27680
12.73 12.748010 0.0 85.90 15.040 0.0960 0.1020 1.0 35.769230 200.0 23.333330 500.0 197.0 23.333330 2424.250 889643.153850 155.0 42.0 839613489.289090 0.0 0.0 0.0 0.0 0.0 0.0 0.0 -3.27680 -3.27680 -3.27680 -3.27680 -3.27680 -3.27680
12.72 12.739610 0.0 85.933330 15.0240 0.0960 0.101330 1.0 35.846150 200.0 22.166670 500.0 197.0 22.166670 2422.833330 889643.615380 155.0 42.0 839614359.373350 0.0 0.0 0.0 0.0 0.0 0.0 0.0 -3.27680 -3.27680 -3.27680 -3.27680 -3.27680 -3.27680
12.71 12.731210 0.0 85.966670 15.0080 0.0960 0.100670 1.0 35.923080 200.0 21.0 500.0 197.0 21.0 2421.416670 889644.076920 155.0 42.0 839615229.457610 0.0 0.0 0.0 0.0 0.0 0.0 0.0 -3.27680 -3.27680 -3.27680 -3.27680 -3.27680 -3.27680
12.70 12.722810 0.0 86.0 14.9920 0.0960 0.10 1.0 36.0 200.0 19.833330 500.0 197.0 19.833330 2420.0 889644.538460 155.0 42.0 839616099.541870 0.0 0.0 0.0 0.0 0.0 0.0 0.0 -3.27680 -3.27680 -3.27680 -3.27680 -3.27680 -3.27680
12.69 12.710210 0.0 86.050 14.9760 0.0960 0.1010 1.0 36.083330 200.0 18.666670 500.0 197.0 18.666670 2419.153850 889645.0 155.0 42.0 839616969.626130 0.0 0.0 0.0 0.0 0.0 0.0 0.0 -3.27680 -3.27680 -3.27680 -3.27680 -3.27680 -3.27680
12.68 12.697610 0.0 86.10 14.960 0.0960 0.1020 1.0 36.166670 200.0 17.50 500.0 197.0 17.50 2418.307690 889645.833330 155.0 42.0 839618540.625710 0.0 0.0 0.0 0.0 0.0 0.0 0.0 -3.27680 -3.27680 -3.27680 -3.27680 -3.27680 -3.27680
12.67 12.689470 0.0 86.133330 14.9440 0.0960 0.1020 1.0 36.250 200.0 16.333330 500.0 197.0 16.333330 2417.461540 889646.666670 155.0 42.0 839620111.625290 0.0 0.0 0.0 0.0 0.0 0.0 0.0 -3.27680 -3.27680 -3.27680 -3.27680 -3.27680 -3.27680
12.66 12.681330 0.0 86.166670 14.9280 0.0960 0.1020 1.0 36.333330 200.0 15.166670 500.0 197.0 15.166670 2416.615380 889647.50 155.0 42.0 839621682.624870 0.0 0.0 0.0 0.0 0.0 0.0 0.0 -3.27680 -3.27680 -3.27680 -3.27680 -3.27680 -3.27680
12.65 12.673190 0.0 86.20 14.9120 0.0960 0.1020 1.0 36.416670 200.0 14.0 500.0 197.0 14.0 2415.769230 889648.333330 155.0 42.0 839623253.624450 0.0 0.0 0.0 0.0 0.0 0.0 0.0 -3.27680 -3.27680 -3.27680 -3.27680 -3.27680 -3.27680
12.64 12.660590 0.0 86.250 14.8960 0.0960 0.1020 1.0 36.50 200.0 13.692310 500.0 197.0 13.692310 2414.923080 889649.166670 155.0 42.0 839624824.624030 0.0 0.0 0.0 0.0 0.0 0.0 0.0 -3.27680 -3.27680 -3.27680 -3.27680 -3.27680 -3.27680
12.63 12.647990 0.0 86.30 14.880 0.0960 0.1020 1.0 36.583330 200.0 13.384620 500.0 197.0 13.384620 2414.076920 889650.0 155.0 42.0 839626395.623610 0.0 0.0 0.0 0.0 0.0 0.0 0.0 -3.27680 -3.27680 -3.27680 -3.27680 -3.27680 -3.27680
12.62 12.639590 0.0 86.333330 14.8860 0.0960 0.1020 1.0 36.666670 200.0 13.076920 500.0 197.0 13.076920 2413.230770 889650.833330 155.0 42.0 839627966.623190 0.0 0.0 0.0 0.0 0.0 0.0 0.0 -3.27680 -3.27680 -3.27680 -3.27680 -3.27680 -3.27680
12.61 12.631190 0.0 86.366670 14.8920 0.0960 0.1020 1.0 36.750 200.0 12.769230 500.0 197.0 12.769230 2412.384620 889651.666670 155.0 42.0 839629537.622770 0.0 0.0 0.0 0.0 0.0 0.0 0.0 -3.27680 -3.27680 -3.27680 -3.27680 -3.27680 -3.27680
12.60 12.622790 0.0 86.40 14.8980 0.0960 0.1020 1.0 36.833330 200.0 12.461540 500.0 197.0 12.461540 2411.538460 889652.50 155.0 42.0 839631108.622350 0.0 0.0 0.0 0.0 0.0 0.0 0.0 -3.27680 -3.27680 -3.27680 -3.27680 -3.27680 -3.27680
12.59 12.610180 0.0 86.450 14.9040 0.0960 0.1020 1.0 36.916670 200.0 12.153850 500.0 197.0 12.153850 2410.692310 889653.333330 155.0 42.0 839632679.621930 0.0 0.0 0.0 0.0 0.0 0.0 0.0 -3.27680 -3.27680 -3.27680 -3.27680 -3.27680 -3.27680
12.58 12.597580 0.0 86.50 14.910 0.0960 0.1020 1.0 37.0 200.0 11.846150 500.0 197.0 11.846150 2409.846150 889654.166670 155.0 42.0 839634250.621510 0.0 0.0 0.0 0.0 0.0 0.0 0.0 -3.27680 -3.27680 -3.27680 -3.27680 -3.27680 -3.27680
12.57 12.589440 0.0 86.533330 14.9160 0.0960 0.1020 1.0 37.0 200.0 11.538460 500.0 197.0 11.538460 2409.0 889655.0 155.0 42.0 839635821.621090 0.0 0.0 0.0 0.0 0.0 0.0 0.0 -3.27680 -3.27680 -3.27680 -3.27680 -3.27680 -3.27680
12.56 12.581310 0.0 86.566670 14.9220 0.0960 0.1020 1.0 37.0 200.0 11.230770 500.0 197.0 11.230770 2406.333330 889655.461540 155.0 42.0 839636691.720980 0.0 0.0 0.0 0.0 0.0 0.0 0.0 -3.27680 -3.27680 -3.27680 -3.27680 -3.27680 -3.27680
12.55 12.573170 0.0 86.60 14.9280 0.0960 0.1020 1.0 37.0 200.0 10.923080 500.0 197.0 10.923080 2403.666670 889655.923080 155.0 42.0 839637561.820870 0.0 0.0 0.0 0.0 0.0 0.0 0.0 -3.27680 -3.27680 -3.27680 -3.27680 -3.27680 -3.27680
12.54 12.560570 0.0 86.650 14.9340 0.0960 0.1020 1.0 37.0 200.0 10.615380 500.0 197.0 10.615380 2401.0 889656.384620 155.0 42.0 839638431.920760 0.0 0.0 0.0 0.0 0.0 0.0 0.0 -3.27680 -3.27680 -3.27680 -3.27680 -3.27680 -3.27680
12.53 12.547960 0.0 86.70 14.940 0.0960 0.1020 1.0 37.0 200.0 10.307690 500.0 197.0 10.307690 2398.333330 889656.846150 155.0 42.0 839639302.020650 0.0 0.0 0.0 0.0 0.0 0.0 0.0 -3.27680 -3.27680 -3.27680 -3.27680 -3.27680 -3.27680
12.52 12.539830 0.0 86.733330 14.9460 0.0960 0.1020 1.0 37.0 200.0 10.0 500.0 197.0 10.0 2395.666670 889657.307690 155.0 42.0 839640172.120540 0.0 0.0 0.0 0.0 0.0 0.0 0.0 -3.27680 -3.27680 -3.27680 -3.27680 -3.27680 -3.27680
12.51 12.531690 0.0 86.766670 14.9520 0.0960 0.1020 1.0 37.0 200.0 10.933330 500.0 197.0 10.933330 2393.0 889657.769230 155.0 42.0 839641042.220430 0.0 0.0 0.0 0.0 0.0 0.0 0.0 -3.27680 -3.27680 -3.27680 -3.27680 -3.27680 -3.27680
12.50 12.523550 0.0 86.80 14.9580 0.0960 0.1020 1.0 37.0 200.0 11.866670 500.0 197.0 11.866670 2390.333330 889658.230770 155.0 42.0 839641912.320320 0.0 0.0 0.0 0.0 0.0 0.0 0.0 -3.27680 -3.27680 -3.27680 -3.27680 -3.27680 -3.27680
