~VERSION INFORMATION SECTION
VERS. 2.0 : CWLS LAS-VERSION 2.0
WRAP. NO : One line per depth step
~WELL INFORMATION SECTION
# MNEM.UNIT VALUE/NAME DESCRIPTION
#-------- -------------- ---------------------
STRT.Seconds 0 : Start
STOP.Seconds 565 : Stop
STEP.Seconds 1 : Step
NULL.  -999.25 :NULL VALUE
DATE. 2026-24-09 : DATE
~CURVE INFORMATION SECTION
DEPTH.Seconds : 0 Depth
Depth. : 1 Depth
Tension. : 2 Tension
Time. : 3 Time
Speed. : 4 Speed
Voltage. : 5 Voltage
Current. : 6 Current
WET. : 7 WET
Sig. : 8 Sig
Vth. : 9 Vth
GR.CPS : 10 GR
Timebase.ms : 11 Timebase
HeadVoltage.V : 12 Head Voltage
API.API : 13 API
Conductivity.uS : 14 Conductivity
PT100.Ohms : 15 PT100
Vmon.mV : 16 Vmon
Status. : 17 Status
Temperature.C : 18 Temperature
Incline.Deg : 19 Incline
Azimuth.Deg : 20 Azimuth
RelativeBearing.Deg : 21 Relative Bearing
MagneticToolFace.Deg : 22 Magnetic Tool Face
GravityMagnitude.G : 23 Gravity Magnitude
MagnetometerMagnitude.H : 24 Magnetometer Magnitude
Temperature.C : 25 Temperature
GX. : 26 GX
GY. : 27 GY
GZ. : 28 GZ
HX. : 29 HX
HY. : 30 HY
HZ. : 31 HZ
~PARAMETER INFORMATION SECTION
~OTHER
#-------------------------------------------------
#Produced By: GeoVista Logger - Version 7.1.107.0
Verticality Sonde - 9605
Temperature and Conductivity Sonde - Inline - 8974
Natural Gamma Sonde - 9931
WLIS - 10021
#-------------------------------------------------
~ASCII LOG DATA
# ...
312 2.439450 0.0 312.450 0.0 0.0960 0.10180 0.0 988.50 200.0 25.784310 505.0 196.0 25.784310 75.50 883377.50 2.0 255.0 827843115.850720 0.0 0.0 0.0 0.0 0.0 0.0 0.0 -3.27680 -3.27680 -3.27680 -3.27680 -3.27680 -3.27680
313 2.439450 0.0 313.450 0.0 0.0960 0.1020 0.0 988.0 200.0 34.0 500.0 196.0 34.0 63.0 883379.0 2.50 255.0 827845923.740460 0.0 0.0 0.0 0.0 0.0 0.0 0.0 -3.27680 -3.27680 -3.27680 -3.27680 -3.27680 -3.27680
314 2.439450 0.0 314.450 0.0 0.0960 0.1020 0.0 988.50 200.0 38.0 500.0 196.0 38.0 39.0 883382.50 1.50 255.0 827852475.499060 0.0 0.0 0.0 0.0 0.0 0.0 0.0 -3.27680 -3.27680 -3.27680 -3.27680 -3.27680 -3.27680
315 2.439450 0.0 315.450 0.0 0.0960 0.1020 0.0 987.50 200.0 30.0 500.0 196.0 30.0 66.50 883389.0 1.50 255.0 827864643.12180 0.0 0.0 0.0 0.0 0.0 0.0 0.0 -3.27680 -3.27680 -3.27680 -3.27680 -3.27680 -3.27680
316 2.439450 0.0 316.450 0.0 0.0960 0.1020 0.0 988.50 200.0 31.0 500.0 196.0 31.0 49.0 883394.0 2.0 255.0 827874002.895010 0.0 0.0 0.0 0.0 0.0 0.0 0.0 -3.27680 -3.27680 -3.27680 -3.27680 -3.27680 -3.27680
317 2.439450 0.0 317.450 0.0 0.0960 0.1020 0.0 988.50 200.0 34.647060 505.0 196.0 34.647060 64.0 883400.0 2.0 255.0 827885234.685710 0.0 0.0 0.0 0.0 0.0 0.0 0.0 -3.27680 -3.27680 -3.27680 -3.27680 -3.27680 -3.27680
318 2.439450 0.0 318.450 0.0 0.0960 0.1020 0.0 988.50 200.0 22.0 500.0 196.0 22.0 84.50 883407.0 2.0 255.0 827898338.541540 0.0 0.0 0.0 0.0 0.0 0.0 0.0 -3.27680 -3.27680 -3.27680 -3.27680 -3.27680 -3.27680
319 2.439450 0.0 319.450 0.0 0.0960 0.10180 0.0 988.0 200.0 50.0 500.0 196.0 50.0 40.50 883414.0 1.50 255.0 827911442.509530 0.0 0.0 0.0 0.0 0.0 0.0 0.0 -3.27680 -3.27680 -3.27680 -3.27680 -3.27680 -3.27680
320 2.439450 0.0 320.450 0.0 0.0960 0.1020 0.0 988.50 200.0 39.0 500.0 196.0 39.0 99.50 883421.50 1.50 255.0 827925482.578340 0.0 0.0 0.0 0.0 0.0 0.0 0.0 -3.27680 -3.27680 -3.27680 -3.27680 -3.27680 -3.27680
321 2.439450 0.0 321.450 0.0 0.0960 0.1020 0.0 988.50 200.0 26.0 500.0 196.0 26.0 39.50 883425.0 2.50 255.0 827932034.645930 0.0 0.0 0.0 0.0 0.0 0.0 0.0 -3.27680 -3.27680 -3.27680 -3.27680 -3.27680 -3.27680
322 2.439450 0.0 322.450 0.0 0.0960 0.1020 0.0 988.50 200.0 24.0 500.0 196.0 24.0 41.0 883429.50 2.0 255.0 827940458.77970 0.0 0.0 0.0 0.0 0.0 0.0 0.0 -3.27680 -3.27680 -3.27680 -3.27680 -3.27680 -3.27680
323 2.439450 0.0 323.450 0.0 0.0960 0.1020 0.0 988.0 200.0 37.568630 505.0 196.50 37.568630 9.0 883433.50 2.0 255.0 827947946.94070 0.0 0.0 0.0 0.0 0.0 0.0 0.0 -3.27680 -3.27680 -3.27680 -3.27680 -3.27680 -3.27680
324 2.439450 0.0 324.450 0.0 0.0960 0.1020 0.0 988.50 200.0 35.0 500.0 196.0 35.0 57.0 883437.0 2.0 255.0 827954499.097180 0.0 0.0 0.0 0.0 0.0 0.0 0.0 -3.27680 -3.27680 -3.27680 -3.27680 -3.27680 -3.27680
325 2.439450 0.0 325.450 0.0 0.0960 0.10180 0.0 988.50 200.0 35.0 500.0 196.0 35.0 46.0 883442.50 2.0 255.0 827964795.406120 0.0 0.0 0.0 0.0 0.0 0.0 0.0 -3.27680 -3.27680 -3.27680 -3.27680 -3.27680 -3.27680
326 2.439450 0.0 326.450 0.0 0.0960 0.1020 0.0 988.0 200.0 39.0 500.0 196.0 39.0 122.0 883448.50 3.0 255.0 827976027.815880 0.0 0.0 0.0 0.0 0.0 0.0 0.0 -3.27680 -3.27680 -3.27680 -3.27680 -3.27680 -3.27680
327 2.439450 0.0 327.450 0.0 0.0960 0.1020 0.0 988.50 200.0 46.0 500.0 196.0 46.0 41.50 883453.50 1.50 255.0 827985388.215540 0.0 0.0 0.0 0.0 0.0 0.0 0.0 -3.27680 -3.27680 -3.27680 -3.27680 -3.27680 -3.27680
328 2.439450 0.0 328.450 0.0 0.0960 0.1020 0.0 988.0 200.0 35.0 500.0 196.50 35.0 67.0 883459.0 1.50 255.0 827995684.720250 0.0 0.0 0.0 0.0 0.0 0.0 0.0 -3.27680 -3.27680 -3.27680 -3.27680 -3.27680 -3.27680
329 2.439450 0.0 329.450 0.0 0.0960 0.1020 0.0 988.50 200.0 38.470590 505.0 196.0 38.470590 62.0 883464.0 2.0 255.0 828005045.231020 0.0 0.0 0.0 0.0 0.0 0.0 0.0 -3.27680 -3.27680 -3.27680 -3.27680 -3.27680 -3.27680
330 2.439450 0.0 330.450 0.0 0.0960 0.1020 0.0 988.0 200.0 38.0 500.0 196.0 38.0 25.0 883467.0 2.50 255.0 828010661.55970 0.0 0.0 0.0 0.0 0.0 0.0 0.0 -3.27680 -3.27680 -3.27680 -3.27680 -3.27680 -3.27680
331 2.439450 0.0 331.450 0.0 0.0960 0.1020 0.0 989.0 200.0 41.0 500.0 196.0 41.0 75.50 883470.0 2.0 255.0 828016277.913790 0.0 0.0 0.0 0.0 0.0 0.0 0.0 -3.27680 -3.27680 -3.27680 -3.27680 -3.27680 -3.27680
332 2.439450 0.0 332.450 0.0 0.0960 0.1020 0.0 987.50 200.0 30.0 500.0 196.0 30.0 68.0 883475.50 2.0 255.0 828026574.604740 0.0 0.0 0.0 0.0 0.0 0.0 0.0 -3.27680 -3.27680 -3.27680 -3.27680 -3.27680 -3.27680
333 2.439450 0.0 333.450 0.0 0.0960 0.10180 0.0 989.0 200.0 37.0 500.0 196.0 37.0 34.0 883477.0 1.50 255.0 828029382.803470 0.0 0.0 0.0 0.0 0.0 0.0 0.0 -3.27680 -3.27680 -3.27680 -3.27680 -3.27680 -3.27680
334 2.439450 0.0 334.450 0.0 0.0960 0.10180 0.0 988.0 200.0 41.549020 505.0 196.0 41.549020 64.0 883480.0 2.0 255.0 828034999.217870 0.0 0.0 0.0 0.0 0.0 0.0 0.0 -3.27680 -3.27680 -3.27680 -3.27680 -3.27680 -3.27680
335 2.439450 0.0 335.450 0.0 0.0960 0.1020 0.0 989.50 200.0 32.0 500.0 196.0 32.0 81.50 883483.0 2.0 255.0 828040615.651320 0.0 0.0 0.0 0.0 0.0 0.0 0.0 -3.27680 -3.27680 -3.27680 -3.27680 -3.27680 -3.27680
336 2.439450 0.0 336.450 0.0 0.0960 0.1020 0.0 987.0 200.0 48.0 500.0 196.0 48.0 34.50 883482.50 2.0 255.0 828039679.576960 0.0 0.0 0.0 0.0 0.0 0.0 0.0 -3.27680 -3.27680 -3.27680 -3.27680 -3.27680 -3.27680
337 2.439450 0.0 337.450 0.0 0.0960 0.10180 0.0 989.0 200.0 37.0 500.0 196.0 37.0 93.50 883478.50 1.0 255.0 828032191.02020 0.0 0.0 0.0 0.0 0.0 0.0 0.0 -3.27680 -3.27680 -3.27680 -3.27680 -3.27680 -3.27680
338 2.439450 0.0 338.450 0.0 0.0960 0.1020 0.0 988.50 200.0 28.0 500.0 196.0 28.0 109.0 883467.50 1.50 255.0 828011597.622420 0.0 0.0 0.0 0.0 0.0 0.0 0.0 -3.27680 -3.27680 -3.27680 -3.27680 -3.27680 -3.27680
339 2.439450 0.0 339.450 0.0 0.0960 0.1020 0.0 988.50 200.0 43.0 500.0 196.0 43.0 36.50 883457.50 2.50 255.0 827992876.579710 0.0 0.0 0.0 0.0 0.0 0.0 0.0 -3.27680 -3.27680 -3.27680 -3.27680 -3.27680 -3.27680
340 2.439450 0.0 340.450 0.0 0.0960 0.1020 0.0 987.0 200.0 26.705880 505.0 196.50 26.705880 28.50 883445.0 2.0 255.0 827969475.576850 0.0 0.0 0.0 0.0 0.0 0.0 0.0 -3.27680 -3.27680 -3.27680 -3.27680 -3.27680 -3.27680
341 2.439450 0.0 341.450 0.0 0.0960 0.1020 0.0 989.0 200.0 30.0 500.0 196.0 30.0 82.50 883437.0 1.50 255.0 827954499.097180 0.0 0.0 0.0 0.0 0.0 0.0 0.0 -3.27680 -3.27680 -3.27680 -3.27680 -3.27680 -3.27680
342 2.439450 0.0 342.450 0.0 0.0960 0.1020 0.0 988.50 200.0 35.0 500.0 196.0 35.0 73.50 883434.50 1.50 255.0 827949818.980420 0.0 0.0 0.0 0.0 0.0 0.0 0.0 -3.27680 -3.27680 -3.27680 -3.27680 -3.27680 -3.27680
343 2.439450 0.0 343.450 0.0 0.0960 0.1020 0.0 988.50 200.0 35.0 500.0 196.0 35.0 107.0 883432.50 2.0 255.0 827946074.892510 0.0 0.0 0.0 0.0 0.0 0.0 0.0 -3.27680 -3.27680 -3.27680 -3.27680 -3.27680 -3.27680
344 2.439450 0.0 344.450 0.0 0.0960 0.1020 0.0 988.50 200.0 34.0 500.0 196.0 34.0 68.0 883430.50 2.50 255.0 827942330.815190 0.0 0.0 0.0 0.0 0.0 0.0 0.0 -3.27680 -3.27680 -3.27680 -3.27680 -3.27680 -3.27680
345 2.439450 0.0 345.450 0.0 0.0960 0.1020 0.0 988.50 200.0 29.0 500.0 196.50 29.0 93.0 883422.50 2.0 255.0 827927354.596890 0.0 0.0 0.0 0.0 0.0 0.0 0.0 -3.27680 -3.27680 -3.27680 -3.27680 -3.27680 -3.27680
346 2.439450 0.0 346.450 0.0 0.0960 0.1020 0.0 988.50 200.0 37.549020 505.0 196.0 37.549020 90.50 883404.50 2.0 255.0 827893658.612080 0.0 0.0 0.0 0.0 0.0 0.0 0.0 -3.27680 -3.27680 -3.27680 -3.27680 -3.27680 -3.27680
347 2.439450 0.0 347.450 0.0 0.0960 0.1020 0.0 988.50 200.0 26.0 500.0 196.0 26.0 51.50 883389.0 2.0 255.0 827864643.130260 0.0 0.0 0.0 0.0 0.0 0.0 0.0 -3.27680 -3.27680 -3.27680 -3.27680 -3.27680 -3.27680
348 2.439450 0.0 348.450 0.0 0.0960 0.10180 0.0 988.50 200.0 33.0 500.0 196.0 33.0 45.0 883376.50 2.0 255.0 827841243.933750 0.0 0.0 0.0 0.0 0.0 0.0 0.0 -3.27680 -3.27680 -3.27680 -3.27680 -3.27680 -3.27680
349 2.439450 0.0 349.450 0.0 0.0960 0.10180 0.0 988.50 200.0 28.0 500.0 196.0 28.0 56.0 883370.0 2.0 255.0 827829076.478210 0.0 0.0 0.0 0.0 0.0 0.0 0.0 -3.27680 -3.27680 -3.27680 -3.27680 -3.27680 -3.27680
350 2.439450 0.0 350.450 0.0 0.0960 0.10180 0.0 988.50 200.0 26.0 500.0 196.0 26.0 40.0 883369.0 1.50 255.0 827827204.570770 0.0 0.0 0.0 0.0 0.0 0.0 0.0 -3.27680 -3.27680 -3.27680 -3.27680 -3.27680 -3.27680
