~VERSION INFORMATION SECTION
VERS. 2.0 : CWLS LAS-VERSION 2.0
WRAP. NO : One line per depth step
~WELL INFORMATION SECTION
# MNEM.UNIT VALUE/NAME DESCRIPTION
#-------- -------------- ---------------------
STRT.Seconds 0 : Start
STOP.Seconds 565 : Stop
STEP.Seconds 1 : Step
NULL.  -999.25 :NULL VALUE
DATE. 2026-24-09 : DATE
~CURVE INFORMATION SECTION
DEPTH.Seconds : 0 Depth
Depth. : 1 Depth
Tension. : 2 Tension
Time. : 3 Time
Speed. : 4 Speed
Voltage. : 5 Voltage
Current. : 6 Current
WET. : 7 WET
Sig. : 8 Sig
Vth. : 9 Vth
GR.CPS : 10 GR
Timebase.ms : 11 Timebase
HeadVoltage.V : 12 Head Voltage
API.API : 13 API
Conductivity.uS : 14 Conductivity
PT100.Ohms : 15 PT100
Vmon.mV : 16 Vmon
Status. : 17 Status
Temperature.C : 18 Temperature
Incline.Deg : 19 Incline
Azimuth.Deg : 20 Azimuth
RelativeBearing.Deg : 21 Relative Bearing
MagneticToolFace.Deg : 22 Magnetic Tool Face
GravityMagnitude.G : 23 Gravity Magnitude
MagnetometerMagnitude.H : 24 Magnetometer Magnitude
Temperature.C : 25 Temperature
GX. : 26 GX
GY. : 27 GY
GZ. : 28 GZ
HX. : 29 HX
HY. : 30 HY
HZ. : 31 HZ
~PARAMETER INFORMATION SECTION
~OTHER
#-------------------------------------------------
#Produced By: GeoVista Logger - Version 7.1.107.0
Verticality Sonde - 9605
Temperature and Conductivity Sonde - Inline - 8974
Natural Gamma Sonde - 9931
WLIS - 10021
#-------------------------------------------------
~ASCII LOG DATA
# ...
273 2.439450 0.0 273.450 0.0 0.0960 0.1020 0.0 988.0 200.0 25.0 500.0 196.0 25.0 58.0 883163.0 2.0 255.0 827441636.76070 0.0 0.0 0.0 0.0 0.0 0.0 0.0 -3.27680 -3.27680 -3.27680 -3.27680 -3.27680 -3.27680
274 2.439450 0.0 274.450 0.0 0.0960 0.10180 0.0 987.50 200.0 35.0 500.0 196.0 35.0 66.0 883170.50 2.0 255.0 827455672.853840 0.0 0.0 0.0 0.0 0.0 0.0 0.0 -3.27680 -3.27680 -3.27680 -3.27680 -3.27680 -3.27680
275 2.439450 0.0 275.450 0.0 0.0960 0.1020 0.0 988.0 200.0 37.0 500.0 196.0 37.0 63.50 883177.50 1.50 255.0 827468773.309670 0.0 0.0 0.0 0.0 0.0 0.0 0.0 -3.27680 -3.27680 -3.27680 -3.27680 -3.27680 -3.27680
276 2.439450 0.0 276.450 0.0 0.0960 0.1020 0.0 988.0 200.0 32.0 500.0 196.0 32.0 53.0 883185.0 2.0 255.0 827482809.630330 0.0 0.0 0.0 0.0 0.0 0.0 0.0 -3.27680 -3.27680 -3.27680 -3.27680 -3.27680 -3.27680
277 2.439450 0.0 277.450 0.0 0.0960 0.10180 0.0 988.50 200.0 39.0 500.0 196.50 39.0 42.50 883196.0 2.0 255.0 827503396.445050 0.0 0.0 0.0 0.0 0.0 0.0 0.0 -3.27680 -3.27680 -3.27680 -3.27680 -3.27680 -3.27680
278 2.439450 0.0 278.450 0.0 0.0960 0.10180 0.0 987.0 200.0 29.607840 505.0 196.0 29.607840 52.50 883205.0 2.50 255.0 827520240.387720 0.0 0.0 0.0 0.0 0.0 0.0 0.0 -3.27680 -3.27680 -3.27680 -3.27680 -3.27680 -3.27680
279 2.439450 0.0 279.450 0.0 0.0960 0.1020 0.0 988.0 200.0 28.0 500.0 196.0 28.0 96.50 883211.50 1.50 255.0 827532405.566020 0.0 0.0 0.0 0.0 0.0 0.0 0.0 -3.27680 -3.27680 -3.27680 -3.27680 -3.27680 -3.27680
280 2.439450 0.0 280.450 0.0 0.0960 0.1020 0.0 988.0 200.0 37.0 500.0 196.0 37.0 54.50 883217.50 2.0 255.0 827543635.042440 0.0 0.0 0.0 0.0 0.0 0.0 0.0 -3.27680 -3.27680 -3.27680 -3.27680 -3.27680 -3.27680
281 2.439450 0.0 281.450 0.0 0.0960 0.10180 0.0 988.50 200.0 33.0 500.0 196.0 33.0 82.0 883224.50 2.0 255.0 827556736.192450 0.0 0.0 0.0 0.0 0.0 0.0 0.0 -3.27680 -3.27680 -3.27680 -3.27680 -3.27680 -3.27680
282 2.439450 0.0 282.450 0.0 0.0960 0.1020 0.0 987.0 200.0 29.0 500.0 196.0 29.0 91.50 883229.50 2.50 255.0 827566094.223860 0.0 0.0 0.0 0.0 0.0 0.0 0.0 -3.27680 -3.27680 -3.27680 -3.27680 -3.27680 -3.27680
283 2.439450 0.0 283.450 0.0 0.0960 0.10160 0.0 988.0 200.0 33.0 500.0 196.0 33.0 108.50 883238.0 2.0 255.0 827582002.996940 0.0 0.0 0.0 0.0 0.0 0.0 0.0 -3.27680 -3.27680 -3.27680 -3.27680 -3.27680 -3.27680
284 2.439450 0.0 284.450 0.0 0.0960 0.1020 0.0 988.0 200.0 40.627450 505.0 196.0 40.627450 77.50 883244.50 1.50 255.0 827594168.633430 0.0 0.0 0.0 0.0 0.0 0.0 0.0 -3.27680 -3.27680 -3.27680 -3.27680 -3.27680 -3.27680
285 2.439450 0.0 285.450 0.0 0.0960 0.1020 0.0 988.50 200.0 32.0 500.0 196.0 32.0 50.50 883249.0 2.0 255.0 827602591.042340 0.0 0.0 0.0 0.0 0.0 0.0 0.0 -3.27680 -3.27680 -3.27680 -3.27680 -3.27680 -3.27680
286 2.439450 0.0 286.450 0.0 0.0960 0.1020 0.0 987.0 200.0 43.0 500.0 196.0 43.0 74.50 883252.50 2.50 255.0 827609141.840090 0.0 0.0 0.0 0.0 0.0 0.0 0.0 -3.27680 -3.27680 -3.27680 -3.27680 -3.27680 -3.27680
287 2.439450 0.0 287.450 0.0 0.0960 0.1020 0.0 988.0 200.0 32.0 500.0 196.0 32.0 38.50 883253.0 2.0 255.0 827610077.668940 0.0 0.0 0.0 0.0 0.0 0.0 0.0 -3.27680 -3.27680 -3.27680 -3.27680 -3.27680 -3.27680
288 2.439450 0.0 288.450 0.0 0.0960 0.1020 0.0 988.0 200.0 36.0 500.0 196.0 36.0 31.50 883252.50 1.0 255.0 827609141.837970 0.0 0.0 0.0 0.0 0.0 0.0 0.0 -3.27680 -3.27680 -3.27680 -3.27680 -3.27680 -3.27680
289 2.439450 0.0 289.450 0.0 0.0960 0.1020 0.0 988.0 200.0 32.647060 505.0 196.50 32.647060 61.0 883252.50 2.0 255.0 827609141.837970 0.0 0.0 0.0 0.0 0.0 0.0 0.0 -3.27680 -3.27680 -3.27680 -3.27680 -3.27680 -3.27680
290 2.439450 0.0 290.450 0.0 0.0960 0.1020 0.0 987.50 200.0 43.0 500.0 196.0 43.0 80.0 883257.0 2.0 255.0 827617564.332590 0.0 0.0 0.0 0.0 0.0 0.0 0.0 -3.27680 -3.27680 -3.27680 -3.27680 -3.27680 -3.27680
291 2.439450 0.0 291.450 0.0 0.0960 0.10160 0.0 988.50 200.0 39.0 500.0 196.0 39.0 91.50 883259.50 2.0 255.0 827622243.508610 0.0 0.0 0.0 0.0 0.0 0.0 0.0 -3.27680 -3.27680 -3.27680 -3.27680 -3.27680 -3.27680
292 2.439450 0.0 292.450 0.0 0.0960 0.10160 0.0 988.0 200.0 31.0 500.0 196.0 31.0 92.50 883265.50 2.0 255.0 827633473.600910 0.0 0.0 0.0 0.0 0.0 0.0 0.0 -3.27680 -3.27680 -3.27680 -3.27680 -3.27680 -3.27680
293 2.439450 0.0 293.450 0.0 0.0960 0.1020 0.0 988.50 200.0 28.0 500.0 196.0 28.0 51.50 883266.0 1.50 255.0 827634409.439290 0.0 0.0 0.0 0.0 0.0 0.0 0.0 -3.27680 -3.27680 -3.27680 -3.27680 -3.27680 -3.27680
294 2.439450 0.0 294.450 0.0 0.0960 0.10180 0.0 988.0 200.0 37.0 500.0 196.0 37.0 18.0 883268.50 2.0 255.0 827639088.66610 0.0 0.0 0.0 0.0 0.0 0.0 0.0 -3.27680 -3.27680 -3.27680 -3.27680 -3.27680 -3.27680
295 2.439450 0.0 295.450 0.0 0.0960 0.1020 0.0 988.0 200.0 35.725490 505.0 196.0 35.725490 75.50 883273.50 2.50 255.0 827648447.163120 0.0 0.0 0.0 0.0 0.0 0.0 0.0 -3.27680 -3.27680 -3.27680 -3.27680 -3.27680 -3.27680
296 2.439450 0.0 296.450 0.0 0.0960 0.10180 0.0 988.50 200.0 43.0 500.0 196.0 43.0 76.50 883280.0 2.0 255.0 827660613.287450 0.0 0.0 0.0 0.0 0.0 0.0 0.0 -3.27680 -3.27680 -3.27680 -3.27680 -3.27680 -3.27680
297 2.439450 0.0 297.450 0.0 0.0960 0.1020 0.0 988.0 200.0 35.0 500.0 196.0 35.0 34.50 883286.0 2.0 255.0 827671843.6390 0.0 0.0 0.0 0.0 0.0 0.0 0.0 -3.27680 -3.27680 -3.27680 -3.27680 -3.27680 -3.27680
298 2.439450 0.0 298.450 0.0 0.0960 0.1020 0.0 988.0 200.0 33.0 500.0 196.0 33.0 58.0 883292.50 2.0 255.0 827684009.924170 0.0 0.0 0.0 0.0 0.0 0.0 0.0 -3.27680 -3.27680 -3.27680 -3.27680 -3.27680 -3.27680
299 2.439450 0.0 299.450 0.0 0.0960 0.10180 0.0 988.0 200.0 22.0 500.0 196.0 22.0 84.50 883299.50 2.0 255.0 827697112.189520 0.0 0.0 0.0 0.0 0.0 0.0 0.0 -3.27680 -3.27680 -3.27680 -3.27680 -3.27680 -3.27680
300 2.439450 0.0 300.450 0.0 0.0960 0.10180 0.0 988.50 200.0 30.0 500.0 196.50 30.0 32.50 883311.0 2.0 255.0 827718637.563250 0.0 0.0 0.0 0.0 0.0 0.0 0.0 -3.27680 -3.27680 -3.27680 -3.27680 -3.27680 -3.27680
301 2.439450 0.0 301.450 0.0 0.0960 0.10160 0.0 988.0 200.0 38.588240 505.0 196.0 38.588240 67.50 883317.50 1.50 255.0 827730804.199740 0.0 0.0 0.0 0.0 0.0 0.0 0.0 -3.27680 -3.27680 -3.27680 -3.27680 -3.27680 -3.27680
302 2.439450 0.0 302.450 0.0 0.0960 0.10160 0.0 988.50 200.0 31.0 500.0 196.0 31.0 84.50 883324.0 1.50 255.0 827742970.934650 0.0 0.0 0.0 0.0 0.0 0.0 0.0 -3.27680 -3.27680 -3.27680 -3.27680 -3.27680 -3.27680
303 2.439450 0.0 303.450 0.0 0.0960 0.10180 0.0 987.50 200.0 51.0 500.0 196.0 51.0 58.50 883333.0 1.50 255.0 827759817.320710 0.0 0.0 0.0 0.0 0.0 0.0 0.0 -3.27680 -3.27680 -3.27680 -3.27680 -3.27680 -3.27680
304 2.439450 0.0 304.450 0.0 0.0960 0.10160 0.0 989.0 200.0 31.0 500.0 196.0 31.0 56.0 883340.50 2.50 255.0 827773856.097450 0.0 0.0 0.0 0.0 0.0 0.0 0.0 -3.27680 -3.27680 -3.27680 -3.27680 -3.27680 -3.27680
305 2.439450 0.0 305.450 0.0 0.0960 0.1020 0.0 988.0 200.0 27.0 500.0 196.0 27.0 54.50 883347.50 1.50 255.0 827786959.078140 0.0 0.0 0.0 0.0 0.0 0.0 0.0 -3.27680 -3.27680 -3.27680 -3.27680 -3.27680 -3.27680
306 2.439450 0.0 306.450 0.0 0.0960 0.1020 0.0 988.50 200.0 29.784310 505.0 196.50 29.784310 61.0 883353.50 1.0 255.0 827798190.277310 0.0 0.0 0.0 0.0 0.0 0.0 0.0 -3.27680 -3.27680 -3.27680 -3.27680 -3.27680 -3.27680
307 2.439450 0.0 307.450 0.0 0.0960 0.1020 0.0 987.50 200.0 37.0 500.0 196.0 37.0 94.50 883355.0 2.0 255.0 827800998.088750 0.0 0.0 0.0 0.0 0.0 0.0 0.0 -3.27680 -3.27680 -3.27680 -3.27680 -3.27680 -3.27680
308 2.439450 0.0 308.450 0.0 0.0960 0.10180 0.0 988.50 200.0 37.0 500.0 196.0 37.0 83.0 883359.0 2.50 255.0 827808485.615890 0.0 0.0 0.0 0.0 0.0 0.0 0.0 -3.27680 -3.27680 -3.27680 -3.27680 -3.27680 -3.27680
309 2.439450 0.0 309.450 0.0 0.0960 0.1020 0.0 988.0 200.0 33.0 500.0 196.0 33.0 56.50 883367.0 2.0 255.0 827823460.761170 0.0 0.0 0.0 0.0 0.0 0.0 0.0 -3.27680 -3.27680 -3.27680 -3.27680 -3.27680 -3.27680
310 2.439450 0.0 310.450 0.0 0.0960 0.1020 0.0 988.50 200.0 35.0 500.0 196.0 35.0 70.0 883368.0 1.50 255.0 827825332.664380 0.0 0.0 0.0 0.0 0.0 0.0 0.0 -3.27680 -3.27680 -3.27680 -3.27680 -3.27680 -3.27680
311 2.439450 0.0 311.450 0.0 0.0960 0.10160 0.0 987.50 200.0 34.0 500.0 196.50 34.0 17.50 883373.0 2.0 255.0 827834692.213250 0.0 0.0 0.0 0.0 0.0 0.0 0.0 -3.27680 -3.27680 -3.27680 -3.27680 -3.27680 -3.27680
