~VERSION INFORMATION SECTION
VERS. 2.0 : CWLS LAS-VERSION 2.0
WRAP. NO : One line per depth step
~WELL INFORMATION SECTION
# MNEM.UNIT VALUE/NAME DESCRIPTION
#-------- -------------- ---------------------
STRT.Seconds 0 : Start
STOP.Seconds 565 : Stop
STEP.Seconds 1 : Step
NULL.  -999.25 :NULL VALUE
DATE. 2026-24-09 : DATE
~CURVE INFORMATION SECTION
DEPTH.Seconds : 0 Depth
Depth. : 1 Depth
Tension. : 2 Tension
Time. : 3 Time
Speed. : 4 Speed
Voltage. : 5 Voltage
Current. : 6 Current
WET. : 7 WET
Sig. : 8 Sig
Vth. : 9 Vth
GR.CPS : 10 GR
Timebase.ms : 11 Timebase
HeadVoltage.V : 12 Head Voltage
API.API : 13 API
Conductivity.uS : 14 Conductivity
PT100.Ohms : 15 PT100
Vmon.mV : 16 Vmon
Status. : 17 Status
Temperature.C : 18 Temperature
Incline.Deg : 19 Incline
Azimuth.Deg : 20 Azimuth
RelativeBearing.Deg : 21 Relative Bearing
MagneticToolFace.Deg : 22 Magnetic Tool Face
GravityMagnitude.G : 23 Gravity Magnitude
MagnetometerMagnitude.H : 24 Magnetometer Magnitude
Temperature.C : 25 Temperature
GX. : 26 GX
GY. : 27 GY
GZ. : 28 GZ
HX. : 29 HX
HY. : 30 HY
HZ. : 31 HZ
~PARAMETER INFORMATION SECTION
~OTHER
#-------------------------------------------------
#Produced By: GeoVista Logger - Version 7.1.107.0
Verticality Sonde - 9605
Temperature and Conductivity Sonde - Inline - 8974
Natural Gamma Sonde - 9931
WLIS - 10021
#-------------------------------------------------
~ASCII LOG DATA
# ...
39 2.439450 0.0 39.450 0.0 0.0960 0.10160 0.0 986.0 200.0 33.0 500.0 196.0 33.0 23.50 882870.0 1.0 255.0 826893386.779390 0.0 0.0 0.0 0.0 0.0 0.0 0.0 -3.27680 -3.27680 -3.27680 -3.27680 -3.27680 -3.27680
40 2.439450 0.0 40.450 0.0 0.0960 0.10160 0.0 986.0 200.0 41.529410 505.0 196.0 41.529410 94.0 882866.0 2.0 255.0 826885903.391930 0.0 0.0 0.0 0.0 0.0 0.0 0.0 -3.27680 -3.27680 -3.27680 -3.27680 -3.27680 -3.27680
41 2.439450 0.0 41.450 0.0 0.0960 0.1020 0.0 986.0 200.0 31.0 500.0 196.0 31.0 29.0 882866.50 2.0 255.0 826886838.812320 0.0 0.0 0.0 0.0 0.0 0.0 0.0 -3.27680 -3.27680 -3.27680 -3.27680 -3.27680 -3.27680
42 2.439450 0.0 42.450 0.0 0.0960 0.10180 0.0 986.0 200.0 27.0 500.0 196.0 27.0 59.50 882873.0 2.50 255.0 826898999.336650 0.0 0.0 0.0 0.0 0.0 0.0 0.0 -3.27680 -3.27680 -3.27680 -3.27680 -3.27680 -3.27680
43 2.439450 0.0 43.450 0.0 0.0960 0.10180 0.0 986.0 200.0 35.0 500.0 196.0 35.0 55.0 882874.0 2.0 255.0 826900870.197530 0.0 0.0 0.0 0.0 0.0 0.0 0.0 -3.27680 -3.27680 -3.27680 -3.27680 -3.27680 -3.27680
44 2.439450 0.0 44.450 0.0 0.0960 0.10180 0.0 986.0 200.0 32.0 500.0 196.0 32.0 40.0 882879.0 2.0 255.0 826910224.514660 0.0 0.0 0.0 0.0 0.0 0.0 0.0 -3.27680 -3.27680 -3.27680 -3.27680 -3.27680 -3.27680
45 2.439450 0.0 45.450 0.0 0.0960 0.1020 0.0 985.50 200.0 33.0 500.0 196.0 33.0 83.50 882885.0 1.50 255.0 826921449.768870 0.0 0.0 0.0 0.0 0.0 0.0 0.0 -3.27680 -3.27680 -3.27680 -3.27680 -3.27680 -3.27680
46 2.439450 0.0 46.450 0.0 0.0960 0.1020 0.0 986.0 200.0 22.803920 505.0 196.0 22.803920 86.50 882890.0 2.0 255.0 826930804.214040 0.0 0.0 0.0 0.0 0.0 0.0 0.0 -3.27680 -3.27680 -3.27680 -3.27680 -3.27680 -3.27680
47 2.439450 0.0 47.450 0.0 0.0960 0.1020 0.0 986.0 200.0 36.0 500.0 196.0 36.0 58.0 882888.0 1.50 255.0 826927062.424540 0.0 0.0 0.0 0.0 0.0 0.0 0.0 -3.27680 -3.27680 -3.27680 -3.27680 -3.27680 -3.27680
48 2.439450 0.0 48.450 0.0 0.0960 0.1020 0.0 986.0 200.0 32.0 500.0 196.0 32.0 56.0 882892.0 1.50 255.0 826934545.995070 0.0 0.0 0.0 0.0 0.0 0.0 0.0 -3.27680 -3.27680 -3.27680 -3.27680 -3.27680 -3.27680
49 2.439450 0.0 49.450 0.0 0.0960 0.1020 0.0 985.50 200.0 38.0 500.0 196.0 38.0 71.0 882895.0 1.50 255.0 826940158.695190 0.0 0.0 0.0 0.0 0.0 0.0 0.0 -3.27680 -3.27680 -3.27680 -3.27680 -3.27680 -3.27680
50 2.439450 0.0 50.450 0.0 0.0960 0.1020 0.0 985.50 200.0 38.0 500.0 196.0 38.0 40.0 882898.50 2.50 255.0 826946706.870720 0.0 0.0 0.0 0.0 0.0 0.0 0.0 -3.27680 -3.27680 -3.27680 -3.27680 -3.27680 -3.27680
51 2.439450 0.0 51.450 0.0 0.0960 0.1020 0.0 986.50 200.0 36.568630 505.0 196.0 36.568630 59.0 882903.50 2.0 255.0 826956061.448170 0.0 0.0 0.0 0.0 0.0 0.0 0.0 -3.27680 -3.27680 -3.27680 -3.27680 -3.27680 -3.27680
52 2.439450 0.0 52.450 0.0 0.0960 0.1020 0.0 986.0 200.0 24.0 500.0 196.0 24.0 75.0 882906.50 1.50 255.0 826961674.223420 0.0 0.0 0.0 0.0 0.0 0.0 0.0 -3.27680 -3.27680 -3.27680 -3.27680 -3.27680 -3.27680
53 2.439450 0.0 53.450 0.0 0.0960 0.10180 0.0 987.0 200.0 40.0 500.0 196.0 40.0 55.0 882904.0 2.50 255.0 826956996.909830 0.0 0.0 0.0 0.0 0.0 0.0 0.0 -3.27680 -3.27680 -3.27680 -3.27680 -3.27680 -3.27680
54 2.439450 0.0 54.450 0.0 0.0960 0.10180 0.0 985.50 200.0 35.0 500.0 196.0 35.0 43.50 882901.0 1.50 255.0 826951384.152570 0.0 0.0 0.0 0.0 0.0 0.0 0.0 -3.27680 -3.27680 -3.27680 -3.27680 -3.27680 -3.27680
55 2.439450 0.0 55.450 0.0 0.0960 0.1020 0.0 986.0 200.0 26.0 500.0 196.0 26.0 37.50 882898.0 2.50 255.0 826945771.41330 0.0 0.0 0.0 0.0 0.0 0.0 0.0 -3.27680 -3.27680 -3.27680 -3.27680 -3.27680 -3.27680
56 2.439450 0.0 56.450 0.0 0.0960 0.10180 0.0 986.0 200.0 24.0 500.0 196.0 24.0 35.50 882896.50 1.50 255.0 826942965.05160 0.0 0.0 0.0 0.0 0.0 0.0 0.0 -3.27680 -3.27680 -3.27680 -3.27680 -3.27680 -3.27680
57 2.439450 0.0 57.450 0.0 0.0960 0.1020 0.0 987.0 200.0 30.725490 505.0 196.0 30.725490 21.50 882899.0 2.0 255.0 826947642.324970 0.0 0.0 0.0 0.0 0.0 0.0 0.0 -3.27680 -3.27680 -3.27680 -3.27680 -3.27680 -3.27680
58 2.439450 0.0 58.450 0.0 0.0960 0.10180 0.0 985.50 200.0 31.0 500.0 196.0 31.0 46.50 882899.50 2.0 255.0 826948577.786630 0.0 0.0 0.0 0.0 0.0 0.0 0.0 -3.27680 -3.27680 -3.27680 -3.27680 -3.27680 -3.27680
59 2.439450 0.0 59.450 0.0 0.0960 0.1020 0.0 986.50 200.0 33.0 500.0 196.0 33.0 42.50 882899.50 2.50 255.0 826948577.78240 0.0 0.0 0.0 0.0 0.0 0.0 0.0 -3.27680 -3.27680 -3.27680 -3.27680 -3.27680 -3.27680
60 2.439450 0.0 60.450 0.0 0.0960 0.10140 0.0 986.0 200.0 44.0 500.0 196.0 44.0 40.50 882901.0 2.50 255.0 826951384.151510 0.0 0.0 0.0 0.0 0.0 0.0 0.0 -3.27680 -3.27680 -3.27680 -3.27680 -3.27680 -3.27680
61 2.439450 0.0 61.450 0.0 0.0960 0.10180 0.0 986.50 200.0 37.0 500.0 196.0 37.0 72.50 882893.0 1.50 255.0 826936416.901460 0.0 0.0 0.0 0.0 0.0 0.0 0.0 -3.27680 -3.27680 -3.27680 -3.27680 -3.27680 -3.27680
62 2.439450 0.0 62.450 0.0 0.0960 0.10180 0.0 985.0 200.0 31.0 500.0 196.0 31.0 56.50 882881.0 2.0 255.0 826913966.273470 0.0 0.0 0.0 0.0 0.0 0.0 0.0 -3.27680 -3.27680 -3.27680 -3.27680 -3.27680 -3.27680
63 2.439450 0.0 63.450 0.0 0.0960 0.10180 0.0 986.50 200.0 37.627450 505.0 196.0 37.627450 23.0 882875.0 2.0 255.0 826902741.054190 0.0 0.0 0.0 0.0 0.0 0.0 0.0 -3.27680 -3.27680 -3.27680 -3.27680 -3.27680 -3.27680
64 2.439450 0.0 64.450 0.0 0.0960 0.1020 0.0 986.50 200.0 44.0 500.0 196.0 44.0 88.50 882867.50 2.0 255.0 826888709.662620 0.0 0.0 0.0 0.0 0.0 0.0 0.0 -3.27680 -3.27680 -3.27680 -3.27680 -3.27680 -3.27680
65 2.439450 0.0 65.450 0.0 0.0960 0.10180 0.0 986.50 200.0 30.0 500.0 196.0 30.0 33.0 882854.50 1.50 255.0 826864388.87110 0.0 0.0 0.0 0.0 0.0 0.0 0.0 -3.27680 -3.27680 -3.27680 -3.27680 -3.27680 -3.27680
66 2.439450 0.0 66.450 0.0 0.0960 0.1020 0.0 986.0 200.0 27.0 500.0 196.0 27.0 50.50 882836.50 1.50 255.0 826830714.49050 0.0 0.0 0.0 0.0 0.0 0.0 0.0 -3.27680 -3.27680 -3.27680 -3.27680 -3.27680 -3.27680
67 2.439450 0.0 67.450 0.0 0.0960 0.1020 0.0 986.50 200.0 39.0 500.0 196.0 39.0 51.0 882826.0 1.50 255.0 826811071.414690 0.0 0.0 0.0 0.0 0.0 0.0 0.0 -3.27680 -3.27680 -3.27680 -3.27680 -3.27680 -3.27680
68 2.439450 0.0 68.450 0.0 0.0960 0.10180 0.0 986.50 200.0 50.392160 505.0 196.0 50.392160 41.50 882820.50 2.50 255.0 826800782.278230 0.0 0.0 0.0 0.0 0.0 0.0 0.0 -3.27680 -3.27680 -3.27680 -3.27680 -3.27680 -3.27680
69 2.439450 0.0 69.450 0.0 0.0960 0.10160 0.0 986.50 200.0 36.0 500.0 196.0 36.0 52.50 882818.0 2.0 255.0 826796105.421780 0.0 0.0 0.0 0.0 0.0 0.0 0.0 -3.27680 -3.27680 -3.27680 -3.27680 -3.27680 -3.27680
70 2.439450 0.0 70.450 0.0 0.0960 0.1020 0.0 986.50 200.0 43.0 500.0 196.0 43.0 93.50 882816.0 1.50 255.0 826792363.945510 0.0 0.0 0.0 0.0 0.0 0.0 0.0 -3.27680 -3.27680 -3.27680 -3.27680 -3.27680 -3.27680
71 2.439450 0.0 71.450 0.0 0.0960 0.1020 0.0 986.50 200.0 27.0 500.0 196.0 27.0 102.0 882808.0 2.0 255.0 826777398.133550 0.0 0.0 0.0 0.0 0.0 0.0 0.0 -3.27680 -3.27680 -3.27680 -3.27680 -3.27680 -3.27680
72 2.439450 0.0 72.450 0.0 0.0960 0.1020 0.0 987.0 200.0 34.0 500.0 196.0 34.0 88.50 882804.50 2.50 255.0 826770850.620450 0.0 0.0 0.0 0.0 0.0 0.0 0.0 -3.27680 -3.27680 -3.27680 -3.27680 -3.27680 -3.27680
73 2.439450 0.0 73.450 0.0 0.0960 0.1020 0.0 986.50 200.0 39.0 500.0 196.0 39.0 54.50 882803.50 2.50 255.0 826768979.909830 0.0 0.0 0.0 0.0 0.0 0.0 0.0 -3.27680 -3.27680 -3.27680 -3.27680 -3.27680 -3.27680
74 2.439450 0.0 74.450 0.0 0.0960 0.1020 0.0 985.50 200.0 30.647060 505.0 196.0 30.647060 78.0 882802.0 2.0 255.0 826766173.848660 0.0 0.0 0.0 0.0 0.0 0.0 0.0 -3.27680 -3.27680 -3.27680 -3.27680 -3.27680 -3.27680
75 2.439450 0.0 75.450 0.0 0.0960 0.1020 0.0 986.50 200.0 28.0 500.0 196.0 28.0 65.0 882794.0 1.50 255.0 826751208.265270 0.0 0.0 0.0 0.0 0.0 0.0 0.0 -3.27680 -3.27680 -3.27680 -3.27680 -3.27680 -3.27680
76 2.439450 0.0 76.450 0.0 0.0960 0.1020 0.0 987.0 200.0 41.0 500.0 196.0 41.0 43.0 882786.0 1.50 255.0 826736242.817340 0.0 0.0 0.0 0.0 0.0 0.0 0.0 -3.27680 -3.27680 -3.27680 -3.27680 -3.27680 -3.27680
77 2.439450 0.0 77.450 0.0 0.0960 0.10180 0.0 986.50 200.0 31.0 500.0 196.0 31.0 53.50 882784.50 3.0 255.0 826733436.812250 0.0 0.0 0.0 0.0 0.0 0.0 0.0 -3.27680 -3.27680 -3.27680 -3.27680 -3.27680 -3.27680
