~VERSION INFORMATION SECTION
VERS. 2.0 : CWLS LAS-VERSION 2.0
WRAP. NO : One line per depth step
~WELL INFORMATION SECTION
# MNEM.UNIT VALUE/NAME DESCRIPTION
#-------- -------------- ---------------------
STRT.Seconds 0 : Start
STOP.Seconds 565 : Stop
STEP.Seconds 1 : Step
NULL.  -999.25 :NULL VALUE
DATE. 2026-24-09 : DATE
~CURVE INFORMATION SECTION
DEPTH.Seconds : 0 Depth
Depth. : 1 Depth
Tension. : 2 Tension
Time. : 3 Time
Speed. : 4 Speed
Voltage. : 5 Voltage
Current. : 6 Current
WET. : 7 WET
Sig. : 8 Sig
Vth. : 9 Vth
GR.CPS : 10 GR
Timebase.ms : 11 Timebase
HeadVoltage.V : 12 Head Voltage
API.API : 13 API
Conductivity.uS : 14 Conductivity
PT100.Ohms : 15 PT100
Vmon.mV : 16 Vmon
Status. : 17 Status
Temperature.C : 18 Temperature
Incline.Deg : 19 Incline
Azimuth.Deg : 20 Azimuth
RelativeBearing.Deg : 21 Relative Bearing
MagneticToolFace.Deg : 22 Magnetic Tool Face
GravityMagnitude.G : 23 Gravity Magnitude
MagnetometerMagnitude.H : 24 Magnetometer Magnitude
Temperature.C : 25 Temperature
GX. : 26 GX
GY. : 27 GY
GZ. : 28 GZ
HX. : 29 HX
HY. : 30 HY
HZ. : 31 HZ
~PARAMETER INFORMATION SECTION
~OTHER
#-------------------------------------------------
#Produced By: GeoVista Logger - Version 7.1.107.0
Verticality Sonde - 9605
Temperature and Conductivity Sonde - Inline - 8974
Natural Gamma Sonde - 9931
WLIS - 10021
#-------------------------------------------------
~ASCII LOG DATA
# ...
351 2.439450 0.0 351.450 0.0 0.0960 0.1020 0.0 988.50 200.0 31.666670 505.0 196.0 31.666670 94.0 883368.50 2.50 255.0 827826268.617040 0.0 0.0 0.0 0.0 0.0 0.0 0.0 -3.27680 -3.27680 -3.27680 -3.27680 -3.27680 -3.27680
352 2.439450 0.0 352.450 0.0 0.0960 0.10180 0.0 988.0 200.0 31.0 500.0 196.0 31.0 45.50 883371.50 1.50 255.0 827831884.344670 0.0 0.0 0.0 0.0 0.0 0.0 0.0 -3.27680 -3.27680 -3.27680 -3.27680 -3.27680 -3.27680
353 2.439450 0.0 353.450 0.0 0.0960 0.1020 0.0 988.50 200.0 38.0 500.0 196.0 38.0 57.50 883372.50 2.50 255.0 827833756.255290 0.0 0.0 0.0 0.0 0.0 0.0 0.0 -3.27680 -3.27680 -3.27680 -3.27680 -3.27680 -3.27680
354 2.439450 0.0 354.450 0.0 0.0960 0.1020 0.0 989.0 200.0 39.0 500.0 196.0 39.0 50.50 883373.50 1.50 255.0 827835628.170150 0.0 0.0 0.0 0.0 0.0 0.0 0.0 -3.27680 -3.27680 -3.27680 -3.27680 -3.27680 -3.27680
355 2.439450 0.0 355.450 0.0 0.0960 0.10180 0.0 988.50 200.0 29.0 500.0 196.0 29.0 87.0 883377.0 1.0 255.0 827842179.889590 0.0 0.0 0.0 0.0 0.0 0.0 0.0 -3.27680 -3.27680 -3.27680 -3.27680 -3.27680 -3.27680
356 2.439450 0.0 356.450 0.0 0.0960 0.1020 0.0 989.0 200.0 28.0 500.0 196.0 28.0 43.0 883377.0 1.50 255.0 827842179.888530 0.0 0.0 0.0 0.0 0.0 0.0 0.0 -3.27680 -3.27680 -3.27680 -3.27680 -3.27680 -3.27680
357 2.439450 0.0 357.450 0.0 0.0960 0.1020 0.0 988.0 200.0 32.627450 505.0 196.50 32.627450 38.0 883375.50 2.0 255.0 827839372.008320 0.0 0.0 0.0 0.0 0.0 0.0 0.0 -3.27680 -3.27680 -3.27680 -3.27680 -3.27680 -3.27680
358 2.439450 0.0 358.450 0.0 0.0960 0.1020 0.0 988.50 200.0 33.0 500.0 196.0 33.0 46.0 883372.0 2.0 255.0 827832820.302630 0.0 0.0 0.0 0.0 0.0 0.0 0.0 -3.27680 -3.27680 -3.27680 -3.27680 -3.27680 -3.27680
359 2.439450 0.0 359.450 0.0 0.0960 0.1020 0.0 988.0 200.0 30.0 500.0 196.0 30.0 67.50 883359.0 1.50 255.0 827808485.628580 0.0 0.0 0.0 0.0 0.0 0.0 0.0 -3.27680 -3.27680 -3.27680 -3.27680 -3.27680 -3.27680
360 2.439450 0.0 360.450 0.0 0.0960 0.10180 0.0 989.50 200.0 38.0 500.0 196.0 38.0 20.0 883345.50 1.50 255.0 827783215.36060 0.0 0.0 0.0 0.0 0.0 0.0 0.0 -3.27680 -3.27680 -3.27680 -3.27680 -3.27680 -3.27680
361 2.439450 0.0 361.450 0.0 0.0960 0.1020 0.0 988.0 200.0 40.0 500.0 196.0 40.0 49.0 883335.0 2.50 255.0 827763560.992740 0.0 0.0 0.0 0.0 0.0 0.0 0.0 -3.27680 -3.27680 -3.27680 -3.27680 -3.27680 -3.27680
362 2.439450 0.0 362.450 0.0 0.0960 0.1020 0.0 989.0 200.0 31.0 500.0 196.50 31.0 77.0 883326.0 2.0 255.0 827746714.552710 0.0 0.0 0.0 0.0 0.0 0.0 0.0 -3.27680 -3.27680 -3.27680 -3.27680 -3.27680 -3.27680
363 2.439450 0.0 363.450 0.0 0.0960 0.1020 0.0 988.0 200.0 32.686270 505.0 196.0 32.686270 60.0 883321.50 2.0 255.0 827738291.406240 0.0 0.0 0.0 0.0 0.0 0.0 0.0 -3.27680 -3.27680 -3.27680 -3.27680 -3.27680 -3.27680
364 2.439450 0.0 364.450 0.0 0.0960 0.1020 0.0 989.50 200.0 41.0 500.0 196.0 41.0 78.0 883318.0 2.0 255.0 827731740.097380 0.0 0.0 0.0 0.0 0.0 0.0 0.0 -3.27680 -3.27680 -3.27680 -3.27680 -3.27680 -3.27680
365 2.439450 0.0 365.450 0.0 0.0960 0.1020 0.0 987.0 200.0 41.0 500.0 196.0 41.0 52.0 883317.50 2.0 255.0 827730804.199740 0.0 0.0 0.0 0.0 0.0 0.0 0.0 -3.27680 -3.27680 -3.27680 -3.27680 -3.27680 -3.27680
366 2.439450 0.0 366.450 0.0 0.0960 0.10180 0.0 989.0 200.0 38.0 500.0 196.0 38.0 98.50 883318.50 2.0 255.0 827732675.996070 0.0 0.0 0.0 0.0 0.0 0.0 0.0 -3.27680 -3.27680 -3.27680 -3.27680 -3.27680 -3.27680
367 2.439450 0.0 367.450 0.0 0.0960 0.10180 0.0 988.50 200.0 28.0 500.0 196.0 28.0 37.50 883323.50 2.0 255.0 827742035.022190 0.0 0.0 0.0 0.0 0.0 0.0 0.0 -3.27680 -3.27680 -3.27680 -3.27680 -3.27680 -3.27680
368 2.439450 0.0 368.450 0.0 0.0960 0.1020 0.0 989.0 200.0 31.647060 505.0 196.50 31.647060 41.50 883327.0 1.50 255.0 827748586.368090 0.0 0.0 0.0 0.0 0.0 0.0 0.0 -3.27680 -3.27680 -3.27680 -3.27680 -3.27680 -3.27680
369 2.439450 0.0 369.450 0.0 0.0960 0.1020 0.0 987.0 200.0 42.0 500.0 196.0 42.0 35.0 883329.0 2.0 255.0 827752330.007320 0.0 0.0 0.0 0.0 0.0 0.0 0.0 -3.27680 -3.27680 -3.27680 -3.27680 -3.27680 -3.27680
370 2.439450 0.0 370.450 0.0 0.0960 0.10180 0.0 989.0 200.0 29.0 500.0 196.0 29.0 95.50 883332.50 2.50 255.0 827758881.396610 0.0 0.0 0.0 0.0 0.0 0.0 0.0 -3.27680 -3.27680 -3.27680 -3.27680 -3.27680 -3.27680
371 2.439450 0.0 371.450 0.0 0.0960 0.10180 0.0 988.50 200.0 38.0 500.0 196.0 38.0 40.50 883336.50 1.50 255.0 827766368.736450 0.0 0.0 0.0 0.0 0.0 0.0 0.0 -3.27680 -3.27680 -3.27680 -3.27680 -3.27680 -3.27680
372 2.439450 0.0 372.450 0.0 0.0960 0.1020 0.0 989.0 200.0 36.0 500.0 196.0 36.0 50.0 883341.50 1.50 255.0 827775727.950930 0.0 0.0 0.0 0.0 0.0 0.0 0.0 -3.27680 -3.27680 -3.27680 -3.27680 -3.27680 -3.27680
373 2.439450 0.0 373.450 0.0 0.0960 0.1020 0.0 989.0 200.0 36.0 500.0 196.50 36.0 65.0 883349.0 2.0 255.0 827789766.869470 0.0 0.0 0.0 0.0 0.0 0.0 0.0 -3.27680 -3.27680 -3.27680 -3.27680 -3.27680 -3.27680
374 2.439450 0.0 374.450 0.0 0.0960 0.10180 0.0 988.50 200.0 46.529410 505.0 196.0 46.529410 81.50 883355.0 2.0 255.0 827800998.091920 0.0 0.0 0.0 0.0 0.0 0.0 0.0 -3.27680 -3.27680 -3.27680 -3.27680 -3.27680 -3.27680
375 2.439450 0.0 375.450 0.0 0.0960 0.10180 0.0 988.50 200.0 30.0 500.0 196.0 30.0 63.50 883366.0 2.50 255.0 827821588.869590 0.0 0.0 0.0 0.0 0.0 0.0 0.0 -3.27680 -3.27680 -3.27680 -3.27680 -3.27680 -3.27680
376 2.439450 0.0 376.450 0.0 0.0960 0.1020 0.0 988.50 200.0 26.0 500.0 196.0 26.0 39.50 883374.50 2.50 255.0 827837500.089230 0.0 0.0 0.0 0.0 0.0 0.0 0.0 -3.27680 -3.27680 -3.27680 -3.27680 -3.27680 -3.27680
377 2.439450 0.0 377.450 0.0 0.0960 0.10180 0.0 988.0 200.0 39.0 500.0 196.0 39.0 56.50 883384.0 1.50 255.0 827855283.420550 0.0 0.0 0.0 0.0 0.0 0.0 0.0 -3.27680 -3.27680 -3.27680 -3.27680 -3.27680 -3.27680
378 2.439450 0.0 378.450 0.0 0.0960 0.1020 0.0 988.50 200.0 30.0 500.0 196.0 30.0 78.50 883394.0 1.50 255.0 827874002.895010 0.0 0.0 0.0 0.0 0.0 0.0 0.0 -3.27680 -3.27680 -3.27680 -3.27680 -3.27680 -3.27680
379 2.439450 0.0 379.450 0.0 0.0960 0.1020 0.0 988.50 200.0 37.0 500.0 196.50 37.0 51.50 883403.0 2.50 255.0 827890850.619690 0.0 0.0 0.0 0.0 0.0 0.0 0.0 -3.27680 -3.27680 -3.27680 -3.27680 -3.27680 -3.27680
380 2.439450 0.0 380.450 0.0 0.0960 0.1020 0.0 988.50 200.0 36.607840 505.0 196.0 36.607840 48.0 883413.50 2.0 255.0 827910506.501840 0.0 0.0 0.0 0.0 0.0 0.0 0.0 -3.27680 -3.27680 -3.27680 -3.27680 -3.27680 -3.27680
381 2.439450 0.0 381.450 0.0 0.0960 0.1020 0.0 988.0 200.0 40.0 500.0 196.0 40.0 45.0 883421.0 1.50 255.0 827924546.567470 0.0 0.0 0.0 0.0 0.0 0.0 0.0 -3.27680 -3.27680 -3.27680 -3.27680 -3.27680 -3.27680
382 2.439450 0.0 382.450 0.0 0.0960 0.1020 0.0 988.50 200.0 29.0 500.0 196.0 29.0 45.50 883431.0 1.50 255.0 827943266.842980 0.0 0.0 0.0 0.0 0.0 0.0 0.0 -3.27680 -3.27680 -3.27680 -3.27680 -3.27680 -3.27680
383 2.439450 0.0 383.450 0.0 0.0960 0.1020 0.0 989.0 200.0 21.0 500.0 196.0 21.0 60.0 883441.0 2.0 255.0 827961987.324850 0.0 0.0 0.0 0.0 0.0 0.0 0.0 -3.27680 -3.27680 -3.27680 -3.27680 -3.27680 -3.27680
384 2.439450 0.0 384.450 0.0 0.0960 0.1020 0.0 988.50 200.0 35.0 500.0 196.0 35.0 113.0 883446.50 2.50 255.0 827972283.677180 0.0 0.0 0.0 0.0 0.0 0.0 0.0 -3.27680 -3.27680 -3.27680 -3.27680 -3.27680 -3.27680
385 2.439450 0.0 385.450 0.0 0.0960 0.10180 0.0 987.50 200.0 42.607840 505.0 196.50 42.607840 43.50 883454.50 2.50 255.0 827987260.308170 0.0 0.0 0.0 0.0 0.0 0.0 0.0 -3.27680 -3.27680 -3.27680 -3.27680 -3.27680 -3.27680
386 2.439450 0.0 386.450 0.0 0.0960 0.10180 0.0 988.0 200.0 42.0 500.0 196.0 42.0 42.50 883462.0 1.50 255.0 828001301.017190 0.0 0.0 0.0 0.0 0.0 0.0 0.0 -3.27680 -3.27680 -3.27680 -3.27680 -3.27680 -3.27680
387 2.439450 0.0 387.450 0.0 0.0960 0.10180 0.0 989.0 200.0 33.0 500.0 196.0 33.0 87.50 883470.0 2.0 255.0 828016277.913790 0.0 0.0 0.0 0.0 0.0 0.0 0.0 -3.27680 -3.27680 -3.27680 -3.27680 -3.27680 -3.27680
388 2.439450 0.0 388.450 0.0 0.0960 0.10180 0.0 988.50 200.0 30.0 500.0 196.0 30.0 132.0 883476.50 2.50 255.0 828028446.741810 0.0 0.0 0.0 0.0 0.0 0.0 0.0 -3.27680 -3.27680 -3.27680 -3.27680 -3.27680 -3.27680
389 2.439450 0.0 389.450 0.0 0.0960 0.10180 0.0 989.50 200.0 34.0 500.0 196.0 34.0 40.50 883482.50 2.0 255.0 828039679.579080 0.0 0.0 0.0 0.0 0.0 0.0 0.0 -3.27680 -3.27680 -3.27680 -3.27680 -3.27680 -3.27680
