~VERSION INFORMATION SECTION
VERS. 2.0 : CWLS LAS-VERSION 2.0
WRAP. NO : One line per depth step
~WELL INFORMATION SECTION
# MNEM.UNIT VALUE/NAME DESCRIPTION
#-------- -------------- ---------------------
STRT.Seconds 0 : Start
STOP.Seconds 565 : Stop
STEP.Seconds 1 : Step
NULL.  -999.25 :NULL VALUE
DATE. 2026-24-09 : DATE
~CURVE INFORMATION SECTION
DEPTH.Seconds : 0 Depth
Depth. : 1 Depth
Tension. : 2 Tension
Time. : 3 Time
Speed. : 4 Speed
Voltage. : 5 Voltage
Current. : 6 Current
WET. : 7 WET
Sig. : 8 Sig
Vth. : 9 Vth
GR.CPS : 10 GR
Timebase.ms : 11 Timebase
HeadVoltage.V : 12 Head Voltage
API.API : 13 API
Conductivity.uS : 14 Conductivity
PT100.Ohms : 15 PT100
Vmon.mV : 16 Vmon
Status. : 17 Status
Temperature.C : 18 Temperature
Incline.Deg : 19 Incline
Azimuth.Deg : 20 Azimuth
RelativeBearing.Deg : 21 Relative Bearing
MagneticToolFace.Deg : 22 Magnetic Tool Face
GravityMagnitude.G : 23 Gravity Magnitude
MagnetometerMagnitude.H : 24 Magnetometer Magnitude
Temperature.C : 25 Temperature
GX. : 26 GX
GY. : 27 GY
GZ. : 28 GZ
HX. : 29 HX
HY. : 30 HY
HZ. : 31 HZ
~PARAMETER INFORMATION SECTION
~OTHER
#-------------------------------------------------
#Produced By: GeoVista Logger - Version 7.1.107.0
Verticality Sonde - 9605
Temperature and Conductivity Sonde - Inline - 8974
Natural Gamma Sonde - 9931
WLIS - 10021
#-------------------------------------------------
~ASCII LOG DATA
# ...
117 2.439450 0.0 117.450 0.0 0.0960 0.1020 0.0 987.0 200.0 30.0 500.0 196.0 30.0 103.0 882542.50 3.0 255.0 826280796.801540 0.0 0.0 0.0 0.0 0.0 0.0 0.0 -3.27680 -3.27680 -3.27680 -3.27680 -3.27680 -3.27680
118 2.439450 0.0 118.450 0.0 0.0960 0.10180 0.0 987.0 200.0 28.0 500.0 196.0 28.0 10.50 882553.0 2.0 255.0 826300433.575770 0.0 0.0 0.0 0.0 0.0 0.0 0.0 -3.27680 -3.27680 -3.27680 -3.27680 -3.27680 -3.27680
119 2.439450 0.0 119.450 0.0 0.0960 0.1020 0.0 987.50 200.0 22.784310 505.0 196.0 22.784310 74.0 882566.50 1.50 255.0 826325681.213080 0.0 0.0 0.0 0.0 0.0 0.0 0.0 -3.27680 -3.27680 -3.27680 -3.27680 -3.27680 -3.27680
120 2.439450 0.0 120.450 0.0 0.0960 0.1020 0.0 987.0 200.0 29.0 500.0 196.0 29.0 53.50 882586.0 2.0 255.0 826362150.665450 0.0 0.0 0.0 0.0 0.0 0.0 0.0 -3.27680 -3.27680 -3.27680 -3.27680 -3.27680 -3.27680
121 2.439450 0.0 121.450 0.0 0.0960 0.10180 0.0 987.0 200.0 36.0 500.0 196.0 36.0 29.0 882604.50 2.50 255.0 826396750.633650 0.0 0.0 0.0 0.0 0.0 0.0 0.0 -3.27680 -3.27680 -3.27680 -3.27680 -3.27680 -3.27680
122 2.439450 0.0 122.450 0.0 0.0960 0.1020 0.0 987.0 200.0 29.0 500.0 196.0 29.0 35.50 882626.50 2.0 255.0 826437897.490620 0.0 0.0 0.0 0.0 0.0 0.0 0.0 -3.27680 -3.27680 -3.27680 -3.27680 -3.27680 -3.27680
123 2.439450 0.0 123.450 0.0 0.0960 0.1020 0.0 987.0 200.0 34.0 500.0 196.0 34.0 85.50 882648.0 1.50 255.0 826478110.186450 0.0 0.0 0.0 0.0 0.0 0.0 0.0 -3.27680 -3.27680 -3.27680 -3.27680 -3.27680 -3.27680
124 2.439450 0.0 124.450 0.0 0.0960 0.10220 0.0 986.50 200.0 43.0 500.0 196.0 43.0 66.0 882668.0 1.50 255.0 826515518.230630 0.0 0.0 0.0 0.0 0.0 0.0 0.0 -3.27680 -3.27680 -3.27680 -3.27680 -3.27680 -3.27680
125 2.439450 0.0 125.450 0.0 0.0960 0.1020 0.0 987.0 200.0 34.666670 505.0 196.0 34.666670 59.50 882687.50 2.0 255.0 826551991.884060 0.0 0.0 0.0 0.0 0.0 0.0 0.0 -3.27680 -3.27680 -3.27680 -3.27680 -3.27680 -3.27680
126 2.439450 0.0 126.450 0.0 0.0960 0.1020 0.0 987.0 200.0 33.0 500.0 196.0 33.0 41.50 882707.50 2.50 255.0 826589401.575860 0.0 0.0 0.0 0.0 0.0 0.0 0.0 -3.27680 -3.27680 -3.27680 -3.27680 -3.27680 -3.27680
127 2.439450 0.0 127.450 0.0 0.0960 0.10180 0.0 987.0 200.0 31.0 500.0 196.0 31.0 25.0 882726.0 2.0 255.0 826624006.291140 0.0 0.0 0.0 0.0 0.0 0.0 0.0 -3.27680 -3.27680 -3.27680 -3.27680 -3.27680 -3.27680
128 2.439450 0.0 128.450 0.0 0.0960 0.1020 0.0 986.0 200.0 34.0 500.0 196.0 34.0 86.0 882742.50 1.50 255.0 826654870.570370 0.0 0.0 0.0 0.0 0.0 0.0 0.0 -3.27680 -3.27680 -3.27680 -3.27680 -3.27680 -3.27680
129 2.439450 0.0 129.450 0.0 0.0960 0.1020 0.0 986.50 200.0 33.0 500.0 196.0 33.0 48.50 882758.50 2.50 255.0 826684800.143490 0.0 0.0 0.0 0.0 0.0 0.0 0.0 -3.27680 -3.27680 -3.27680 -3.27680 -3.27680 -3.27680
130 2.439450 0.0 130.450 0.0 0.0960 0.1020 0.0 987.50 200.0 35.0 500.0 196.0 35.0 46.0 882773.0 2.0 255.0 826711924.261790 0.0 0.0 0.0 0.0 0.0 0.0 0.0 -3.27680 -3.27680 -3.27680 -3.27680 -3.27680 -3.27680
131 2.439450 0.0 131.450 0.0 0.0960 0.1020 0.0 987.0 200.0 22.74510 505.0 196.0 22.74510 31.50 882784.50 2.50 255.0 826733436.822830 0.0 0.0 0.0 0.0 0.0 0.0 0.0 -3.27680 -3.27680 -3.27680 -3.27680 -3.27680 -3.27680
132 2.439450 0.0 132.450 0.0 0.0960 0.1020 0.0 986.0 200.0 23.0 500.0 196.0 23.0 50.0 882796.50 2.0 255.0 826755885.007430 0.0 0.0 0.0 0.0 0.0 0.0 0.0 -3.27680 -3.27680 -3.27680 -3.27680 -3.27680 -3.27680
133 2.439450 0.0 133.450 0.0 0.0960 0.1020 0.0 986.50 200.0 36.0 500.0 196.0 36.0 65.50 882808.0 2.0 255.0 826777398.128260 0.0 0.0 0.0 0.0 0.0 0.0 0.0 -3.27680 -3.27680 -3.27680 -3.27680 -3.27680 -3.27680
134 2.439450 0.0 134.450 0.0 0.0960 0.1020 0.0 987.0 200.0 57.0 500.0 196.0 57.0 80.0 882815.0 1.50 255.0 826790493.210550 0.0 0.0 0.0 0.0 0.0 0.0 0.0 -3.27680 -3.27680 -3.27680 -3.27680 -3.27680 -3.27680
135 2.439450 0.0 135.450 0.0 0.0960 0.10180 0.0 987.0 200.0 33.0 500.0 196.0 33.0 67.50 882820.50 2.0 255.0 826800782.280340 0.0 0.0 0.0 0.0 0.0 0.0 0.0 -3.27680 -3.27680 -3.27680 -3.27680 -3.27680 -3.27680
136 2.439450 0.0 136.450 0.0 0.0960 0.1020 0.0 988.0 200.0 43.568630 505.0 196.0 43.568630 24.50 882827.0 1.50 255.0 826812942.178220 0.0 0.0 0.0 0.0 0.0 0.0 0.0 -3.27680 -3.27680 -3.27680 -3.27680 -3.27680 -3.27680
137 2.439450 0.0 137.450 0.0 0.0960 0.1020 0.0 986.0 200.0 32.0 500.0 196.0 32.0 84.50 882836.0 1.0 255.0 826829779.089160 0.0 0.0 0.0 0.0 0.0 0.0 0.0 -3.27680 -3.27680 -3.27680 -3.27680 -3.27680 -3.27680
138 2.439450 0.0 138.450 0.0 0.0960 0.1020 0.0 987.0 200.0 26.0 500.0 196.0 26.0 55.50 882847.0 2.0 255.0 826850357.782180 0.0 0.0 0.0 0.0 0.0 0.0 0.0 -3.27680 -3.27680 -3.27680 -3.27680 -3.27680 -3.27680
139 2.439450 0.0 139.450 0.0 0.0960 0.10180 0.0 987.0 200.0 35.0 500.0 196.0 35.0 34.0 882858.50 2.50 255.0 826871872.143220 0.0 0.0 0.0 0.0 0.0 0.0 0.0 -3.27680 -3.27680 -3.27680 -3.27680 -3.27680 -3.27680
140 2.439450 0.0 140.450 0.0 0.0960 0.1020 0.0 987.50 200.0 29.0 500.0 196.0 29.0 33.0 882869.0 2.0 255.0 826891515.930140 0.0 0.0 0.0 0.0 0.0 0.0 0.0 -3.27680 -3.27680 -3.27680 -3.27680 -3.27680 -3.27680
141 2.439450 0.0 141.450 0.0 0.0960 0.1020 0.0 985.50 200.0 32.0 500.0 196.0 32.0 42.0 882878.50 2.0 255.0 826909289.081570 0.0 0.0 0.0 0.0 0.0 0.0 0.0 -3.27680 -3.27680 -3.27680 -3.27680 -3.27680 -3.27680
142 2.439450 0.0 142.450 0.0 0.0960 0.10180 0.0 987.50 200.0 31.627450 505.0 196.0 31.627450 56.50 882887.0 2.0 255.0 826925191.540380 0.0 0.0 0.0 0.0 0.0 0.0 0.0 -3.27680 -3.27680 -3.27680 -3.27680 -3.27680 -3.27680
143 2.439450 0.0 143.450 0.0 0.0960 0.1020 0.0 987.0 200.0 37.0 500.0 196.0 37.0 53.50 882895.50 1.50 255.0 826941094.148380 0.0 0.0 0.0 0.0 0.0 0.0 0.0 -3.27680 -3.27680 -3.27680 -3.27680 -3.27680 -3.27680
144 2.439450 0.0 144.450 0.0 0.0960 0.1020 0.0 987.50 200.0 33.0 500.0 196.0 33.0 61.0 882905.0 2.0 255.0 826958867.841610 0.0 0.0 0.0 0.0 0.0 0.0 0.0 -3.27680 -3.27680 -3.27680 -3.27680 -3.27680 -3.27680
145 2.439450 0.0 145.450 0.0 0.0960 0.1020 0.0 985.50 200.0 34.0 500.0 196.0 34.0 41.0 882914.50 2.0 255.0 826976641.711560 0.0 0.0 0.0 0.0 0.0 0.0 0.0 -3.27680 -3.27680 -3.27680 -3.27680 -3.27680 -3.27680
146 2.439450 0.0 146.450 0.0 0.0960 0.1020 0.0 987.0 200.0 27.0 500.0 196.0 27.0 56.0 882917.0 1.0 255.0 826981319.078060 0.0 0.0 0.0 0.0 0.0 0.0 0.0 -3.27680 -3.27680 -3.27680 -3.27680 -3.27680 -3.27680
147 2.439450 0.0 147.450 0.0 0.0960 0.1020 0.0 987.0 200.0 43.0 500.0 196.0 43.0 83.0 882915.50 2.0 255.0 826978512.654990 0.0 0.0 0.0 0.0 0.0 0.0 0.0 -3.27680 -3.27680 -3.27680 -3.27680 -3.27680 -3.27680
148 2.439450 0.0 148.450 0.0 0.0960 0.10160 0.0 987.50 200.0 38.607840 505.0 196.0 38.607840 26.50 882916.0 3.0 255.0 826979448.128290 0.0 0.0 0.0 0.0 0.0 0.0 0.0 -3.27680 -3.27680 -3.27680 -3.27680 -3.27680 -3.27680
149 2.439450 0.0 149.450 0.0 0.0960 0.1020 0.0 987.50 200.0 40.0 500.0 196.0 40.0 68.0 882921.0 2.0 255.0 826988802.894090 0.0 0.0 0.0 0.0 0.0 0.0 0.0 -3.27680 -3.27680 -3.27680 -3.27680 -3.27680 -3.27680
150 2.439450 0.0 150.450 0.0 0.0960 0.10180 0.0 987.0 200.0 23.0 500.0 196.0 23.0 48.0 882926.50 1.50 255.0 826999093.195630 0.0 0.0 0.0 0.0 0.0 0.0 0.0 -3.27680 -3.27680 -3.27680 -3.27680 -3.27680 -3.27680
151 2.439450 0.0 151.450 0.0 0.0960 0.1020 0.0 987.0 200.0 35.0 500.0 196.0 35.0 75.0 882922.50 2.0 255.0 826991609.333040 0.0 0.0 0.0 0.0 0.0 0.0 0.0 -3.27680 -3.27680 -3.27680 -3.27680 -3.27680 -3.27680
152 2.439450 0.0 152.450 0.0 0.0960 0.1020 0.0 987.50 200.0 36.0 500.0 196.0 36.0 26.50 882915.0 2.0 255.0 826977577.185920 0.0 0.0 0.0 0.0 0.0 0.0 0.0 -3.27680 -3.27680 -3.27680 -3.27680 -3.27680 -3.27680
153 2.439450 0.0 153.450 0.0 0.0960 0.1020 0.0 986.50 200.0 45.529410 505.0 196.0 45.529410 35.50 882910.0 2.50 255.0 826968222.480430 0.0 0.0 0.0 0.0 0.0 0.0 0.0 -3.27680 -3.27680 -3.27680 -3.27680 -3.27680 -3.27680
154 2.439450 0.0 154.450 0.0 0.0960 0.1020 0.0 987.0 200.0 43.0 500.0 196.0 43.0 25.0 882911.0 2.0 255.0 826970093.416450 0.0 0.0 0.0 0.0 0.0 0.0 0.0 -3.27680 -3.27680 -3.27680 -3.27680 -3.27680 -3.27680
155 2.439450 0.0 155.450 0.0 0.0960 0.1020 0.0 987.50 200.0 33.0 500.0 196.0 33.0 12.0 882914.0 1.0 255.0 826975706.238260 0.0 0.0 0.0 0.0 0.0 0.0 0.0 -3.27680 -3.27680 -3.27680 -3.27680 -3.27680 -3.27680
