~VERSION INFORMATION SECTION
VERS. 2.0 : CWLS LAS-VERSION 2.0
WRAP. NO : One line per depth step
~WELL INFORMATION SECTION
# MNEM.UNIT VALUE/NAME DESCRIPTION
#-------- -------------- ---------------------
STRT.Seconds 0 : Start
STOP.Seconds 565 : Stop
STEP.Seconds 1 : Step
NULL.  -999.25 :NULL VALUE
DATE. 2026-24-09 : DATE
~CURVE INFORMATION SECTION
DEPTH.Seconds : 0 Depth
Depth. : 1 Depth
Tension. : 2 Tension
Time. : 3 Time
Speed. : 4 Speed
Voltage. : 5 Voltage
Current. : 6 Current
WET. : 7 WET
Sig. : 8 Sig
Vth. : 9 Vth
GR.CPS : 10 GR
Timebase.ms : 11 Timebase
HeadVoltage.V : 12 Head Voltage
API.API : 13 API
Conductivity.uS : 14 Conductivity
PT100.Ohms : 15 PT100
Vmon.mV : 16 Vmon
Status. : 17 Status
Temperature.C : 18 Temperature
Incline.Deg : 19 Incline
Azimuth.Deg : 20 Azimuth
RelativeBearing.Deg : 21 Relative Bearing
MagneticToolFace.Deg : 22 Magnetic Tool Face
GravityMagnitude.G : 23 Gravity Magnitude
MagnetometerMagnitude.H : 24 Magnetometer Magnitude
Temperature.C : 25 Temperature
GX. : 26 GX
GY. : 27 GY
GZ. : 28 GZ
HX. : 29 HX
HY. : 30 HY
HZ. : 31 HZ
~PARAMETER INFORMATION SECTION
~OTHER
#-------------------------------------------------
#Produced By: GeoVista Logger - Version 7.1.107.0
Verticality Sonde - 9605
Temperature and Conductivity Sonde - Inline - 8974
Natural Gamma Sonde - 9931
WLIS - 10021
#-------------------------------------------------
~ASCII LOG DATA
# ...
78 2.439450 0.0 78.450 0.0 0.0960 0.1020 0.0 987.0 200.0 42.0 500.0 196.0 42.0 61.50 882791.0 2.0 255.0 826745596.205360 0.0 0.0 0.0 0.0 0.0 0.0 0.0 -3.27680 -3.27680 -3.27680 -3.27680 -3.27680 -3.27680
79 2.439450 0.0 79.450 0.0 0.0960 0.10180 0.0 985.50 200.0 39.0 500.0 196.0 39.0 37.50 882798.50 1.50 255.0 826759626.401160 0.0 0.0 0.0 0.0 0.0 0.0 0.0 -3.27680 -3.27680 -3.27680 -3.27680 -3.27680 -3.27680
80 2.439450 0.0 80.450 0.0 0.0960 0.1020 0.0 987.0 200.0 49.49020 505.0 196.0 49.49020 55.0 882813.50 2.0 255.0 826787687.143030 0.0 0.0 0.0 0.0 0.0 0.0 0.0 -3.27680 -3.27680 -3.27680 -3.27680 -3.27680 -3.27680
81 2.439450 0.0 81.450 0.0 0.0960 0.10180 0.0 986.0 200.0 37.0 500.0 196.0 37.0 59.50 882828.50 2.50 255.0 826815748.331450 0.0 0.0 0.0 0.0 0.0 0.0 0.0 -3.27680 -3.27680 -3.27680 -3.27680 -3.27680 -3.27680
82 2.439450 0.0 82.450 0.0 0.0960 0.10180 0.0 987.50 200.0 44.0 500.0 196.0 44.0 48.0 882844.50 2.0 255.0 826845680.793460 0.0 0.0 0.0 0.0 0.0 0.0 0.0 -3.27680 -3.27680 -3.27680 -3.27680 -3.27680 -3.27680
83 2.439450 0.0 83.450 0.0 0.0960 0.10180 0.0 986.0 200.0 40.0 500.0 196.0 40.0 81.50 882859.50 1.50 255.0 826873742.970240 0.0 0.0 0.0 0.0 0.0 0.0 0.0 -3.27680 -3.27680 -3.27680 -3.27680 -3.27680 -3.27680
84 2.439450 0.0 84.450 0.0 0.0960 0.1020 0.0 987.0 200.0 38.0 500.0 196.0 38.0 54.0 882864.0 2.0 255.0 826882161.712480 0.0 0.0 0.0 0.0 0.0 0.0 0.0 -3.27680 -3.27680 -3.27680 -3.27680 -3.27680 -3.27680
85 2.439450 0.0 85.450 0.0 0.0960 0.1020 0.0 986.50 200.0 32.666670 505.0 196.0 32.666670 27.0 882855.0 2.0 255.0 826865324.275620 0.0 0.0 0.0 0.0 0.0 0.0 0.0 -3.27680 -3.27680 -3.27680 -3.27680 -3.27680 -3.27680
86 2.439450 0.0 86.450 0.0 0.0960 0.1020 0.0 987.0 200.0 39.0 500.0 196.0 39.0 96.0 882833.50 2.50 255.0 826825102.170270 0.0 0.0 0.0 0.0 0.0 0.0 0.0 -3.27680 -3.27680 -3.27680 -3.27680 -3.27680 -3.27680
87 2.439450 0.0 87.450 0.0 0.0960 0.10180 0.0 985.0 200.0 32.0 500.0 196.0 32.0 108.50 882811.50 2.50 255.0 826783945.713320 0.0 0.0 0.0 0.0 0.0 0.0 0.0 -3.27680 -3.27680 -3.27680 -3.27680 -3.27680 -3.27680
88 2.439450 0.0 88.450 0.0 0.0960 0.10180 0.0 987.0 200.0 41.0 500.0 196.0 41.0 55.0 882788.0 1.50 255.0 826739984.192020 0.0 0.0 0.0 0.0 0.0 0.0 0.0 -3.27680 -3.27680 -3.27680 -3.27680 -3.27680 -3.27680
89 2.439450 0.0 89.450 0.0 0.0960 0.1020 0.0 986.50 200.0 50.0 500.0 196.0 50.0 51.50 882770.50 2.0 255.0 826707247.659310 0.0 0.0 0.0 0.0 0.0 0.0 0.0 -3.27680 -3.27680 -3.27680 -3.27680 -3.27680 -3.27680
90 2.439450 0.0 90.450 0.0 0.0960 0.10180 0.0 987.0 200.0 38.0 500.0 196.0 38.0 76.50 882759.0 2.50 255.0 826685735.433730 0.0 0.0 0.0 0.0 0.0 0.0 0.0 -3.27680 -3.27680 -3.27680 -3.27680 -3.27680 -3.27680
91 2.439450 0.0 91.450 0.0 0.0960 0.10180 0.0 987.0 200.0 37.686270 505.0 196.0 37.686270 31.0 882743.50 1.50 255.0 826656741.189990 0.0 0.0 0.0 0.0 0.0 0.0 0.0 -3.27680 -3.27680 -3.27680 -3.27680 -3.27680 -3.27680
92 2.439450 0.0 92.450 0.0 0.0960 0.1020 0.0 987.0 200.0 30.0 500.0 196.0 30.0 10.0 882724.0 1.50 255.0 826620265.213820 0.0 0.0 0.0 0.0 0.0 0.0 0.0 -3.27680 -3.27680 -3.27680 -3.27680 -3.27680 -3.27680
93 2.439450 0.0 93.450 0.0 0.0960 0.1020 0.0 986.50 200.0 34.0 500.0 196.0 34.0 69.0 882706.50 1.50 255.0 826587531.045130 0.0 0.0 0.0 0.0 0.0 0.0 0.0 -3.27680 -3.27680 -3.27680 -3.27680 -3.27680 -3.27680
94 2.439450 0.0 94.450 0.0 0.0960 0.1020 0.0 987.0 200.0 32.0 500.0 196.0 32.0 69.50 882695.0 2.0 255.0 826566020.396260 0.0 0.0 0.0 0.0 0.0 0.0 0.0 -3.27680 -3.27680 -3.27680 -3.27680 -3.27680 -3.27680
95 2.439450 0.0 95.450 0.0 0.0960 0.1020 0.0 986.50 200.0 34.0 500.0 196.0 34.0 65.0 882683.0 2.50 255.0 826543574.789430 0.0 0.0 0.0 0.0 0.0 0.0 0.0 -3.27680 -3.27680 -3.27680 -3.27680 -3.27680 -3.27680
96 2.439450 0.0 96.450 0.0 0.0960 0.1020 0.0 987.0 200.0 29.0 500.0 196.0 29.0 110.50 882669.50 2.0 255.0 826518323.831490 0.0 0.0 0.0 0.0 0.0 0.0 0.0 -3.27680 -3.27680 -3.27680 -3.27680 -3.27680 -3.27680
97 2.439450 0.0 97.450 0.0 0.0960 0.10180 0.0 987.0 200.0 36.686270 505.0 196.0 36.686270 93.0 882660.0 2.0 255.0 826500554.882170 0.0 0.0 0.0 0.0 0.0 0.0 0.0 -3.27680 -3.27680 -3.27680 -3.27680 -3.27680 -3.27680
98 2.439450 0.0 98.450 0.0 0.0960 0.10180 0.0 986.50 200.0 44.0 500.0 196.0 44.0 45.50 882646.50 1.50 255.0 826475304.613110 0.0 0.0 0.0 0.0 0.0 0.0 0.0 -3.27680 -3.27680 -3.27680 -3.27680 -3.27680 -3.27680
99 2.439450 0.0 99.450 0.0 0.0960 0.10180 0.0 986.50 200.0 35.0 500.0 196.0 35.0 79.0 882636.0 2.50 255.0 826455665.763750 0.0 0.0 0.0 0.0 0.0 0.0 0.0 -3.27680 -3.27680 -3.27680 -3.27680 -3.27680 -3.27680
100 2.439450 0.0 100.450 0.0 0.0960 0.1020 0.0 986.50 200.0 20.0 500.0 196.0 20.0 58.50 882627.50 1.50 255.0 826439767.807590 0.0 0.0 0.0 0.0 0.0 0.0 0.0 -3.27680 -3.27680 -3.27680 -3.27680 -3.27680 -3.27680
101 2.439450 0.0 101.450 0.0 0.0960 0.1020 0.0 987.0 200.0 46.0 500.0 196.0 46.0 60.0 882616.0 1.50 255.0 826418259.095220 0.0 0.0 0.0 0.0 0.0 0.0 0.0 -3.27680 -3.27680 -3.27680 -3.27680 -3.27680 -3.27680
102 2.439450 0.0 102.450 0.0 0.0960 0.1020 0.0 986.50 200.0 36.568630 505.0 196.0 36.568630 60.0 882611.0 1.50 255.0 826408907.531530 0.0 0.0 0.0 0.0 0.0 0.0 0.0 -3.27680 -3.27680 -3.27680 -3.27680 -3.27680 -3.27680
103 2.439450 0.0 103.450 0.0 0.0960 0.1020 0.0 985.50 200.0 43.0 500.0 196.0 43.0 64.50 882608.0 2.0 255.0 826403296.635650 0.0 0.0 0.0 0.0 0.0 0.0 0.0 -3.27680 -3.27680 -3.27680 -3.27680 -3.27680 -3.27680
104 2.439450 0.0 104.450 0.0 0.0960 0.1020 0.0 986.50 200.0 33.0 500.0 196.0 33.0 33.0 882612.0 2.50 255.0 826410777.838980 0.0 0.0 0.0 0.0 0.0 0.0 0.0 -3.27680 -3.27680 -3.27680 -3.27680 -3.27680 -3.27680
105 2.439450 0.0 105.450 0.0 0.0960 0.1020 0.0 987.0 200.0 34.0 500.0 196.0 34.0 75.50 882617.50 2.0 255.0 826421064.540520 0.0 0.0 0.0 0.0 0.0 0.0 0.0 -3.27680 -3.27680 -3.27680 -3.27680 -3.27680 -3.27680
106 2.439450 0.0 106.450 0.0 0.0960 0.1020 0.0 987.0 200.0 37.0 500.0 196.0 37.0 32.50 882621.0 1.50 255.0 826427610.659970 0.0 0.0 0.0 0.0 0.0 0.0 0.0 -3.27680 -3.27680 -3.27680 -3.27680 -3.27680 -3.27680
107 2.439450 0.0 107.450 0.0 0.0960 0.1020 0.0 987.50 200.0 27.0 500.0 196.0 27.0 36.50 882627.0 2.0 255.0 826438832.646460 0.0 0.0 0.0 0.0 0.0 0.0 0.0 -3.27680 -3.27680 -3.27680 -3.27680 -3.27680 -3.27680
108 2.439450 0.0 108.450 0.0 0.0960 0.1020 0.0 986.0 200.0 37.666670 505.0 196.0 37.666670 87.0 882634.50 2.0 255.0 826452860.216860 0.0 0.0 0.0 0.0 0.0 0.0 0.0 -3.27680 -3.27680 -3.27680 -3.27680 -3.27680 -3.27680
109 2.439450 0.0 109.450 0.0 0.0960 0.1020 0.0 987.0 200.0 43.0 500.0 196.0 43.0 85.0 882627.50 2.0 255.0 826439767.811820 0.0 0.0 0.0 0.0 0.0 0.0 0.0 -3.27680 -3.27680 -3.27680 -3.27680 -3.27680 -3.27680
110 2.439450 0.0 110.450 0.0 0.0960 0.1020 0.0 987.0 200.0 39.0 500.0 196.0 39.0 86.0 882615.50 1.50 255.0 826417323.915050 0.0 0.0 0.0 0.0 0.0 0.0 0.0 -3.27680 -3.27680 -3.27680 -3.27680 -3.27680 -3.27680
111 2.439450 0.0 111.450 0.0 0.0960 0.10180 0.0 987.50 200.0 40.0 500.0 196.0 40.0 45.50 882605.0 2.0 255.0 826397685.766210 0.0 0.0 0.0 0.0 0.0 0.0 0.0 -3.27680 -3.27680 -3.27680 -3.27680 -3.27680 -3.27680
112 2.439450 0.0 112.450 0.0 0.0960 0.1020 0.0 986.0 200.0 38.0 500.0 196.0 38.0 68.50 882592.0 2.50 255.0 826373372.18950 0.0 0.0 0.0 0.0 0.0 0.0 0.0 -3.27680 -3.27680 -3.27680 -3.27680 -3.27680 -3.27680
113 2.439450 0.0 113.450 0.0 0.0960 0.10180 0.0 987.0 200.0 27.0 500.0 196.0 27.0 78.0 882574.0 2.50 255.0 826339707.838520 0.0 0.0 0.0 0.0 0.0 0.0 0.0 -3.27680 -3.27680 -3.27680 -3.27680 -3.27680 -3.27680
114 2.439450 0.0 114.450 0.0 0.0960 0.1020 0.0 987.0 200.0 27.705880 505.0 196.0 27.705880 102.50 882551.50 2.0 255.0 826297628.331530 0.0 0.0 0.0 0.0 0.0 0.0 0.0 -3.27680 -3.27680 -3.27680 -3.27680 -3.27680 -3.27680
115 2.439450 0.0 115.450 0.0 0.0960 0.10180 0.0 987.0 200.0 36.0 500.0 196.0 36.0 86.0 882539.0 1.50 255.0 826274251.263040 0.0 0.0 0.0 0.0 0.0 0.0 0.0 -3.27680 -3.27680 -3.27680 -3.27680 -3.27680 -3.27680
116 2.439450 0.0 116.450 0.0 0.0960 0.1020 0.0 985.0 200.0 27.0 500.0 196.0 27.0 48.0 882536.50 2.0 255.0 826269575.896540 0.0 0.0 0.0 0.0 0.0 0.0 0.0 -3.27680 -3.27680 -3.27680 -3.27680 -3.27680 -3.27680
