~VERSION INFORMATION SECTION
VERS. 2.0 : CWLS LAS-VERSION 2.0
WRAP. NO : One line per depth step
~WELL INFORMATION SECTION
# MNEM.UNIT VALUE/NAME DESCRIPTION
#-------- -------------- ---------------------
STRT.Seconds 0 : Start
STOP.Seconds 565 : Stop
STEP.Seconds 1 : Step
NULL.  -999.25 :NULL VALUE
DATE. 2026-24-09 : DATE
~CURVE INFORMATION SECTION
DEPTH.Seconds : 0 Depth
Depth. : 1 Depth
Tension. : 2 Tension
Time. : 3 Time
Speed. : 4 Speed
Voltage. : 5 Voltage
Current. : 6 Current
WET. : 7 WET
Sig. : 8 Sig
Vth. : 9 Vth
GR.CPS : 10 GR
Timebase.ms : 11 Timebase
HeadVoltage.V : 12 Head Voltage
API.API : 13 API
Conductivity.uS : 14 Conductivity
PT100.Ohms : 15 PT100
Vmon.mV : 16 Vmon
Status. : 17 Status
Temperature.C : 18 Temperature
Incline.Deg : 19 Incline
Azimuth.Deg : 20 Azimuth
RelativeBearing.Deg : 21 Relative Bearing
MagneticToolFace.Deg : 22 Magnetic Tool Face
GravityMagnitude.G : 23 Gravity Magnitude
MagnetometerMagnitude.H : 24 Magnetometer Magnitude
Temperature.C : 25 Temperature
GX. : 26 GX
GY. : 27 GY
GZ. : 28 GZ
HX. : 29 HX
HY. : 30 HY
HZ. : 31 HZ
~PARAMETER INFORMATION SECTION
~OTHER
#-------------------------------------------------
#Produced By: GeoVista Logger - Version 7.1.107.0
Verticality Sonde - 9605
Temperature and Conductivity Sonde - Inline - 8974
Natural Gamma Sonde - 9931
WLIS - 10021
#-------------------------------------------------
~ASCII LOG DATA
# ...
234 2.439450 0.0 234.450 0.0 0.0960 0.10180 0.0 988.0 200.0 41.0 500.0 196.0 41.0 50.50 883054.50 1.50 255.0 827238594.709650 0.0 0.0 0.0 0.0 0.0 0.0 0.0 -3.27680 -3.27680 -3.27680 -3.27680 -3.27680 -3.27680
235 2.439450 0.0 235.450 0.0 0.0960 0.10140 0.0 987.50 200.0 28.0 500.0 196.0 28.0 76.0 883032.50 1.50 255.0 827197427.914080 0.0 0.0 0.0 0.0 0.0 0.0 0.0 -3.27680 -3.27680 -3.27680 -3.27680 -3.27680 -3.27680
236 2.439450 0.0 236.450 0.0 0.0960 0.10180 0.0 987.50 200.0 40.0 500.0 196.0 40.0 70.0 883018.50 2.0 255.0 827171231.402420 0.0 0.0 0.0 0.0 0.0 0.0 0.0 -3.27680 -3.27680 -3.27680 -3.27680 -3.27680 -3.27680
237 2.439450 0.0 237.450 0.0 0.0960 0.10180 0.0 988.0 200.0 33.0 500.0 196.0 33.0 41.0 883005.0 3.0 255.0 827145970.861410 0.0 0.0 0.0 0.0 0.0 0.0 0.0 -3.27680 -3.27680 -3.27680 -3.27680 -3.27680 -3.27680
238 2.439450 0.0 238.450 0.0 0.0960 0.10180 0.0 987.50 200.0 35.666670 505.0 196.0 35.666670 23.50 882994.50 1.50 255.0 827126324.046980 0.0 0.0 0.0 0.0 0.0 0.0 0.0 -3.27680 -3.27680 -3.27680 -3.27680 -3.27680 -3.27680
239 2.439450 0.0 239.450 0.0 0.0960 0.1020 0.0 988.0 200.0 28.0 500.0 196.0 28.0 65.0 882989.0 1.50 255.0 827116032.950730 0.0 0.0 0.0 0.0 0.0 0.0 0.0 -3.27680 -3.27680 -3.27680 -3.27680 -3.27680 -3.27680
240 2.439450 0.0 240.450 0.0 0.0960 0.10180 0.0 987.0 200.0 43.0 500.0 196.0 43.0 39.50 882985.0 1.50 255.0 827108548.554810 0.0 0.0 0.0 0.0 0.0 0.0 0.0 -3.27680 -3.27680 -3.27680 -3.27680 -3.27680 -3.27680
241 2.439450 0.0 241.450 0.0 0.0960 0.10180 0.0 987.50 200.0 35.0 500.0 196.0 35.0 62.50 882987.50 2.50 255.0 827113226.295910 0.0 0.0 0.0 0.0 0.0 0.0 0.0 -3.27680 -3.27680 -3.27680 -3.27680 -3.27680 -3.27680
242 2.439450 0.0 242.450 0.0 0.0960 0.10160 0.0 988.0 200.0 46.0 500.0 196.0 46.0 76.0 882992.50 2.0 255.0 827122581.817270 0.0 0.0 0.0 0.0 0.0 0.0 0.0 -3.27680 -3.27680 -3.27680 -3.27680 -3.27680 -3.27680
243 2.439450 0.0 243.450 0.0 0.0960 0.10180 0.0 988.0 200.0 35.0 500.0 196.0 35.0 35.50 883000.50 2.0 255.0 827137550.77420 0.0 0.0 0.0 0.0 0.0 0.0 0.0 -3.27680 -3.27680 -3.27680 -3.27680 -3.27680 -3.27680
244 2.439450 0.0 244.450 0.0 0.0960 0.1020 0.0 987.0 200.0 33.568630 505.0 196.0 33.568630 87.0 883008.0 1.50 255.0 827151584.27370 0.0 0.0 0.0 0.0 0.0 0.0 0.0 -3.27680 -3.27680 -3.27680 -3.27680 -3.27680 -3.27680
245 2.439450 0.0 245.450 0.0 0.0960 0.10180 0.0 987.50 200.0 33.0 500.0 196.0 33.0 43.50 883016.50 2.0 255.0 827167489.056310 0.0 0.0 0.0 0.0 0.0 0.0 0.0 -3.27680 -3.27680 -3.27680 -3.27680 -3.27680 -3.27680
246 2.439450 0.0 246.450 0.0 0.0960 0.1020 0.0 988.0 200.0 21.0 500.0 196.0 21.0 56.50 883023.0 2.50 255.0 827179651.652590 0.0 0.0 0.0 0.0 0.0 0.0 0.0 -3.27680 -3.27680 -3.27680 -3.27680 -3.27680 -3.27680
247 2.439450 0.0 247.450 0.0 0.0960 0.1020 0.0 988.0 200.0 30.0 500.0 196.0 30.0 73.0 883032.0 2.0 255.0 827196492.296860 0.0 0.0 0.0 0.0 0.0 0.0 0.0 -3.27680 -3.27680 -3.27680 -3.27680 -3.27680 -3.27680
248 2.439450 0.0 248.450 0.0 0.0960 0.10180 0.0 988.50 200.0 31.0 500.0 196.0 31.0 102.0 883042.0 1.50 255.0 827215204.359690 0.0 0.0 0.0 0.0 0.0 0.0 0.0 -3.27680 -3.27680 -3.27680 -3.27680 -3.27680 -3.27680
249 2.439450 0.0 249.450 0.0 0.0960 0.1020 0.0 987.50 200.0 43.0 500.0 196.50 43.0 60.0 883053.50 1.50 255.0 827236723.444530 0.0 0.0 0.0 0.0 0.0 0.0 0.0 -3.27680 -3.27680 -3.27680 -3.27680 -3.27680 -3.27680
250 2.439450 0.0 250.450 0.0 0.0960 0.10180 0.0 988.0 200.0 29.705880 505.0 196.0 29.705880 75.50 883064.50 2.0 255.0 827257307.197870 0.0 0.0 0.0 0.0 0.0 0.0 0.0 -3.27680 -3.27680 -3.27680 -3.27680 -3.27680 -3.27680
251 2.439450 0.0 251.450 0.0 0.0960 0.10160 0.0 988.0 200.0 33.0 500.0 196.0 33.0 43.50 883069.0 2.0 255.0 827265727.891430 0.0 0.0 0.0 0.0 0.0 0.0 0.0 -3.27680 -3.27680 -3.27680 -3.27680 -3.27680 -3.27680
252 2.439450 0.0 252.450 0.0 0.0960 0.1020 0.0 988.50 200.0 33.0 500.0 196.0 33.0 59.50 883067.0 1.50 255.0 827261985.352730 0.0 0.0 0.0 0.0 0.0 0.0 0.0 -3.27680 -3.27680 -3.27680 -3.27680 -3.27680 -3.27680
253 2.439450 0.0 253.450 0.0 0.0960 0.1020 0.0 986.50 200.0 38.0 500.0 196.0 38.0 61.50 883066.50 2.0 255.0 827261049.721750 0.0 0.0 0.0 0.0 0.0 0.0 0.0 -3.27680 -3.27680 -3.27680 -3.27680 -3.27680 -3.27680
254 2.439450 0.0 254.450 0.0 0.0960 0.1020 0.0 988.0 200.0 39.0 500.0 196.0 39.0 73.0 883068.0 2.0 255.0 827263856.621020 0.0 0.0 0.0 0.0 0.0 0.0 0.0 -3.27680 -3.27680 -3.27680 -3.27680 -3.27680 -3.27680
255 2.439450 0.0 255.450 0.0 0.0960 0.1020 0.0 988.0 200.0 18.803920 505.0 196.0 18.803920 79.0 883076.0 2.0 255.0 827278826.847790 0.0 0.0 0.0 0.0 0.0 0.0 0.0 -3.27680 -3.27680 -3.27680 -3.27680 -3.27680 -3.27680
256 2.439450 0.0 256.450 0.0 0.0960 0.1020 0.0 988.50 200.0 29.0 500.0 196.0 29.0 64.50 883086.0 2.0 255.0 827297539.821720 0.0 0.0 0.0 0.0 0.0 0.0 0.0 -3.27680 -3.27680 -3.27680 -3.27680 -3.27680 -3.27680
257 2.439450 0.0 257.450 0.0 0.0960 0.1020 0.0 986.50 200.0 40.0 500.0 196.0 40.0 26.50 883102.50 2.0 255.0 827328416.679770 0.0 0.0 0.0 0.0 0.0 0.0 0.0 -3.27680 -3.27680 -3.27680 -3.27680 -3.27680 -3.27680
258 2.439450 0.0 258.450 0.0 0.0960 0.1020 0.0 988.0 200.0 36.0 500.0 196.0 36.0 28.0 883118.50 2.0 255.0 827358358.453940 0.0 0.0 0.0 0.0 0.0 0.0 0.0 -3.27680 -3.27680 -3.27680 -3.27680 -3.27680 -3.27680
259 2.439450 0.0 259.450 0.0 0.0960 0.10160 0.0 988.0 200.0 39.0 500.0 196.0 39.0 32.50 883131.0 2.50 255.0 827381750.807070 0.0 0.0 0.0 0.0 0.0 0.0 0.0 -3.27680 -3.27680 -3.27680 -3.27680 -3.27680 -3.27680
260 2.439450 0.0 260.450 0.0 0.0960 0.1020 0.0 988.0 200.0 45.0 500.0 196.0 45.0 69.0 883149.0 2.0 255.0 827415436.398250 0.0 0.0 0.0 0.0 0.0 0.0 0.0 -3.27680 -3.27680 -3.27680 -3.27680 -3.27680 -3.27680
261 2.439450 0.0 261.450 0.0 0.0960 0.1020 0.0 987.0 200.0 24.764710 505.0 196.0 24.764710 70.50 883161.0 2.0 255.0 827437893.839980 0.0 0.0 0.0 0.0 0.0 0.0 0.0 -3.27680 -3.27680 -3.27680 -3.27680 -3.27680 -3.27680
262 2.439450 0.0 262.450 0.0 0.0960 0.10180 0.0 988.0 200.0 42.0 500.0 196.0 42.0 99.0 883177.0 1.50 255.0 827467837.56230 0.0 0.0 0.0 0.0 0.0 0.0 0.0 -3.27680 -3.27680 -3.27680 -3.27680 -3.27680 -3.27680
263 2.439450 0.0 263.450 0.0 0.0960 0.1020 0.0 988.0 200.0 28.0 500.0 196.0 28.0 29.50 883187.50 2.0 255.0 827487488.441280 0.0 0.0 0.0 0.0 0.0 0.0 0.0 -3.27680 -3.27680 -3.27680 -3.27680 -3.27680 -3.27680
264 2.439450 0.0 264.450 0.0 0.0960 0.10180 0.0 988.0 200.0 36.0 500.0 196.0 36.0 80.50 883197.50 2.0 255.0 827506203.754890 0.0 0.0 0.0 0.0 0.0 0.0 0.0 -3.27680 -3.27680 -3.27680 -3.27680 -3.27680 -3.27680
265 2.439450 0.0 265.450 0.0 0.0960 0.1020 0.0 988.0 200.0 36.0 500.0 196.0 36.0 61.50 883209.0 1.50 255.0 827527726.641850 0.0 0.0 0.0 0.0 0.0 0.0 0.0 -3.27680 -3.27680 -3.27680 -3.27680 -3.27680 -3.27680
266 2.439450 0.0 266.450 0.0 0.0960 0.10180 0.0 988.0 200.0 38.0 500.0 196.50 38.0 82.50 883213.50 1.50 255.0 827536148.716360 0.0 0.0 0.0 0.0 0.0 0.0 0.0 -3.27680 -3.27680 -3.27680 -3.27680 -3.27680 -3.27680
267 2.439450 0.0 267.450 0.0 0.0960 0.10180 0.0 988.0 200.0 30.705880 505.0 196.0 30.705880 25.0 883212.0 2.0 255.0 827533341.351490 0.0 0.0 0.0 0.0 0.0 0.0 0.0 -3.27680 -3.27680 -3.27680 -3.27680 -3.27680 -3.27680
268 2.439450 0.0 268.450 0.0 0.0960 0.10180 0.0 988.0 200.0 30.0 500.0 196.0 30.0 50.0 883209.0 2.50 255.0 827527726.638670 0.0 0.0 0.0 0.0 0.0 0.0 0.0 -3.27680 -3.27680 -3.27680 -3.27680 -3.27680 -3.27680
269 2.439450 0.0 269.450 0.0 0.0960 0.1020 0.0 987.50 200.0 45.0 500.0 196.0 45.0 63.50 883189.0 2.0 255.0 827490295.743720 0.0 0.0 0.0 0.0 0.0 0.0 0.0 -3.27680 -3.27680 -3.27680 -3.27680 -3.27680 -3.27680
270 2.439450 0.0 270.450 0.0 0.0960 0.10180 0.0 987.50 200.0 26.0 500.0 196.0 26.0 48.50 883174.50 1.50 255.0 827463158.81590 0.0 0.0 0.0 0.0 0.0 0.0 0.0 -3.27680 -3.27680 -3.27680 -3.27680 -3.27680 -3.27680
271 2.439450 0.0 271.450 0.0 0.0960 0.10180 0.0 988.0 200.0 34.0 500.0 196.0 34.0 84.0 883165.50 2.50 255.0 827446315.444660 0.0 0.0 0.0 0.0 0.0 0.0 0.0 -3.27680 -3.27680 -3.27680 -3.27680 -3.27680 -3.27680
272 2.439450 0.0 272.450 0.0 0.0960 0.1020 0.0 988.0 200.0 41.607840 505.0 196.0 41.607840 80.0 883161.0 2.0 255.0 827437893.824110 0.0 0.0 0.0 0.0 0.0 0.0 0.0 -3.27680 -3.27680 -3.27680 -3.27680 -3.27680 -3.27680
