~VERSION INFORMATION SECTION
VERS. 2.0 : CWLS LAS-VERSION 2.0
WRAP. NO : One line per depth step
~WELL INFORMATION SECTION
# MNEM.UNIT VALUE/NAME DESCRIPTION
#-------- -------------- ---------------------
STRT.Seconds 0 : Start
STOP.Seconds 565 : Stop
STEP.Seconds 1 : Step
NULL.  -999.25 :NULL VALUE
DATE. 2026-24-09 : DATE
~CURVE INFORMATION SECTION
DEPTH.Seconds : 0 Depth
Depth. : 1 Depth
Tension. : 2 Tension
Time. : 3 Time
Speed. : 4 Speed
Voltage. : 5 Voltage
Current. : 6 Current
WET. : 7 WET
Sig. : 8 Sig
Vth. : 9 Vth
GR.CPS : 10 GR
Timebase.ms : 11 Timebase
HeadVoltage.V : 12 Head Voltage
API.API : 13 API
Conductivity.uS : 14 Conductivity
PT100.Ohms : 15 PT100
Vmon.mV : 16 Vmon
Status. : 17 Status
Temperature.C : 18 Temperature
Incline.Deg : 19 Incline
Azimuth.Deg : 20 Azimuth
RelativeBearing.Deg : 21 Relative Bearing
MagneticToolFace.Deg : 22 Magnetic Tool Face
GravityMagnitude.G : 23 Gravity Magnitude
MagnetometerMagnitude.H : 24 Magnetometer Magnitude
Temperature.C : 25 Temperature
GX. : 26 GX
GY. : 27 GY
GZ. : 28 GZ
HX. : 29 HX
HY. : 30 HY
HZ. : 31 HZ
~PARAMETER INFORMATION SECTION
~OTHER
#-------------------------------------------------
#Produced By: GeoVista Logger - Version 7.1.107.0
Verticality Sonde - 9605
Temperature and Conductivity Sonde - Inline - 8974
Natural Gamma Sonde - 9931
WLIS - 10021
#-------------------------------------------------
~ASCII LOG DATA
# ...
156 2.439450 0.0 156.450 0.0 0.0960 0.1020 0.0 987.0 200.0 36.0 500.0 196.0 36.0 54.0 882920.0 1.50 255.0 826986931.940090 0.0 0.0 0.0 0.0 0.0 0.0 0.0 -3.27680 -3.27680 -3.27680 -3.27680 -3.27680 -3.27680
157 2.439450 0.0 157.450 0.0 0.0960 0.10180 0.0 986.50 200.0 28.0 500.0 196.0 28.0 45.0 882925.0 2.0 255.0 826996286.743990 0.0 0.0 0.0 0.0 0.0 0.0 0.0 -3.27680 -3.27680 -3.27680 -3.27680 -3.27680 -3.27680
158 2.439450 0.0 158.450 0.0 0.0960 0.1020 0.0 986.50 200.0 31.0 500.0 196.0 31.0 39.50 882933.50 1.50 255.0 827012190.049350 0.0 0.0 0.0 0.0 0.0 0.0 0.0 -3.27680 -3.27680 -3.27680 -3.27680 -3.27680 -3.27680
159 2.439450 0.0 159.450 0.0 0.0960 0.10220 0.0 987.50 200.0 25.725490 505.0 196.0 25.725490 56.50 882943.0 1.50 255.0 827029964.503430 0.0 0.0 0.0 0.0 0.0 0.0 0.0 -3.27680 -3.27680 -3.27680 -3.27680 -3.27680 -3.27680
160 2.439450 0.0 160.450 0.0 0.0960 0.1020 0.0 987.0 200.0 43.0 500.0 196.0 43.0 93.0 882954.50 1.50 255.0 827051481.194620 0.0 0.0 0.0 0.0 0.0 0.0 0.0 -3.27680 -3.27680 -3.27680 -3.27680 -3.27680 -3.27680
161 2.439450 0.0 161.450 0.0 0.0960 0.1020 0.0 987.0 200.0 48.0 500.0 196.0 48.0 77.50 882967.50 2.0 255.0 827075804.752270 0.0 0.0 0.0 0.0 0.0 0.0 0.0 -3.27680 -3.27680 -3.27680 -3.27680 -3.27680 -3.27680
162 2.439450 0.0 162.450 0.0 0.0960 0.1020 0.0 986.50 200.0 38.0 500.0 196.0 38.0 42.50 882972.50 2.50 255.0 827085160.049290 0.0 0.0 0.0 0.0 0.0 0.0 0.0 -3.27680 -3.27680 -3.27680 -3.27680 -3.27680 -3.27680
163 2.439450 0.0 163.450 0.0 0.0960 0.1020 0.0 988.0 200.0 46.0 500.0 196.0 46.0 73.50 882972.0 1.50 255.0 827084224.519910 0.0 0.0 0.0 0.0 0.0 0.0 0.0 -3.27680 -3.27680 -3.27680 -3.27680 -3.27680 -3.27680
164 2.439450 0.0 164.450 0.0 0.0960 0.10180 0.0 987.0 200.0 34.647060 505.0 196.0 34.647060 23.0 882966.0 1.50 255.0 827072998.160940 0.0 0.0 0.0 0.0 0.0 0.0 0.0 -3.27680 -3.27680 -3.27680 -3.27680 -3.27680 -3.27680
165 2.439450 0.0 165.450 0.0 0.0960 0.10220 0.0 988.0 200.0 24.0 500.0 196.0 24.0 45.50 882953.0 1.50 255.0 827048674.657260 0.0 0.0 0.0 0.0 0.0 0.0 0.0 -3.27680 -3.27680 -3.27680 -3.27680 -3.27680 -3.27680
166 2.439450 0.0 166.450 0.0 0.0960 0.1020 0.0 986.50 200.0 28.0 500.0 196.0 28.0 98.0 882940.50 3.0 255.0 827025286.983490 0.0 0.0 0.0 0.0 0.0 0.0 0.0 -3.27680 -3.27680 -3.27680 -3.27680 -3.27680 -3.27680
167 2.439450 0.0 167.450 0.0 0.0960 0.10180 0.0 988.0 200.0 40.0 500.0 196.0 40.0 63.50 882935.50 2.0 255.0 827015932.016620 0.0 0.0 0.0 0.0 0.0 0.0 0.0 -3.27680 -3.27680 -3.27680 -3.27680 -3.27680 -3.27680
168 2.439450 0.0 168.450 0.0 0.0960 0.1020 0.0 987.0 200.0 34.0 500.0 196.0 34.0 49.50 882935.50 1.50 255.0 827015932.010270 0.0 0.0 0.0 0.0 0.0 0.0 0.0 -3.27680 -3.27680 -3.27680 -3.27680 -3.27680 -3.27680
169 2.439450 0.0 169.450 0.0 0.0960 0.1020 0.0 988.0 200.0 35.0 500.0 196.0 35.0 57.50 882938.0 1.50 255.0 827020609.493180 0.0 0.0 0.0 0.0 0.0 0.0 0.0 -3.27680 -3.27680 -3.27680 -3.27680 -3.27680 -3.27680
170 2.439450 0.0 170.450 0.0 0.0960 0.1020 0.0 986.0 200.0 30.803920 505.0 196.0 30.803920 74.0 882944.50 2.50 255.0 827032770.998460 0.0 0.0 0.0 0.0 0.0 0.0 0.0 -3.27680 -3.27680 -3.27680 -3.27680 -3.27680 -3.27680
171 2.439450 0.0 171.450 0.0 0.0960 0.1020 0.0 988.0 200.0 38.0 500.0 196.0 38.0 25.50 882947.0 2.0 255.0 827037448.526860 0.0 0.0 0.0 0.0 0.0 0.0 0.0 -3.27680 -3.27680 -3.27680 -3.27680 -3.27680 -3.27680
172 2.439450 0.0 172.450 0.0 0.0960 0.1020 0.0 987.0 200.0 35.0 500.0 196.0 35.0 83.50 882952.0 2.0 255.0 827046803.615420 0.0 0.0 0.0 0.0 0.0 0.0 0.0 -3.27680 -3.27680 -3.27680 -3.27680 -3.27680 -3.27680
173 2.439450 0.0 173.450 0.0 0.0960 0.1020 0.0 987.50 200.0 30.0 500.0 196.0 30.0 59.50 882956.50 2.0 255.0 827055223.244430 0.0 0.0 0.0 0.0 0.0 0.0 0.0 -3.27680 -3.27680 -3.27680 -3.27680 -3.27680 -3.27680
174 2.439450 0.0 174.450 0.0 0.0960 0.1020 0.0 986.0 200.0 27.0 500.0 196.0 27.0 43.50 882960.0 2.0 255.0 827061771.874990 0.0 0.0 0.0 0.0 0.0 0.0 0.0 -3.27680 -3.27680 -3.27680 -3.27680 -3.27680 -3.27680
175 2.439450 0.0 175.450 0.0 0.0960 0.10220 0.0 987.50 200.0 32.0 500.0 196.0 32.0 59.50 882963.50 2.50 255.0 827068320.529890 0.0 0.0 0.0 0.0 0.0 0.0 0.0 -3.27680 -3.27680 -3.27680 -3.27680 -3.27680 -3.27680
176 2.439450 0.0 176.450 0.0 0.0960 0.1020 0.0 987.50 200.0 29.74510 505.0 196.0 29.74510 76.50 882965.0 2.0 255.0 827071127.104290 0.0 0.0 0.0 0.0 0.0 0.0 0.0 -3.27680 -3.27680 -3.27680 -3.27680 -3.27680 -3.27680
177 2.439450 0.0 177.450 0.0 0.0960 0.1020 0.0 987.50 200.0 37.0 500.0 196.0 37.0 38.0 882965.0 1.0 255.0 827071127.104290 0.0 0.0 0.0 0.0 0.0 0.0 0.0 -3.27680 -3.27680 -3.27680 -3.27680 -3.27680 -3.27680
178 2.439450 0.0 178.450 0.0 0.0960 0.1020 0.0 986.50 200.0 33.0 500.0 196.0 33.0 74.0 882969.50 2.0 255.0 827079546.857110 0.0 0.0 0.0 0.0 0.0 0.0 0.0 -3.27680 -3.27680 -3.27680 -3.27680 -3.27680 -3.27680
179 2.439450 0.0 179.450 0.0 0.0960 0.1020 0.0 987.50 200.0 34.0 500.0 196.0 34.0 79.50 882969.50 2.50 255.0 827079546.857110 0.0 0.0 0.0 0.0 0.0 0.0 0.0 -3.27680 -3.27680 -3.27680 -3.27680 -3.27680 -3.27680
180 2.439450 0.0 180.450 0.0 0.0960 0.10180 0.0 987.50 200.0 33.0 500.0 196.0 33.0 69.50 882975.0 2.0 255.0 827089837.740660 0.0 0.0 0.0 0.0 0.0 0.0 0.0 -3.27680 -3.27680 -3.27680 -3.27680 -3.27680 -3.27680
181 2.439450 0.0 181.450 0.0 0.0960 0.1020 0.0 987.50 200.0 29.705880 505.0 196.0 29.705880 38.0 882986.0 1.50 255.0 827110419.666490 0.0 0.0 0.0 0.0 0.0 0.0 0.0 -3.27680 -3.27680 -3.27680 -3.27680 -3.27680 -3.27680
182 2.439450 0.0 182.450 0.0 0.0960 0.1020 0.0 987.0 200.0 29.0 500.0 196.0 29.0 65.50 882998.0 1.50 255.0 827132872.968550 0.0 0.0 0.0 0.0 0.0 0.0 0.0 -3.27680 -3.27680 -3.27680 -3.27680 -3.27680 -3.27680
183 2.439450 0.0 183.450 0.0 0.0960 0.1020 0.0 987.50 200.0 26.0 500.0 196.0 26.0 79.0 883016.0 1.50 255.0 827166553.502580 0.0 0.0 0.0 0.0 0.0 0.0 0.0 -3.27680 -3.27680 -3.27680 -3.27680 -3.27680 -3.27680
184 2.439450 0.0 184.450 0.0 0.0960 0.10220 0.0 987.50 200.0 35.0 500.0 196.0 35.0 75.50 883030.50 2.50 255.0 827193685.529870 0.0 0.0 0.0 0.0 0.0 0.0 0.0 -3.27680 -3.27680 -3.27680 -3.27680 -3.27680 -3.27680
185 2.439450 0.0 185.450 0.0 0.0960 0.10220 0.0 987.50 200.0 33.0 500.0 196.0 33.0 16.0 883046.0 2.0 255.0 827222689.216990 0.0 0.0 0.0 0.0 0.0 0.0 0.0 -3.27680 -3.27680 -3.27680 -3.27680 -3.27680 -3.27680
186 2.439450 0.0 186.450 0.0 0.0960 0.1020 0.0 987.50 200.0 45.0 500.0 196.0 45.0 4.0 883054.50 1.50 255.0 827238594.680020 0.0 0.0 0.0 0.0 0.0 0.0 0.0 -3.27680 -3.27680 -3.27680 -3.27680 -3.27680 -3.27680
187 2.439450 0.0 187.450 0.0 0.0960 0.1020 0.0 986.50 200.0 26.803920 505.0 196.0 26.803920 74.50 883062.0 1.50 255.0 827252629.047240 0.0 0.0 0.0 0.0 0.0 0.0 0.0 -3.27680 -3.27680 -3.27680 -3.27680 -3.27680 -3.27680
188 2.439450 0.0 188.450 0.0 0.0960 0.1020 0.0 988.0 200.0 28.0 500.0 196.0 28.0 11.50 883071.50 2.50 255.0 827270406.076980 0.0 0.0 0.0 0.0 0.0 0.0 0.0 -3.27680 -3.27680 -3.27680 -3.27680 -3.27680 -3.27680
189 2.439450 0.0 189.450 0.0 0.0960 0.1020 0.0 987.0 200.0 40.0 500.0 196.0 40.0 38.0 883078.0 2.0 255.0 827282569.424580 0.0 0.0 0.0 0.0 0.0 0.0 0.0 -3.27680 -3.27680 -3.27680 -3.27680 -3.27680 -3.27680
190 2.439450 0.0 190.450 0.0 0.0960 0.1020 0.0 988.0 200.0 33.0 500.0 196.0 33.0 53.0 883089.0 1.50 255.0 827303153.748290 0.0 0.0 0.0 0.0 0.0 0.0 0.0 -3.27680 -3.27680 -3.27680 -3.27680 -3.27680 -3.27680
191 2.439450 0.0 191.450 0.0 0.0960 0.1020 0.0 986.50 200.0 33.0 500.0 196.0 33.0 85.50 883096.50 2.0 255.0 827317188.663670 0.0 0.0 0.0 0.0 0.0 0.0 0.0 -3.27680 -3.27680 -3.27680 -3.27680 -3.27680 -3.27680
192 2.439450 0.0 192.450 0.0 0.0960 0.1020 0.0 988.0 200.0 33.0 500.0 196.0 33.0 44.0 883099.50 2.0 255.0 827322802.655850 0.0 0.0 0.0 0.0 0.0 0.0 0.0 -3.27680 -3.27680 -3.27680 -3.27680 -3.27680 -3.27680
193 2.439450 0.0 193.450 0.0 0.0960 0.1020 0.0 987.0 200.0 29.686270 505.0 196.0 29.686270 4.50 883099.50 2.0 255.0 827322802.655850 0.0 0.0 0.0 0.0 0.0 0.0 0.0 -3.27680 -3.27680 -3.27680 -3.27680 -3.27680 -3.27680
194 2.439450 0.0 194.450 0.0 0.0960 0.1020 0.0 988.50 200.0 33.0 500.0 196.0 33.0 56.50 883099.0 2.0 255.0 827321866.992070 0.0 0.0 0.0 0.0 0.0 0.0 0.0 -3.27680 -3.27680 -3.27680 -3.27680 -3.27680 -3.27680
