~VERSION INFORMATION SECTION
VERS. 2.0 : CWLS LAS-VERSION 2.0
WRAP. NO : One line per depth step
~WELL INFORMATION SECTION
# MNEM.UNIT VALUE/NAME DESCRIPTION
#-------- -------------- ---------------------
STRT.Seconds 0 : Start
STOP.Seconds 565 : Stop
STEP.Seconds 1 : Step
NULL.  -999.25 :NULL VALUE
DATE. 2026-24-09 : DATE
~CURVE INFORMATION SECTION
DEPTH.Seconds : 0 Depth
Depth. : 1 Depth
Tension. : 2 Tension
Time. : 3 Time
Speed. : 4 Speed
Voltage. : 5 Voltage
Current. : 6 Current
WET. : 7 WET
Sig. : 8 Sig
Vth. : 9 Vth
GR.CPS : 10 GR
Timebase.ms : 11 Timebase
HeadVoltage.V : 12 Head Voltage
API.API : 13 API
Conductivity.uS : 14 Conductivity
PT100.Ohms : 15 PT100
Vmon.mV : 16 Vmon
Status. : 17 Status
Temperature.C : 18 Temperature
Incline.Deg : 19 Incline
Azimuth.Deg : 20 Azimuth
RelativeBearing.Deg : 21 Relative Bearing
MagneticToolFace.Deg : 22 Magnetic Tool Face
GravityMagnitude.G : 23 Gravity Magnitude
MagnetometerMagnitude.H : 24 Magnetometer Magnitude
Temperature.C : 25 Temperature
GX. : 26 GX
GY. : 27 GY
GZ. : 28 GZ
HX. : 29 HX
HY. : 30 HY
HZ. : 31 HZ
~PARAMETER INFORMATION SECTION
~OTHER
#-------------------------------------------------
#Produced By: GeoVista Logger - Version 7.1.107.0
Verticality Sonde - 9605
Temperature and Conductivity Sonde - Inline - 8974
Natural Gamma Sonde - 9931
WLIS - 10021
#-------------------------------------------------
~ASCII LOG DATA
# ...
507 2.439450 0.0 507.450 0.0 0.0960 0.1020 0.0 989.0 200.0 39.0 500.0 196.0 39.0 61.50 883141.0 2.0 255.0 827400464.927040 0.0 0.0 0.0 0.0 0.0 0.0 0.0 -3.27680 -3.27680 -3.27680 -3.27680 -3.27680 -3.27680
508 2.439450 0.0 508.450 0.0 0.0960 0.1020 0.0 989.0 200.0 22.0 500.0 196.50 22.0 65.0 883146.50 2.50 255.0 827410757.786250 0.0 0.0 0.0 0.0 0.0 0.0 0.0 -3.27680 -3.27680 -3.27680 -3.27680 -3.27680 -3.27680
509 2.439450 0.0 509.450 0.0 0.0960 0.1020 0.0 989.50 200.0 31.627450 505.0 196.50 31.627450 60.50 883148.0 1.50 255.0 827413564.945830 0.0 0.0 0.0 0.0 0.0 0.0 0.0 -3.27680 -3.27680 -3.27680 -3.27680 -3.27680 -3.27680
510 2.439450 0.0 510.450 0.0 0.0960 0.1020 0.0 987.50 200.0 29.0 500.0 196.0 29.0 60.0 883150.0 1.50 255.0 827417307.824210 0.0 0.0 0.0 0.0 0.0 0.0 0.0 -3.27680 -3.27680 -3.27680 -3.27680 -3.27680 -3.27680
511 2.439450 0.0 511.450 0.0 0.0960 0.1020 0.0 989.0 200.0 38.0 500.0 196.0 38.0 55.0 883152.50 2.0 255.0 827421986.437270 0.0 0.0 0.0 0.0 0.0 0.0 0.0 -3.27680 -3.27680 -3.27680 -3.27680 -3.27680 -3.27680
512 2.439450 0.0 512.450 0.0 0.0960 0.10180 0.0 989.0 200.0 36.0 500.0 196.0 36.0 64.50 883154.0 1.50 255.0 827424793.611670 0.0 0.0 0.0 0.0 0.0 0.0 0.0 -3.27680 -3.27680 -3.27680 -3.27680 -3.27680 -3.27680
513 2.439450 0.0 513.450 0.0 0.0960 0.1020 0.0 989.50 200.0 29.0 500.0 196.0 29.0 66.50 883160.0 2.0 255.0 827436022.362170 0.0 0.0 0.0 0.0 0.0 0.0 0.0 -3.27680 -3.27680 -3.27680 -3.27680 -3.27680 -3.27680
514 2.439450 0.0 514.450 0.0 0.0960 0.10180 0.0 987.50 200.0 32.0 500.0 196.50 32.0 51.0 883166.0 2.0 255.0 827447251.184620 0.0 0.0 0.0 0.0 0.0 0.0 0.0 -3.27680 -3.27680 -3.27680 -3.27680 -3.27680 -3.27680
515 2.439450 0.0 515.450 0.0 0.0960 0.10180 0.0 989.0 200.0 34.627450 505.0 196.0 34.627450 60.0 883169.0 1.50 255.0 827452865.621250 0.0 0.0 0.0 0.0 0.0 0.0 0.0 -3.27680 -3.27680 -3.27680 -3.27680 -3.27680 -3.27680
516 2.439450 0.0 516.450 0.0 0.0960 0.1020 0.0 989.0 200.0 37.0 500.0 196.0 37.0 49.50 883169.0 2.0 255.0 827452865.621250 0.0 0.0 0.0 0.0 0.0 0.0 0.0 -3.27680 -3.27680 -3.27680 -3.27680 -3.27680 -3.27680
517 2.439450 0.0 517.450 0.0 0.0960 0.1020 0.0 989.50 200.0 35.0 500.0 196.0 35.0 57.50 883168.50 2.0 255.0 827451929.879160 0.0 0.0 0.0 0.0 0.0 0.0 0.0 -3.27680 -3.27680 -3.27680 -3.27680 -3.27680 -3.27680
518 2.439450 0.0 518.450 0.0 0.0960 0.1020 0.0 988.50 200.0 39.0 500.0 196.0 39.0 33.0 883163.0 2.50 255.0 827441636.763870 0.0 0.0 0.0 0.0 0.0 0.0 0.0 -3.27680 -3.27680 -3.27680 -3.27680 -3.27680 -3.27680
519 2.439450 0.0 519.450 0.0 0.0960 0.1020 0.0 989.0 200.0 39.0 500.0 196.0 39.0 62.0 883159.0 1.50 255.0 827434150.899170 0.0 0.0 0.0 0.0 0.0 0.0 0.0 -3.27680 -3.27680 -3.27680 -3.27680 -3.27680 -3.27680
520 2.439450 0.0 520.450 0.0 0.0960 0.1020 0.0 989.0 200.0 40.686270 505.0 196.50 40.686270 89.50 883155.0 2.50 255.0 827426665.065150 0.0 0.0 0.0 0.0 0.0 0.0 0.0 -3.27680 -3.27680 -3.27680 -3.27680 -3.27680 -3.27680
521 2.439450 0.0 521.450 0.0 0.0960 0.10160 0.0 989.50 200.0 33.0 500.0 196.0 33.0 50.50 883147.0 2.0 255.0 827411693.503990 0.0 0.0 0.0 0.0 0.0 0.0 0.0 -3.27680 -3.27680 -3.27680 -3.27680 -3.27680 -3.27680
522 2.439450 0.0 522.450 0.0 0.0960 0.1020 0.0 988.50 200.0 35.0 500.0 196.0 35.0 57.50 883142.50 2.50 255.0 827403272.061220 0.0 0.0 0.0 0.0 0.0 0.0 0.0 -3.27680 -3.27680 -3.27680 -3.27680 -3.27680 -3.27680
523 2.439450 0.0 523.450 0.0 0.0960 0.1020 0.0 989.0 200.0 30.0 500.0 196.0 30.0 39.0 883139.50 2.0 255.0 827397657.796030 0.0 0.0 0.0 0.0 0.0 0.0 0.0 -3.27680 -3.27680 -3.27680 -3.27680 -3.27680 -3.27680
524 2.439450 0.0 524.450 0.0 0.0960 0.1020 0.0 989.0 200.0 37.0 500.0 196.0 37.0 52.0 883141.0 1.50 255.0 827400464.923860 0.0 0.0 0.0 0.0 0.0 0.0 0.0 -3.27680 -3.27680 -3.27680 -3.27680 -3.27680 -3.27680
525 2.439450 0.0 525.450 0.0 0.0960 0.10180 0.0 989.0 200.0 37.0 500.0 196.50 37.0 40.50 883130.50 2.0 255.0 827380815.110490 0.0 0.0 0.0 0.0 0.0 0.0 0.0 -3.27680 -3.27680 -3.27680 -3.27680 -3.27680 -3.27680
526 2.439450 0.0 526.450 0.0 0.0960 0.10180 0.0 988.50 200.0 41.588240 505.0 196.0 41.588240 47.0 883112.0 3.0 255.0 827346194.530670 0.0 0.0 0.0 0.0 0.0 0.0 0.0 -3.27680 -3.27680 -3.27680 -3.27680 -3.27680 -3.27680
527 2.439450 0.0 527.450 0.0 0.0960 0.1020 0.0 988.50 200.0 32.0 500.0 196.0 32.0 97.0 883098.0 2.0 255.0 827319995.663460 0.0 0.0 0.0 0.0 0.0 0.0 0.0 -3.27680 -3.27680 -3.27680 -3.27680 -3.27680 -3.27680
528 2.439450 0.0 528.450 0.0 0.0960 0.10180 0.0 989.0 200.0 36.0 500.0 196.0 36.0 54.50 883089.0 1.50 255.0 827303153.745120 0.0 0.0 0.0 0.0 0.0 0.0 0.0 -3.27680 -3.27680 -3.27680 -3.27680 -3.27680 -3.27680
529 2.439450 0.0 529.450 0.0 0.0960 0.1020 0.0 989.0 200.0 39.0 500.0 196.0 39.0 56.50 883085.0 1.50 255.0 827295668.506870 0.0 0.0 0.0 0.0 0.0 0.0 0.0 -3.27680 -3.27680 -3.27680 -3.27680 -3.27680 -3.27680
530 2.439450 0.0 530.450 0.0 0.0960 0.1020 0.0 988.0 200.0 39.0 500.0 196.0 39.0 39.0 883087.0 2.50 255.0 827299411.12070 0.0 0.0 0.0 0.0 0.0 0.0 0.0 -3.27680 -3.27680 -3.27680 -3.27680 -3.27680 -3.27680
531 2.439450 0.0 531.450 0.0 0.0960 0.1020 0.0 988.50 200.0 24.0 500.0 197.0 24.0 53.0 883090.0 2.0 255.0 827305025.059970 0.0 0.0 0.0 0.0 0.0 0.0 0.0 -3.27680 -3.27680 -3.27680 -3.27680 -3.27680 -3.27680
532 2.439450 0.0 532.450 0.0 0.0960 0.1020 0.0 989.0 200.0 33.568630 505.0 196.0 33.568630 49.50 883096.50 2.0 255.0 827317188.663670 0.0 0.0 0.0 0.0 0.0 0.0 0.0 -3.27680 -3.27680 -3.27680 -3.27680 -3.27680 -3.27680
533 2.439450 0.0 533.450 0.0 0.0960 0.10180 0.0 989.0 200.0 27.0 500.0 196.0 27.0 40.50 883103.50 2.0 255.0 827330288.018960 0.0 0.0 0.0 0.0 0.0 0.0 0.0 -3.27680 -3.27680 -3.27680 -3.27680 -3.27680 -3.27680
534 2.439450 0.0 534.450 0.0 0.0960 0.1020 0.0 990.50 200.0 33.0 500.0 196.0 33.0 55.50 883110.50 1.50 255.0 827343387.486430 0.0 0.0 0.0 0.0 0.0 0.0 0.0 -3.27680 -3.27680 -3.27680 -3.27680 -3.27680 -3.27680
535 2.439450 0.0 535.450 0.0 0.0960 0.1020 0.0 988.0 200.0 34.0 500.0 196.0 34.0 79.50 883119.0 2.50 255.0 827359294.119830 0.0 0.0 0.0 0.0 0.0 0.0 0.0 -3.27680 -3.27680 -3.27680 -3.27680 -3.27680 -3.27680
536 2.439450 0.0 536.450 0.0 0.0960 0.1020 0.0 989.0 200.0 24.0 500.0 196.0 24.0 32.50 883124.0 1.50 255.0 827368651.024260 0.0 0.0 0.0 0.0 0.0 0.0 0.0 -3.27680 -3.27680 -3.27680 -3.27680 -3.27680 -3.27680
537 2.439450 0.0 537.450 0.0 0.0960 0.10180 0.0 989.0 200.0 39.647060 505.0 196.50 39.647060 32.0 883128.0 1.50 255.0 827376136.592670 0.0 0.0 0.0 0.0 0.0 0.0 0.0 -3.27680 -3.27680 -3.27680 -3.27680 -3.27680 -3.27680
538 2.439450 0.0 538.450 0.0 0.0960 0.1020 0.0 989.50 200.0 34.0 500.0 196.0 34.0 55.50 883131.0 2.0 255.0 827381750.794370 0.0 0.0 0.0 0.0 0.0 0.0 0.0 -3.27680 -3.27680 -3.27680 -3.27680 -3.27680 -3.27680
539 2.439450 0.0 539.450 0.0 0.0960 0.1020 0.0 987.50 200.0 34.0 500.0 196.0 34.0 46.50 883138.50 2.50 255.0 827395786.372180 0.0 0.0 0.0 0.0 0.0 0.0 0.0 -3.27680 -3.27680 -3.27680 -3.27680 -3.27680 -3.27680
540 2.439450 0.0 540.450 0.0 0.0960 0.1020 0.0 989.50 200.0 27.0 500.0 196.0 27.0 84.50 883143.50 2.0 255.0 827405143.48930 0.0 0.0 0.0 0.0 0.0 0.0 0.0 -3.27680 -3.27680 -3.27680 -3.27680 -3.27680 -3.27680
541 2.439450 0.0 541.450 0.0 0.0960 0.1020 0.0 989.0 200.0 43.0 500.0 196.0 43.0 37.0 883151.0 1.50 255.0 827419179.267110 0.0 0.0 0.0 0.0 0.0 0.0 0.0 -3.27680 -3.27680 -3.27680 -3.27680 -3.27680 -3.27680
542 2.439450 0.0 542.450 0.0 0.0960 0.1020 0.0 989.50 200.0 47.0 500.0 196.50 47.0 99.50 883156.0 2.0 255.0 827428536.522860 0.0 0.0 0.0 0.0 0.0 0.0 0.0 -3.27680 -3.27680 -3.27680 -3.27680 -3.27680 -3.27680
543 2.439450 0.0 543.450 0.0 0.0960 0.10180 0.0 987.0 200.0 33.627450 505.0 196.0 33.627450 58.50 883166.0 2.0 255.0 827447251.184620 0.0 0.0 0.0 0.0 0.0 0.0 0.0 -3.27680 -3.27680 -3.27680 -3.27680 -3.27680 -3.27680
544 2.439450 0.0 544.450 0.0 0.0960 0.10180 0.0 989.50 200.0 37.0 500.0 196.0 37.0 64.0 883175.50 2.0 255.0 827465030.311710 0.0 0.0 0.0 0.0 0.0 0.0 0.0 -3.27680 -3.27680 -3.27680 -3.27680 -3.27680 -3.27680
545 2.439450 0.0 545.450 0.0 0.0960 0.1020 0.0 989.0 200.0 38.0 500.0 196.0 38.0 104.0 883184.50 1.50 255.0 827481873.86920 0.0 0.0 0.0 0.0 0.0 0.0 0.0 -3.27680 -3.27680 -3.27680 -3.27680 -3.27680 -3.27680
