~VERSION INFORMATION SECTION
VERS. 2.0 : CWLS LAS-VERSION 2.0
WRAP. NO : One line per depth step
~WELL INFORMATION SECTION
# MNEM.UNIT VALUE/NAME DESCRIPTION
#-------- -------------- ---------------------
STRT.Seconds 0 : Start
STOP.Seconds 565 : Stop
STEP.Seconds 1 : Step
NULL.  -999.25 :NULL VALUE
DATE. 2026-24-09 : DATE
~CURVE INFORMATION SECTION
DEPTH.Seconds : 0 Depth
Depth. : 1 Depth
Tension. : 2 Tension
Time. : 3 Time
Speed. : 4 Speed
Voltage. : 5 Voltage
Current. : 6 Current
WET. : 7 WET
Sig. : 8 Sig
Vth. : 9 Vth
GR.CPS : 10 GR
Timebase.ms : 11 Timebase
HeadVoltage.V : 12 Head Voltage
API.API : 13 API
Conductivity.uS : 14 Conductivity
PT100.Ohms : 15 PT100
Vmon.mV : 16 Vmon
Status. : 17 Status
Temperature.C : 18 Temperature
Incline.Deg : 19 Incline
Azimuth.Deg : 20 Azimuth
RelativeBearing.Deg : 21 Relative Bearing
MagneticToolFace.Deg : 22 Magnetic Tool Face
GravityMagnitude.G : 23 Gravity Magnitude
MagnetometerMagnitude.H : 24 Magnetometer Magnitude
Temperature.C : 25 Temperature
GX. : 26 GX
GY. : 27 GY
GZ. : 28 GZ
HX. : 29 HX
HY. : 30 HY
HZ. : 31 HZ
~PARAMETER INFORMATION SECTION
~OTHER
#-------------------------------------------------
#Produced By: GeoVista Logger - Version 7.1.107.0
Verticality Sonde - 9605
Temperature and Conductivity Sonde - Inline - 8974
Natural Gamma Sonde - 9931
WLIS - 10021
#-------------------------------------------------
~ASCII LOG DATA
# ...
429 2.439450 0.0 429.450 0.0 0.0960 0.1020 0.0 988.50 200.0 34.0 500.0 196.50 34.0 43.50 883517.0 1.50 255.0 828104269.893890 0.0 0.0 0.0 0.0 0.0 0.0 0.0 -3.27680 -3.27680 -3.27680 -3.27680 -3.27680 -3.27680
430 2.439450 0.0 430.450 0.0 0.0960 0.1020 0.0 989.0 200.0 32.666670 505.0 196.0 32.666670 84.50 883518.50 1.50 255.0 828107078.225950 0.0 0.0 0.0 0.0 0.0 0.0 0.0 -3.27680 -3.27680 -3.27680 -3.27680 -3.27680 -3.27680
431 2.439450 0.0 431.450 0.0 0.0960 0.10160 0.0 989.0 200.0 36.0 500.0 196.0 36.0 56.50 883517.50 2.0 255.0 828105206.004220 0.0 0.0 0.0 0.0 0.0 0.0 0.0 -3.27680 -3.27680 -3.27680 -3.27680 -3.27680 -3.27680
432 2.439450 0.0 432.450 0.0 0.0960 0.1020 0.0 989.0 200.0 29.0 500.0 196.0 29.0 125.50 883516.0 1.50 255.0 828102397.675330 0.0 0.0 0.0 0.0 0.0 0.0 0.0 -3.27680 -3.27680 -3.27680 -3.27680 -3.27680 -3.27680
433 2.439450 0.0 433.450 0.0 0.0960 0.10180 0.0 989.0 200.0 38.0 500.0 196.0 38.0 54.0 883515.50 2.50 255.0 828101461.567110 0.0 0.0 0.0 0.0 0.0 0.0 0.0 -3.27680 -3.27680 -3.27680 -3.27680 -3.27680 -3.27680
434 2.439450 0.0 434.450 0.0 0.0960 0.1020 0.0 989.0 200.0 30.0 500.0 196.0 30.0 45.50 883516.50 2.0 255.0 828103333.784610 0.0 0.0 0.0 0.0 0.0 0.0 0.0 -3.27680 -3.27680 -3.27680 -3.27680 -3.27680 -3.27680
435 2.439450 0.0 435.450 0.0 0.0960 0.1020 0.0 988.50 200.0 33.0 500.0 196.50 33.0 48.0 883514.50 1.50 255.0 828099589.351730 0.0 0.0 0.0 0.0 0.0 0.0 0.0 -3.27680 -3.27680 -3.27680 -3.27680 -3.27680 -3.27680
436 2.439450 0.0 436.450 0.0 0.0960 0.1020 0.0 989.0 200.0 27.803920 505.0 196.0 27.803920 67.0 883514.0 1.50 255.0 828098653.244570 0.0 0.0 0.0 0.0 0.0 0.0 0.0 -3.27680 -3.27680 -3.27680 -3.27680 -3.27680 -3.27680
437 2.439450 0.0 437.450 0.0 0.0960 0.1020 0.0 989.0 200.0 35.0 500.0 196.0 35.0 23.50 883511.0 2.50 255.0 828093036.614290 0.0 0.0 0.0 0.0 0.0 0.0 0.0 -3.27680 -3.27680 -3.27680 -3.27680 -3.27680 -3.27680
438 2.439450 0.0 438.450 0.0 0.0960 0.10160 0.0 989.0 200.0 24.0 500.0 196.0 24.0 42.0 883505.50 2.0 255.0 828082739.510640 0.0 0.0 0.0 0.0 0.0 0.0 0.0 -3.27680 -3.27680 -3.27680 -3.27680 -3.27680 -3.27680
439 2.439450 0.0 439.450 0.0 0.0960 0.1020 0.0 988.0 200.0 30.0 500.0 196.0 30.0 38.0 883500.50 1.50 255.0 828073378.560720 0.0 0.0 0.0 0.0 0.0 0.0 0.0 -3.27680 -3.27680 -3.27680 -3.27680 -3.27680 -3.27680
440 2.439450 0.0 440.450 0.0 0.0960 0.1020 0.0 988.50 200.0 28.0 500.0 196.0 28.0 74.50 883492.50 2.0 255.0 828058401.155120 0.0 0.0 0.0 0.0 0.0 0.0 0.0 -3.27680 -3.27680 -3.27680 -3.27680 -3.27680 -3.27680
441 2.439450 0.0 441.450 0.0 0.0960 0.1020 0.0 989.0 200.0 31.74510 505.0 196.50 31.74510 43.50 883485.0 2.50 255.0 828044359.959330 0.0 0.0 0.0 0.0 0.0 0.0 0.0 -3.27680 -3.27680 -3.27680 -3.27680 -3.27680 -3.27680
442 2.439450 0.0 442.450 0.0 0.0960 0.1020 0.0 989.0 200.0 37.0 500.0 196.0 37.0 41.50 883474.0 2.0 255.0 828023766.411290 0.0 0.0 0.0 0.0 0.0 0.0 0.0 -3.27680 -3.27680 -3.27680 -3.27680 -3.27680 -3.27680
443 2.439450 0.0 443.450 0.0 0.0960 0.1020 0.0 989.50 200.0 39.0 500.0 196.0 39.0 122.50 883466.0 2.0 255.0 828008789.450140 0.0 0.0 0.0 0.0 0.0 0.0 0.0 -3.27680 -3.27680 -3.27680 -3.27680 -3.27680 -3.27680
444 2.439450 0.0 444.450 0.0 0.0960 0.1020 0.0 988.50 200.0 25.0 500.0 196.0 25.0 90.0 883457.50 1.50 255.0 827992876.586060 0.0 0.0 0.0 0.0 0.0 0.0 0.0 -3.27680 -3.27680 -3.27680 -3.27680 -3.27680 -3.27680
445 2.439450 0.0 445.450 0.0 0.0960 0.1020 0.0 989.0 200.0 34.0 500.0 196.0 34.0 79.50 883453.50 2.0 255.0 827985388.228240 0.0 0.0 0.0 0.0 0.0 0.0 0.0 -3.27680 -3.27680 -3.27680 -3.27680 -3.27680 -3.27680
446 2.439450 0.0 446.450 0.0 0.0960 0.10180 0.0 989.0 200.0 32.0 500.0 196.50 32.0 41.50 883442.50 2.0 255.0 827964795.418820 0.0 0.0 0.0 0.0 0.0 0.0 0.0 -3.27680 -3.27680 -3.27680 -3.27680 -3.27680 -3.27680
447 2.439450 0.0 447.450 0.0 0.0960 0.1020 0.0 989.50 200.0 39.568630 505.0 196.0 39.568630 88.50 883434.0 2.0 255.0 827948882.965320 0.0 0.0 0.0 0.0 0.0 0.0 0.0 -3.27680 -3.27680 -3.27680 -3.27680 -3.27680 -3.27680
448 2.439450 0.0 448.450 0.0 0.0960 0.10160 0.0 988.50 200.0 43.0 500.0 196.0 43.0 61.50 883426.0 1.50 255.0 827933906.681420 0.0 0.0 0.0 0.0 0.0 0.0 0.0 -3.27680 -3.27680 -3.27680 -3.27680 -3.27680 -3.27680
449 2.439450 0.0 449.450 0.0 0.0960 0.1020 0.0 989.0 200.0 35.0 500.0 196.0 35.0 21.50 883420.50 2.0 255.0 827923610.555550 0.0 0.0 0.0 0.0 0.0 0.0 0.0 -3.27680 -3.27680 -3.27680 -3.27680 -3.27680 -3.27680
450 2.439450 0.0 450.450 0.0 0.0960 0.1020 0.0 989.0 200.0 47.0 500.0 196.0 47.0 44.0 883414.50 2.0 255.0 827912378.501350 0.0 0.0 0.0 0.0 0.0 0.0 0.0 -3.27680 -3.27680 -3.27680 -3.27680 -3.27680 -3.27680
451 2.439450 0.0 451.450 0.0 0.0960 0.1020 0.0 989.50 200.0 39.0 500.0 196.0 39.0 75.50 883408.0 2.0 255.0 827900210.529410 0.0 0.0 0.0 0.0 0.0 0.0 0.0 -3.27680 -3.27680 -3.27680 -3.27680 -3.27680 -3.27680
452 2.439450 0.0 452.450 0.0 0.0960 0.1020 0.0 987.0 200.0 39.0 500.0 197.0 39.0 47.50 883404.0 2.0 255.0 827892722.59380 0.0 0.0 0.0 0.0 0.0 0.0 0.0 -3.27680 -3.27680 -3.27680 -3.27680 -3.27680 -3.27680
453 2.439450 0.0 453.450 0.0 0.0960 0.1020 0.0 989.0 200.0 28.74510 505.0 196.0 28.74510 47.0 883399.0 1.50 255.0 827883362.717950 0.0 0.0 0.0 0.0 0.0 0.0 0.0 -3.27680 -3.27680 -3.27680 -3.27680 -3.27680 -3.27680
454 2.439450 0.0 454.450 0.0 0.0960 0.10160 0.0 989.0 200.0 43.0 500.0 196.0 43.0 93.50 883396.50 2.0 255.0 827878682.79590 0.0 0.0 0.0 0.0 0.0 0.0 0.0 -3.27680 -3.27680 -3.27680 -3.27680 -3.27680 -3.27680
455 2.439450 0.0 455.450 0.0 0.0960 0.1020 0.0 989.50 200.0 39.0 500.0 196.0 39.0 58.0 883396.0 2.0 255.0 827877746.81360 0.0 0.0 0.0 0.0 0.0 0.0 0.0 -3.27680 -3.27680 -3.27680 -3.27680 -3.27680 -3.27680
456 2.439450 0.0 456.450 0.0 0.0960 0.10180 0.0 987.0 200.0 32.0 500.0 196.0 32.0 57.50 883393.0 1.50 255.0 827872130.936770 0.0 0.0 0.0 0.0 0.0 0.0 0.0 -3.27680 -3.27680 -3.27680 -3.27680 -3.27680 -3.27680
457 2.439450 0.0 457.450 0.0 0.0960 0.1020 0.0 989.0 200.0 24.0 500.0 196.0 24.0 31.0 883390.50 1.0 255.0 827867451.046460 0.0 0.0 0.0 0.0 0.0 0.0 0.0 -3.27680 -3.27680 -3.27680 -3.27680 -3.27680 -3.27680
458 2.439450 0.0 458.450 0.0 0.0960 0.1020 0.0 989.0 200.0 42.647060 505.0 196.50 42.647060 84.0 883389.50 1.50 255.0 827865579.097740 0.0 0.0 0.0 0.0 0.0 0.0 0.0 -3.27680 -3.27680 -3.27680 -3.27680 -3.27680 -3.27680
459 2.439450 0.0 459.450 0.0 0.0960 0.1020 0.0 989.0 200.0 34.0 500.0 196.0 34.0 67.0 883384.50 2.0 255.0 827856219.373210 0.0 0.0 0.0 0.0 0.0 0.0 0.0 -3.27680 -3.27680 -3.27680 -3.27680 -3.27680 -3.27680
460 2.439450 0.0 460.450 0.0 0.0960 0.10180 0.0 989.0 200.0 38.0 500.0 196.0 38.0 111.0 883378.0 2.0 255.0 827844051.813970 0.0 0.0 0.0 0.0 0.0 0.0 0.0 -3.27680 -3.27680 -3.27680 -3.27680 -3.27680 -3.27680
461 2.439450 0.0 461.450 0.0 0.0960 0.10160 0.0 989.0 200.0 28.0 500.0 196.0 28.0 33.50 883370.0 2.0 255.0 827829076.478210 0.0 0.0 0.0 0.0 0.0 0.0 0.0 -3.27680 -3.27680 -3.27680 -3.27680 -3.27680 -3.27680
462 2.439450 0.0 462.450 0.0 0.0960 0.1020 0.0 989.0 200.0 32.0 500.0 196.0 32.0 93.50 883363.0 2.0 255.0 827815973.173710 0.0 0.0 0.0 0.0 0.0 0.0 0.0 -3.27680 -3.27680 -3.27680 -3.27680 -3.27680 -3.27680
463 2.439450 0.0 463.450 0.0 0.0960 0.1020 0.0 989.50 200.0 24.0 500.0 196.50 24.0 65.0 883357.0 2.0 255.0 827804741.849670 0.0 0.0 0.0 0.0 0.0 0.0 0.0 -3.27680 -3.27680 -3.27680 -3.27680 -3.27680 -3.27680
464 2.439450 0.0 464.450 0.0 0.0960 0.1020 0.0 988.50 200.0 33.607840 505.0 196.0 33.607840 34.50 883352.50 2.0 255.0 827796318.409020 0.0 0.0 0.0 0.0 0.0 0.0 0.0 -3.27680 -3.27680 -3.27680 -3.27680 -3.27680 -3.27680
465 2.439450 0.0 465.450 0.0 0.0960 0.1020 0.0 989.0 200.0 45.0 500.0 196.0 45.0 89.0 883344.0 2.0 255.0 827780407.575630 0.0 0.0 0.0 0.0 0.0 0.0 0.0 -3.27680 -3.27680 -3.27680 -3.27680 -3.27680 -3.27680
466 2.439450 0.0 466.450 0.0 0.0960 0.1020 0.0 989.0 200.0 29.0 500.0 196.0 29.0 59.50 883336.0 1.50 255.0 827765432.815530 0.0 0.0 0.0 0.0 0.0 0.0 0.0 -3.27680 -3.27680 -3.27680 -3.27680 -3.27680 -3.27680
467 2.439450 0.0 467.450 0.0 0.0960 0.10180 0.0 989.0 200.0 27.0 500.0 196.0 27.0 66.0 883330.50 1.50 255.0 827755137.748920 0.0 0.0 0.0 0.0 0.0 0.0 0.0 -3.27680 -3.27680 -3.27680 -3.27680 -3.27680 -3.27680
