~VERSION INFORMATION SECTION
VERS. 2.0 : CWLS LAS-VERSION 2.0
WRAP. NO : One line per depth step
~WELL INFORMATION SECTION
# MNEM.UNIT VALUE/NAME DESCRIPTION
#-------- -------------- ---------------------
STRT.Seconds 0 : Start
STOP.Seconds 565 : Stop
STEP.Seconds 1 : Step
NULL.  -999.25 :NULL VALUE
DATE. 2026-24-09 : DATE
~CURVE INFORMATION SECTION
DEPTH.Seconds : 0 Depth
Depth. : 1 Depth
Tension. : 2 Tension
Time. : 3 Time
Speed. : 4 Speed
Voltage. : 5 Voltage
Current. : 6 Current
WET. : 7 WET
Sig. : 8 Sig
Vth. : 9 Vth
GR.CPS : 10 GR
Timebase.ms : 11 Timebase
HeadVoltage.V : 12 Head Voltage
API.API : 13 API
Conductivity.uS : 14 Conductivity
PT100.Ohms : 15 PT100
Vmon.mV : 16 Vmon
Status. : 17 Status
Temperature.C : 18 Temperature
Incline.Deg : 19 Incline
Azimuth.Deg : 20 Azimuth
RelativeBearing.Deg : 21 Relative Bearing
MagneticToolFace.Deg : 22 Magnetic Tool Face
GravityMagnitude.G : 23 Gravity Magnitude
MagnetometerMagnitude.H : 24 Magnetometer Magnitude
Temperature.C : 25 Temperature
GX. : 26 GX
GY. : 27 GY
GZ. : 28 GZ
HX. : 29 HX
HY. : 30 HY
HZ. : 31 HZ
~PARAMETER INFORMATION SECTION
~OTHER
#-------------------------------------------------
#Produced By: GeoVista Logger - Version 7.1.107.0
Verticality Sonde - 9605
Temperature and Conductivity Sonde - Inline - 8974
Natural Gamma Sonde - 9931
WLIS - 10021
#-------------------------------------------------
~ASCII LOG DATA
0 -999.25 -999.25 -999.25 -999.25 -999.25 -999.25 -999.25 -999.25 -999.25 -999.25 -999.25 -999.25 -999.25 -999.25 -999.25 -999.25 -999.25 -999.25 -999.25 -999.25 -999.25 -999.25 -999.25 -999.25 -999.25 -999.25 -999.25 -999.25 -999.25 -999.25 -999.25
1 2.439450 0.0 1.450 0.0 0.0960 0.10180 0.0 986.0 200.0 36.568630 505.0 196.0 36.568630 43.0 883237.0 2.0 255.0 827580131.374150 0.0 0.0 0.0 0.0 0.0 0.0 0.0 -3.27680 -3.27680 -3.27680 -3.27680 -3.27680 -3.27680
2 2.439450 0.0 2.450 0.0 0.0960 0.10180 0.0 985.0 200.0 44.0 500.0 196.0 44.0 38.50 883219.50 2.50 255.0 827547378.237230 0.0 0.0 0.0 0.0 0.0 0.0 0.0 -3.27680 -3.27680 -3.27680 -3.27680 -3.27680 -3.27680
3 2.439450 0.0 3.450 0.0 0.0960 0.1020 0.0 986.0 200.0 43.0 500.0 196.0 43.0 73.50 883192.0 1.50 255.0 827495910.377170 0.0 0.0 0.0 0.0 0.0 0.0 0.0 -3.27680 -3.27680 -3.27680 -3.27680 -3.27680 -3.27680
4 2.439450 0.0 4.450 0.0 0.0960 0.10180 0.0 984.50 200.0 34.0 500.0 196.0 34.0 55.0 883153.0 2.0 255.0 827422922.267190 0.0 0.0 0.0 0.0 0.0 0.0 0.0 -3.27680 -3.27680 -3.27680 -3.27680 -3.27680 -3.27680
5 2.439450 0.0 5.450 0.0 0.0960 0.10160 0.0 986.0 200.0 25.0 500.0 196.0 25.0 45.0 883105.0 2.0 255.0 827333095.214530 0.0 0.0 0.0 0.0 0.0 0.0 0.0 -3.27680 -3.27680 -3.27680 -3.27680 -3.27680 -3.27680
6 2.439450 0.0 6.450 0.0 0.0960 0.10180 0.0 985.50 200.0 41.470590 505.0 196.0 41.470590 69.0 883058.50 2.0 255.0 827246079.797630 0.0 0.0 0.0 0.0 0.0 0.0 0.0 -3.27680 -3.27680 -3.27680 -3.27680 -3.27680 -3.27680
7 2.439450 0.0 7.450 0.0 0.0960 0.1020 0.0 986.0 200.0 40.0 500.0 196.0 40.0 72.50 883008.50 2.0 255.0 827152519.936420 0.0 0.0 0.0 0.0 0.0 0.0 0.0 -3.27680 -3.27680 -3.27680 -3.27680 -3.27680 -3.27680
8 2.439450 0.0 8.450 0.0 0.0960 0.1020 0.0 984.50 200.0 39.0 500.0 196.0 39.0 28.50 882970.50 2.0 255.0 827081417.978310 0.0 0.0 0.0 0.0 0.0 0.0 0.0 -3.27680 -3.27680 -3.27680 -3.27680 -3.27680 -3.27680
9 2.439450 0.0 9.450 0.0 0.0960 0.10160 0.0 986.0 200.0 35.0 500.0 196.0 35.0 38.0 882945.50 2.0 255.0 827034642.026540 0.0 0.0 0.0 0.0 0.0 0.0 0.0 -3.27680 -3.27680 -3.27680 -3.27680 -3.27680 -3.27680
10 2.439450 0.0 10.450 0.0 0.0960 0.1020 0.0 985.50 200.0 27.0 500.0 196.0 27.0 30.50 882933.50 2.50 255.0 827012190.0430 0.0 0.0 0.0 0.0 0.0 0.0 0.0 -3.27680 -3.27680 -3.27680 -3.27680 -3.27680 -3.27680
11 2.439450 0.0 11.450 0.0 0.0960 0.1020 0.0 986.0 200.0 30.0 500.0 196.0 30.0 58.50 882928.50 1.50 255.0 827002835.139630 0.0 0.0 0.0 0.0 0.0 0.0 0.0 -3.27680 -3.27680 -3.27680 -3.27680 -3.27680 -3.27680
12 2.439450 0.0 12.450 0.0 0.0960 0.1020 0.0 985.50 200.0 33.686270 505.0 196.0 33.686270 1.0 882929.0 1.50 255.0 827003770.627740 0.0 0.0 0.0 0.0 0.0 0.0 0.0 -3.27680 -3.27680 -3.27680 -3.27680 -3.27680 -3.27680
13 2.439450 0.0 13.450 0.0 0.0960 0.1020 0.0 986.0 200.0 37.0 500.0 196.0 37.0 70.50 882931.0 1.50 255.0 827007512.582320 0.0 0.0 0.0 0.0 0.0 0.0 0.0 -3.27680 -3.27680 -3.27680 -3.27680 -3.27680 -3.27680
14 2.439450 0.0 14.450 0.0 0.0960 0.1020 0.0 986.0 200.0 39.0 500.0 196.0 39.0 55.0 882936.50 2.0 255.0 827017803.002380 0.0 0.0 0.0 0.0 0.0 0.0 0.0 -3.27680 -3.27680 -3.27680 -3.27680 -3.27680 -3.27680
15 2.439450 0.0 15.450 0.0 0.0960 0.10180 0.0 985.50 200.0 25.0 500.0 196.0 25.0 60.50 882948.0 2.50 255.0 827039319.541190 0.0 0.0 0.0 0.0 0.0 0.0 0.0 -3.27680 -3.27680 -3.27680 -3.27680 -3.27680 -3.27680
16 2.439450 0.0 16.450 0.0 0.0960 0.1020 0.0 985.50 200.0 49.0 500.0 196.0 49.0 29.0 882956.0 2.50 255.0 827054287.731980 0.0 0.0 0.0 0.0 0.0 0.0 0.0 -3.27680 -3.27680 -3.27680 -3.27680 -3.27680 -3.27680
17 2.439450 0.0 17.450 0.0 0.0960 0.10180 0.0 986.0 200.0 35.0 500.0 196.0 35.0 93.50 882965.0 2.0 255.0 827071127.121220 0.0 0.0 0.0 0.0 0.0 0.0 0.0 -3.27680 -3.27680 -3.27680 -3.27680 -3.27680 -3.27680
18 2.439450 0.0 18.450 0.0 0.0960 0.1020 0.0 986.0 200.0 40.647060 505.0 196.0 40.647060 81.0 882975.50 1.50 255.0 827090773.262640 0.0 0.0 0.0 0.0 0.0 0.0 0.0 -3.27680 -3.27680 -3.27680 -3.27680 -3.27680 -3.27680
19 2.439450 0.0 19.450 0.0 0.0960 0.10180 0.0 986.0 200.0 30.0 500.0 196.0 30.0 45.0 882984.50 3.0 255.0 827107613.014840 0.0 0.0 0.0 0.0 0.0 0.0 0.0 -3.27680 -3.27680 -3.27680 -3.27680 -3.27680 -3.27680
20 2.439450 0.0 20.450 0.0 0.0960 0.10180 0.0 985.0 200.0 41.0 500.0 196.0 41.0 50.50 882990.0 1.50 255.0 827117904.050770 0.0 0.0 0.0 0.0 0.0 0.0 0.0 -3.27680 -3.27680 -3.27680 -3.27680 -3.27680 -3.27680
21 2.439450 0.0 21.450 0.0 0.0960 0.1020 0.0 985.50 200.0 41.0 500.0 196.0 41.0 65.50 882994.50 2.0 255.0 827126324.040630 0.0 0.0 0.0 0.0 0.0 0.0 0.0 -3.27680 -3.27680 -3.27680 -3.27680 -3.27680 -3.27680
22 2.439450 0.0 22.450 0.0 0.0960 0.1020 0.0 986.0 200.0 42.0 500.0 196.0 42.0 56.50 882999.0 2.0 255.0 827134744.078110 0.0 0.0 0.0 0.0 0.0 0.0 0.0 -3.27680 -3.27680 -3.27680 -3.27680 -3.27680 -3.27680
23 2.439450 0.0 23.450 0.0 0.0960 0.1020 0.0 985.50 200.0 45.470590 505.0 196.0 45.470590 88.0 883006.0 2.0 255.0 827147841.990020 0.0 0.0 0.0 0.0 0.0 0.0 0.0 -3.27680 -3.27680 -3.27680 -3.27680 -3.27680 -3.27680
24 2.439450 0.0 24.450 0.0 0.0960 0.1020 0.0 986.50 200.0 36.0 500.0 196.0 36.0 37.50 883011.0 2.0 255.0 827157197.707150 0.0 0.0 0.0 0.0 0.0 0.0 0.0 -3.27680 -3.27680 -3.27680 -3.27680 -3.27680 -3.27680
25 2.439450 0.0 25.450 0.0 0.0960 0.1020 0.0 985.50 200.0 37.0 500.0 196.0 37.0 90.0 883014.50 1.50 255.0 827163746.741940 0.0 0.0 0.0 0.0 0.0 0.0 0.0 -3.27680 -3.27680 -3.27680 -3.27680 -3.27680 -3.27680
26 2.439450 0.0 26.450 0.0 0.0960 0.10180 0.0 986.0 200.0 20.0 500.0 196.0 20.0 56.50 883014.50 2.50 255.0 827163746.739830 0.0 0.0 0.0 0.0 0.0 0.0 0.0 -3.27680 -3.27680 -3.27680 -3.27680 -3.27680 -3.27680
27 2.439450 0.0 27.450 0.0 0.0960 0.10180 0.0 986.0 200.0 34.0 500.0 196.0 34.0 75.0 883008.50 2.0 255.0 827152519.841180 0.0 0.0 0.0 0.0 0.0 0.0 0.0 -3.27680 -3.27680 -3.27680 -3.27680 -3.27680 -3.27680
28 2.439450 0.0 28.450 0.0 0.0960 0.1020 0.0 986.50 200.0 43.0 500.0 196.0 43.0 52.50 883008.50 2.0 255.0 827152519.84330 0.0 0.0 0.0 0.0 0.0 0.0 0.0 -3.27680 -3.27680 -3.27680 -3.27680 -3.27680 -3.27680
29 2.439450 0.0 29.450 0.0 0.0960 0.1020 0.0 985.0 200.0 36.725490 505.0 196.0 36.725490 43.0 883006.50 2.0 255.0 827148777.558560 0.0 0.0 0.0 0.0 0.0 0.0 0.0 -3.27680 -3.27680 -3.27680 -3.27680 -3.27680 -3.27680
30 2.439450 0.0 30.450 0.0 0.0960 0.10180 0.0 986.0 200.0 45.0 500.0 196.0 45.0 75.0 883007.0 1.50 255.0 827149713.128160 0.0 0.0 0.0 0.0 0.0 0.0 0.0 -3.27680 -3.27680 -3.27680 -3.27680 -3.27680 -3.27680
31 2.439450 0.0 31.450 0.0 0.0960 0.10180 0.0 986.0 200.0 39.0 500.0 196.0 39.0 48.0 882998.0 2.0 255.0 827132872.955850 0.0 0.0 0.0 0.0 0.0 0.0 0.0 -3.27680 -3.27680 -3.27680 -3.27680 -3.27680 -3.27680
32 2.439450 0.0 32.450 0.0 0.0960 0.1020 0.0 986.50 200.0 47.0 500.0 196.0 47.0 65.50 882989.50 2.0 255.0 827116968.504460 0.0 0.0 0.0 0.0 0.0 0.0 0.0 -3.27680 -3.27680 -3.27680 -3.27680 -3.27680 -3.27680
33 2.439450 0.0 33.450 0.0 0.0960 0.1020 0.0 984.0 200.0 40.0 500.0 196.0 40.0 74.50 882976.50 2.50 255.0 827092644.347860 0.0 0.0 0.0 0.0 0.0 0.0 0.0 -3.27680 -3.27680 -3.27680 -3.27680 -3.27680 -3.27680
34 2.439450 0.0 34.450 0.0 0.0960 0.10180 0.0 986.0 200.0 32.0 500.0 196.0 32.0 48.50 882965.50 1.50 255.0 827072062.632620 0.0 0.0 0.0 0.0 0.0 0.0 0.0 -3.27680 -3.27680 -3.27680 -3.27680 -3.27680 -3.27680
35 2.439450 0.0 35.450 0.0 0.0960 0.10180 0.0 986.0 200.0 36.50980 505.0 196.0 36.50980 67.0 882953.50 2.0 255.0 827049610.166540 0.0 0.0 0.0 0.0 0.0 0.0 0.0 -3.27680 -3.27680 -3.27680 -3.27680 -3.27680 -3.27680
36 2.439450 0.0 36.450 0.0 0.0960 0.1020 0.0 986.0 200.0 43.0 500.0 196.0 43.0 19.50 882931.0 2.0 255.0 827007512.607720 0.0 0.0 0.0 0.0 0.0 0.0 0.0 -3.27680 -3.27680 -3.27680 -3.27680 -3.27680 -3.27680
37 2.439450 0.0 37.450 0.0 0.0960 0.1020 0.0 984.50 200.0 31.0 500.0 196.0 31.0 84.0 882902.50 2.50 255.0 826954190.587280 0.0 0.0 0.0 0.0 0.0 0.0 0.0 -3.27680 -3.27680 -3.27680 -3.27680 -3.27680 -3.27680
38 2.439450 0.0 38.450 0.0 0.0960 0.10180 0.0 986.0 200.0 34.0 500.0 196.0 34.0 87.0 882883.0 2.0 255.0 826917708.024870 0.0 0.0 0.0 0.0 0.0 0.0 0.0 -3.27680 -3.27680 -3.27680 -3.27680 -3.27680 -3.27680
