~VERSION INFORMATION SECTION
VERS. 2.0 : CWLS LAS-VERSION 2.0
WRAP. NO : One line per depth step
~WELL INFORMATION SECTION
# MNEM.UNIT VALUE/NAME DESCRIPTION
#-------- -------------- ---------------------
STRT.Seconds 0 : Start
STOP.Seconds 565 : Stop
STEP.Seconds 1 : Step
NULL.  -999.25 :NULL VALUE
DATE. 2026-24-09 : DATE
~CURVE INFORMATION SECTION
DEPTH.Seconds : 0 Depth
Depth. : 1 Depth
Tension. : 2 Tension
Time. : 3 Time
Speed. : 4 Speed
Voltage. : 5 Voltage
Current. : 6 Current
WET. : 7 WET
Sig. : 8 Sig
Vth. : 9 Vth
GR.CPS : 10 GR
Timebase.ms : 11 Timebase
HeadVoltage.V : 12 Head Voltage
API.API : 13 API
Conductivity.uS : 14 Conductivity
PT100.Ohms : 15 PT100
Vmon.mV : 16 Vmon
Status. : 17 Status
Temperature.C : 18 Temperature
Incline.Deg : 19 Incline
Azimuth.Deg : 20 Azimuth
RelativeBearing.Deg : 21 Relative Bearing
MagneticToolFace.Deg : 22 Magnetic Tool Face
GravityMagnitude.G : 23 Gravity Magnitude
MagnetometerMagnitude.H : 24 Magnetometer Magnitude
Temperature.C : 25 Temperature
GX. : 26 GX
GY. : 27 GY
GZ. : 28 GZ
HX. : 29 HX
HY. : 30 HY
HZ. : 31 HZ
~PARAMETER INFORMATION SECTION
~OTHER
#-------------------------------------------------
#Produced By: GeoVista Logger - Version 7.1.107.0
Verticality Sonde - 9605
Temperature and Conductivity Sonde - Inline - 8974
Natural Gamma Sonde - 9931
WLIS - 10021
#-------------------------------------------------
~ASCII LOG DATA
# ...
468 2.439450 0.0 468.450 0.0 0.0960 0.10180 0.0 988.0 200.0 37.0 500.0 196.0 37.0 21.0 883323.50 2.50 255.0 827742035.026430 0.0 0.0 0.0 0.0 0.0 0.0 0.0 -3.27680 -3.27680 -3.27680 -3.27680 -3.27680 -3.27680
469 2.439450 0.0 469.450 0.0 0.0960 0.10180 0.0 988.50 200.0 37.0 500.0 197.0 37.0 10.0 883316.50 2.0 255.0 827728932.40340 0.0 0.0 0.0 0.0 0.0 0.0 0.0 -3.27680 -3.27680 -3.27680 -3.27680 -3.27680 -3.27680
470 2.439450 0.0 470.450 0.0 0.0960 0.1020 0.0 989.0 200.0 36.705880 505.0 196.0 36.705880 16.50 883314.50 1.50 255.0 827725188.814970 0.0 0.0 0.0 0.0 0.0 0.0 0.0 -3.27680 -3.27680 -3.27680 -3.27680 -3.27680 -3.27680
471 2.439450 0.0 471.450 0.0 0.0960 0.1020 0.0 988.50 200.0 36.0 500.0 196.0 36.0 89.0 883308.50 1.50 255.0 827713958.127960 0.0 0.0 0.0 0.0 0.0 0.0 0.0 -3.27680 -3.27680 -3.27680 -3.27680 -3.27680 -3.27680
472 2.439450 0.0 472.450 0.0 0.0960 0.10180 0.0 990.0 200.0 40.0 500.0 196.0 40.0 78.50 883298.50 1.50 255.0 827695240.441860 0.0 0.0 0.0 0.0 0.0 0.0 0.0 -3.27680 -3.27680 -3.27680 -3.27680 -3.27680 -3.27680
473 2.439450 0.0 473.450 0.0 0.0960 0.1020 0.0 988.50 200.0 28.0 500.0 196.0 28.0 35.50 883294.0 2.50 255.0 827686817.544070 0.0 0.0 0.0 0.0 0.0 0.0 0.0 -3.27680 -3.27680 -3.27680 -3.27680 -3.27680 -3.27680
474 2.439450 0.0 474.450 0.0 0.0960 0.1020 0.0 989.0 200.0 22.0 500.0 196.50 22.0 98.0 883289.0 2.0 255.0 827677458.832240 0.0 0.0 0.0 0.0 0.0 0.0 0.0 -3.27680 -3.27680 -3.27680 -3.27680 -3.27680 -3.27680
475 2.439450 0.0 475.450 0.0 0.0960 0.10180 0.0 989.0 200.0 44.529410 505.0 196.50 44.529410 95.50 883291.0 1.50 255.0 827681202.310620 0.0 0.0 0.0 0.0 0.0 0.0 0.0 -3.27680 -3.27680 -3.27680 -3.27680 -3.27680 -3.27680
476 2.439450 0.0 476.450 0.0 0.0960 0.1020 0.0 990.0 200.0 43.0 500.0 196.0 43.0 14.50 883293.0 1.50 255.0 827684945.797470 0.0 0.0 0.0 0.0 0.0 0.0 0.0 -3.27680 -3.27680 -3.27680 -3.27680 -3.27680 -3.27680
477 2.439450 0.0 477.450 0.0 0.0960 0.1020 0.0 988.0 200.0 37.0 500.0 196.0 37.0 78.0 883290.0 2.50 255.0 827679330.570370 0.0 0.0 0.0 0.0 0.0 0.0 0.0 -3.27680 -3.27680 -3.27680 -3.27680 -3.27680 -3.27680
478 2.439450 0.0 478.450 0.0 0.0960 0.10180 0.0 989.0 200.0 36.0 500.0 196.0 36.0 93.0 883287.50 2.0 255.0 827674651.230330 0.0 0.0 0.0 0.0 0.0 0.0 0.0 -3.27680 -3.27680 -3.27680 -3.27680 -3.27680 -3.27680
479 2.439450 0.0 479.450 0.0 0.0960 0.1020 0.0 989.0 200.0 30.0 500.0 196.0 30.0 31.50 883287.0 1.50 255.0 827673715.362320 0.0 0.0 0.0 0.0 0.0 0.0 0.0 -3.27680 -3.27680 -3.27680 -3.27680 -3.27680 -3.27680
480 2.439450 0.0 480.450 0.0 0.0960 0.1020 0.0 989.50 200.0 33.0 500.0 196.50 33.0 47.50 883287.50 1.50 255.0 827674651.228210 0.0 0.0 0.0 0.0 0.0 0.0 0.0 -3.27680 -3.27680 -3.27680 -3.27680 -3.27680 -3.27680
481 2.439450 0.0 481.450 0.0 0.0960 0.1020 0.0 987.50 200.0 39.588240 505.0 196.0 39.588240 75.50 883289.50 2.0 255.0 827678394.702360 0.0 0.0 0.0 0.0 0.0 0.0 0.0 -3.27680 -3.27680 -3.27680 -3.27680 -3.27680 -3.27680
482 2.439450 0.0 482.450 0.0 0.0960 0.10180 0.0 989.0 200.0 34.0 500.0 196.0 34.0 78.0 883292.50 2.0 255.0 827684009.926290 0.0 0.0 0.0 0.0 0.0 0.0 0.0 -3.27680 -3.27680 -3.27680 -3.27680 -3.27680 -3.27680
483 2.439450 0.0 483.450 0.0 0.0960 0.10180 0.0 989.0 200.0 38.0 500.0 196.0 38.0 74.50 883299.0 1.50 255.0 827696176.308810 0.0 0.0 0.0 0.0 0.0 0.0 0.0 -3.27680 -3.27680 -3.27680 -3.27680 -3.27680 -3.27680
484 2.439450 0.0 484.450 0.0 0.0960 0.10180 0.0 989.50 200.0 25.0 500.0 196.0 25.0 112.0 883304.0 1.50 255.0 827705535.129640 0.0 0.0 0.0 0.0 0.0 0.0 0.0 -3.27680 -3.27680 -3.27680 -3.27680 -3.27680 -3.27680
485 2.439450 0.0 485.450 0.0 0.0960 0.1020 0.0 987.50 200.0 21.0 500.0 196.0 21.0 42.50 883309.50 2.0 255.0 827715829.888320 0.0 0.0 0.0 0.0 0.0 0.0 0.0 -3.27680 -3.27680 -3.27680 -3.27680 -3.27680 -3.27680
486 2.439450 0.0 486.450 0.0 0.0960 0.10180 0.0 989.0 200.0 33.627450 505.0 196.50 33.627450 26.50 883315.0 2.0 255.0 827726124.711550 0.0 0.0 0.0 0.0 0.0 0.0 0.0 -3.27680 -3.27680 -3.27680 -3.27680 -3.27680 -3.27680
487 2.439450 0.0 487.450 0.0 0.0960 0.1020 0.0 988.50 200.0 46.0 500.0 196.0 46.0 64.0 883319.0 2.0 255.0 827733611.895830 0.0 0.0 0.0 0.0 0.0 0.0 0.0 -3.27680 -3.27680 -3.27680 -3.27680 -3.27680 -3.27680
488 2.439450 0.0 488.450 0.0 0.0960 0.10180 0.0 989.50 200.0 37.0 500.0 196.0 37.0 63.50 883317.0 1.50 255.0 827729868.299980 0.0 0.0 0.0 0.0 0.0 0.0 0.0 -3.27680 -3.27680 -3.27680 -3.27680 -3.27680 -3.27680
489 2.439450 0.0 489.450 0.0 0.0960 0.10180 0.0 988.50 200.0 26.0 500.0 196.0 26.0 43.50 883302.0 2.0 255.0 827701791.601520 0.0 0.0 0.0 0.0 0.0 0.0 0.0 -3.27680 -3.27680 -3.27680 -3.27680 -3.27680 -3.27680
490 2.439450 0.0 490.450 0.0 0.0960 0.10180 0.0 989.0 200.0 38.0 500.0 196.0 38.0 72.0 883284.50 2.0 255.0 827669036.067780 0.0 0.0 0.0 0.0 0.0 0.0 0.0 -3.27680 -3.27680 -3.27680 -3.27680 -3.27680 -3.27680
491 2.439450 0.0 491.450 0.0 0.0960 0.1020 0.0 989.0 200.0 41.0 500.0 196.50 41.0 107.50 883261.0 1.50 255.0 827625051.060790 0.0 0.0 0.0 0.0 0.0 0.0 0.0 -3.27680 -3.27680 -3.27680 -3.27680 -3.27680 -3.27680
492 2.439450 0.0 492.450 0.0 0.0960 0.1020 0.0 989.50 200.0 30.686270 505.0 196.50 30.686270 74.50 883240.0 2.0 255.0 827585746.293310 0.0 0.0 0.0 0.0 0.0 0.0 0.0 -3.27680 -3.27680 -3.27680 -3.27680 -3.27680 -3.27680
493 2.439450 0.0 493.450 0.0 0.0960 0.1020 0.0 988.50 200.0 31.0 500.0 196.0 31.0 44.0 883224.50 1.50 255.0 827556736.194560 0.0 0.0 0.0 0.0 0.0 0.0 0.0 -3.27680 -3.27680 -3.27680 -3.27680 -3.27680 -3.27680
494 2.439450 0.0 494.450 0.0 0.0960 0.1020 0.0 989.0 200.0 35.0 500.0 196.0 35.0 46.50 883215.50 2.0 255.0 827539891.87940 0.0 0.0 0.0 0.0 0.0 0.0 0.0 -3.27680 -3.27680 -3.27680 -3.27680 -3.27680 -3.27680
495 2.439450 0.0 495.450 0.0 0.0960 0.10160 0.0 989.0 200.0 32.0 500.0 196.0 32.0 57.0 883204.50 2.50 255.0 827519304.610720 0.0 0.0 0.0 0.0 0.0 0.0 0.0 -3.27680 -3.27680 -3.27680 -3.27680 -3.27680 -3.27680
496 2.439450 0.0 496.450 0.0 0.0960 0.10160 0.0 989.0 200.0 26.0 500.0 196.0 26.0 65.50 883193.50 1.50 255.0 827498717.604470 0.0 0.0 0.0 0.0 0.0 0.0 0.0 -3.27680 -3.27680 -3.27680 -3.27680 -3.27680 -3.27680
497 2.439450 0.0 497.450 0.0 0.0960 0.1020 0.0 988.50 200.0 42.0 500.0 197.0 42.0 14.50 883181.0 1.50 255.0 827475323.574090 0.0 0.0 0.0 0.0 0.0 0.0 0.0 -3.27680 -3.27680 -3.27680 -3.27680 -3.27680 -3.27680
498 2.439450 0.0 498.450 0.0 0.0960 0.10160 0.0 988.50 200.0 35.686270 505.0 196.0 35.686270 32.0 883174.0 2.0 255.0 827462223.063240 0.0 0.0 0.0 0.0 0.0 0.0 0.0 -3.27680 -3.27680 -3.27680 -3.27680 -3.27680 -3.27680
499 2.439450 0.0 499.450 0.0 0.0960 0.1020 0.0 989.0 200.0 42.0 500.0 196.0 42.0 50.0 883165.0 2.0 255.0 827445379.731140 0.0 0.0 0.0 0.0 0.0 0.0 0.0 -3.27680 -3.27680 -3.27680 -3.27680 -3.27680 -3.27680
500 2.439450 0.0 500.450 0.0 0.0960 0.1020 0.0 989.0 200.0 35.0 500.0 196.0 35.0 72.50 883158.0 2.0 255.0 827432279.438280 0.0 0.0 0.0 0.0 0.0 0.0 0.0 -3.27680 -3.27680 -3.27680 -3.27680 -3.27680 -3.27680
501 2.439450 0.0 501.450 0.0 0.0960 0.1020 0.0 990.0 200.0 36.0 500.0 196.0 36.0 69.50 883149.50 2.0 255.0 827416372.104350 0.0 0.0 0.0 0.0 0.0 0.0 0.0 -3.27680 -3.27680 -3.27680 -3.27680 -3.27680 -3.27680
502 2.439450 0.0 502.450 0.0 0.0960 0.1020 0.0 988.50 200.0 24.0 500.0 196.0 24.0 58.0 883142.50 2.0 255.0 827403272.063340 0.0 0.0 0.0 0.0 0.0 0.0 0.0 -3.27680 -3.27680 -3.27680 -3.27680 -3.27680 -3.27680
503 2.439450 0.0 503.450 0.0 0.0960 0.1020 0.0 989.0 200.0 29.725490 505.0 196.50 29.725490 43.50 883141.50 1.50 255.0 827401400.635260 0.0 0.0 0.0 0.0 0.0 0.0 0.0 -3.27680 -3.27680 -3.27680 -3.27680 -3.27680 -3.27680
504 2.439450 0.0 504.450 0.0 0.0960 0.10180 0.0 989.0 200.0 34.0 500.0 196.0 34.0 80.50 883139.0 2.0 255.0 827396722.08040 0.0 0.0 0.0 0.0 0.0 0.0 0.0 -3.27680 -3.27680 -3.27680 -3.27680 -3.27680 -3.27680
505 2.439450 0.0 505.450 0.0 0.0960 0.1020 0.0 990.50 200.0 37.0 500.0 196.0 37.0 16.50 883136.50 1.50 255.0 827392043.537180 0.0 0.0 0.0 0.0 0.0 0.0 0.0 -3.27680 -3.27680 -3.27680 -3.27680 -3.27680 -3.27680
506 2.439450 0.0 506.450 0.0 0.0960 0.1020 0.0 988.0 200.0 27.0 500.0 196.0 27.0 35.50 883139.0 1.50 255.0 827396722.079340 0.0 0.0 0.0 0.0 0.0 0.0 0.0 -3.27680 -3.27680 -3.27680 -3.27680 -3.27680 -3.27680
