~VERSION INFORMATION SECTION
VERS. 2.0 : CWLS LAS-VERSION 2.0
WRAP. NO : One line per depth step
~WELL INFORMATION SECTION
# MNEM.UNIT VALUE/NAME DESCRIPTION
#-------- -------------- ---------------------
STRT.Seconds 0 : Start
STOP.Seconds 565 : Stop
STEP.Seconds 1 : Step
NULL.  -999.25 :NULL VALUE
DATE. 2026-24-09 : DATE
~CURVE INFORMATION SECTION
DEPTH.Seconds : 0 Depth
Depth. : 1 Depth
Tension. : 2 Tension
Time. : 3 Time
Speed. : 4 Speed
Voltage. : 5 Voltage
Current. : 6 Current
WET. : 7 WET
Sig. : 8 Sig
Vth. : 9 Vth
GR.CPS : 10 GR
Timebase.ms : 11 Timebase
HeadVoltage.V : 12 Head Voltage
API.API : 13 API
Conductivity.uS : 14 Conductivity
PT100.Ohms : 15 PT100
Vmon.mV : 16 Vmon
Status. : 17 Status
Temperature.C : 18 Temperature
Incline.Deg : 19 Incline
Azimuth.Deg : 20 Azimuth
RelativeBearing.Deg : 21 Relative Bearing
MagneticToolFace.Deg : 22 Magnetic Tool Face
GravityMagnitude.G : 23 Gravity Magnitude
MagnetometerMagnitude.H : 24 Magnetometer Magnitude
Temperature.C : 25 Temperature
GX. : 26 GX
GY. : 27 GY
GZ. : 28 GZ
HX. : 29 HX
HY. : 30 HY
HZ. : 31 HZ
~PARAMETER INFORMATION SECTION
~OTHER
#-------------------------------------------------
#Produced By: GeoVista Logger - Version 7.1.107.0
Verticality Sonde - 9605
Temperature and Conductivity Sonde - Inline - 8974
Natural Gamma Sonde - 9931
WLIS - 10021
#-------------------------------------------------
~ASCII LOG DATA
# ...
195 2.439450 0.0 195.450 0.0 0.0960 0.10220 0.0 986.50 200.0 35.0 500.0 196.0 35.0 111.0 883099.50 1.50 255.0 827322802.655850 0.0 0.0 0.0 0.0 0.0 0.0 0.0 -3.27680 -3.27680 -3.27680 -3.27680 -3.27680 -3.27680
196 2.439450 0.0 196.450 0.0 0.0960 0.10260 0.0 988.0 200.0 29.0 500.0 196.0 29.0 76.0 883101.0 2.0 255.0 827325609.663050 0.0 0.0 0.0 0.0 0.0 0.0 0.0 -3.27680 -3.27680 -3.27680 -3.27680 -3.27680 -3.27680
197 2.439450 0.0 197.450 0.0 0.0960 0.1020 0.0 987.50 200.0 36.0 500.0 196.0 36.0 34.50 883101.0 2.50 255.0 827325609.661990 0.0 0.0 0.0 0.0 0.0 0.0 0.0 -3.27680 -3.27680 -3.27680 -3.27680 -3.27680 -3.27680
198 2.439450 0.0 198.450 0.0 0.0960 0.1020 0.0 988.50 200.0 31.705880 505.0 196.0 31.705880 60.0 883103.0 2.0 255.0 827329352.345660 0.0 0.0 0.0 0.0 0.0 0.0 0.0 -3.27680 -3.27680 -3.27680 -3.27680 -3.27680 -3.27680
199 2.439450 0.0 199.450 0.0 0.0960 0.10180 0.0 986.50 200.0 28.0 500.0 196.0 28.0 37.0 883101.0 1.50 255.0 827325609.666220 0.0 0.0 0.0 0.0 0.0 0.0 0.0 -3.27680 -3.27680 -3.27680 -3.27680 -3.27680 -3.27680
200 2.439450 0.0 200.450 0.0 0.0960 0.10220 0.0 988.0 200.0 40.0 500.0 196.0 40.0 50.0 883103.0 1.50 255.0 827329352.345660 0.0 0.0 0.0 0.0 0.0 0.0 0.0 -3.27680 -3.27680 -3.27680 -3.27680 -3.27680 -3.27680
201 2.439450 0.0 201.450 0.0 0.0960 0.1020 0.0 987.50 200.0 40.0 500.0 196.0 40.0 52.50 883105.50 1.50 255.0 827334030.712160 0.0 0.0 0.0 0.0 0.0 0.0 0.0 -3.27680 -3.27680 -3.27680 -3.27680 -3.27680 -3.27680
202 2.439450 0.0 202.450 0.0 0.0960 0.1020 0.0 988.0 200.0 30.0 500.0 196.0 30.0 75.0 883110.0 2.0 255.0 827342451.809960 0.0 0.0 0.0 0.0 0.0 0.0 0.0 -3.27680 -3.27680 -3.27680 -3.27680 -3.27680 -3.27680
203 2.439450 0.0 203.450 0.0 0.0960 0.1020 0.0 987.50 200.0 23.0 500.0 196.0 23.0 78.50 883116.0 2.0 255.0 827353679.987970 0.0 0.0 0.0 0.0 0.0 0.0 0.0 -3.27680 -3.27680 -3.27680 -3.27680 -3.27680 -3.27680
204 2.439450 0.0 204.450 0.0 0.0960 0.10220 0.0 988.0 200.0 28.725490 505.0 196.0 28.725490 28.0 883122.50 1.50 255.0 827365843.946160 0.0 0.0 0.0 0.0 0.0 0.0 0.0 -3.27680 -3.27680 -3.27680 -3.27680 -3.27680 -3.27680
205 2.439450 0.0 205.450 0.0 0.0960 0.1020 0.0 988.0 200.0 20.0 500.0 196.0 20.0 120.0 883129.0 2.50 255.0 827378007.990060 0.0 0.0 0.0 0.0 0.0 0.0 0.0 -3.27680 -3.27680 -3.27680 -3.27680 -3.27680 -3.27680
206 2.439450 0.0 206.450 0.0 0.0960 0.1020 0.0 985.50 200.0 42.0 500.0 196.0 42.0 32.0 883136.50 1.50 255.0 827392043.537180 0.0 0.0 0.0 0.0 0.0 0.0 0.0 -3.27680 -3.27680 -3.27680 -3.27680 -3.27680 -3.27680
207 2.439450 0.0 207.450 0.0 0.0960 0.1020 0.0 987.50 200.0 36.0 500.0 196.0 36.0 45.0 883143.50 2.50 255.0 827405143.491420 0.0 0.0 0.0 0.0 0.0 0.0 0.0 -3.27680 -3.27680 -3.27680 -3.27680 -3.27680 -3.27680
208 2.439450 0.0 208.450 0.0 0.0960 0.1020 0.0 988.50 200.0 35.0 500.0 196.0 35.0 74.50 883147.50 1.0 255.0 827412629.224910 0.0 0.0 0.0 0.0 0.0 0.0 0.0 -3.27680 -3.27680 -3.27680 -3.27680 -3.27680 -3.27680
209 2.439450 0.0 209.450 0.0 0.0960 0.1020 0.0 987.50 200.0 30.607840 505.0 196.0 30.607840 86.0 883155.0 2.0 255.0 827426665.073610 0.0 0.0 0.0 0.0 0.0 0.0 0.0 -3.27680 -3.27680 -3.27680 -3.27680 -3.27680 -3.27680
210 2.439450 0.0 210.450 0.0 0.0960 0.10180 0.0 988.0 200.0 48.0 500.0 196.0 48.0 79.50 883160.0 1.50 255.0 827436022.357930 0.0 0.0 0.0 0.0 0.0 0.0 0.0 -3.27680 -3.27680 -3.27680 -3.27680 -3.27680 -3.27680
211 2.439450 0.0 211.450 0.0 0.0960 0.1020 0.0 987.50 200.0 38.0 500.0 196.0 38.0 66.0 883168.0 2.0 255.0 827450994.142370 0.0 0.0 0.0 0.0 0.0 0.0 0.0 -3.27680 -3.27680 -3.27680 -3.27680 -3.27680 -3.27680
212 2.439450 0.0 212.450 0.0 0.0960 0.1020 0.0 988.0 200.0 38.0 500.0 196.0 38.0 54.50 883175.50 2.50 255.0 827465030.307480 0.0 0.0 0.0 0.0 0.0 0.0 0.0 -3.27680 -3.27680 -3.27680 -3.27680 -3.27680 -3.27680
213 2.439450 0.0 213.450 0.0 0.0960 0.1020 0.0 988.0 200.0 34.0 500.0 196.0 34.0 52.0 883182.0 2.0 255.0 827477195.083660 0.0 0.0 0.0 0.0 0.0 0.0 0.0 -3.27680 -3.27680 -3.27680 -3.27680 -3.27680 -3.27680
214 2.439450 0.0 214.450 0.0 0.0960 0.1020 0.0 987.0 200.0 28.0 500.0 196.0 28.0 0.0 883185.0 1.0 255.0 827482809.621870 0.0 0.0 0.0 0.0 0.0 0.0 0.0 -3.27680 -3.27680 -3.27680 -3.27680 -3.27680 -3.27680
215 2.439450 0.0 215.450 0.0 0.0960 0.1020 0.0 988.0 200.0 28.74510 505.0 196.0 28.74510 60.50 883188.50 1.50 255.0 827489359.943430 0.0 0.0 0.0 0.0 0.0 0.0 0.0 -3.27680 -3.27680 -3.27680 -3.27680 -3.27680 -3.27680
216 2.439450 0.0 216.450 0.0 0.0960 0.10180 0.0 988.50 200.0 27.0 500.0 196.0 27.0 58.0 883190.0 2.0 255.0 827492167.233170 0.0 0.0 0.0 0.0 0.0 0.0 0.0 -3.27680 -3.27680 -3.27680 -3.27680 -3.27680 -3.27680
217 2.439450 0.0 217.450 0.0 0.0960 0.1020 0.0 988.0 200.0 42.0 500.0 196.0 42.0 74.0 883191.0 3.0 255.0 827494038.761780 0.0 0.0 0.0 0.0 0.0 0.0 0.0 -3.27680 -3.27680 -3.27680 -3.27680 -3.27680 -3.27680
218 2.439450 0.0 218.450 0.0 0.0960 0.10180 0.0 987.50 200.0 38.0 500.0 196.0 38.0 25.0 883189.50 2.0 255.0 827491231.468870 0.0 0.0 0.0 0.0 0.0 0.0 0.0 -3.27680 -3.27680 -3.27680 -3.27680 -3.27680 -3.27680
219 2.439450 0.0 219.450 0.0 0.0960 0.1020 0.0 987.50 200.0 31.0 500.0 196.0 31.0 52.50 883188.50 2.0 255.0 827489359.945550 0.0 0.0 0.0 0.0 0.0 0.0 0.0 -3.27680 -3.27680 -3.27680 -3.27680 -3.27680 -3.27680
220 2.439450 0.0 220.450 0.0 0.0960 0.1020 0.0 988.0 200.0 28.0 500.0 196.0 28.0 80.0 883186.0 1.50 255.0 827484681.13990 0.0 0.0 0.0 0.0 0.0 0.0 0.0 -3.27680 -3.27680 -3.27680 -3.27680 -3.27680 -3.27680
221 2.439450 0.0 221.450 0.0 0.0960 0.1020 0.0 988.0 200.0 28.686270 505.0 196.50 28.686270 55.0 883175.0 1.50 255.0 827464094.583380 0.0 0.0 0.0 0.0 0.0 0.0 0.0 -3.27680 -3.27680 -3.27680 -3.27680 -3.27680 -3.27680
222 2.439450 0.0 222.450 0.0 0.0960 0.1020 0.0 987.0 200.0 37.0 500.0 196.0 37.0 98.0 883160.0 2.0 255.0 827436022.362170 0.0 0.0 0.0 0.0 0.0 0.0 0.0 -3.27680 -3.27680 -3.27680 -3.27680 -3.27680 -3.27680
223 2.439450 0.0 223.450 0.0 0.0960 0.10160 0.0 987.50 200.0 39.0 500.0 196.0 39.0 86.50 883144.50 2.0 255.0 827407014.925850 0.0 0.0 0.0 0.0 0.0 0.0 0.0 -3.27680 -3.27680 -3.27680 -3.27680 -3.27680 -3.27680
224 2.439450 0.0 224.450 0.0 0.0960 0.10180 0.0 988.0 200.0 35.0 500.0 196.0 35.0 101.50 883129.50 2.50 255.0 827378943.701460 0.0 0.0 0.0 0.0 0.0 0.0 0.0 -3.27680 -3.27680 -3.27680 -3.27680 -3.27680 -3.27680
225 2.439450 0.0 225.450 0.0 0.0960 0.1020 0.0 987.50 200.0 29.0 500.0 196.0 29.0 42.0 883119.0 2.0 255.0 827359294.119830 0.0 0.0 0.0 0.0 0.0 0.0 0.0 -3.27680 -3.27680 -3.27680 -3.27680 -3.27680 -3.27680
226 2.439450 0.0 226.450 0.0 0.0960 0.10180 0.0 987.50 200.0 28.0 500.0 196.0 28.0 32.50 883112.0 1.50 255.0 827346194.521150 0.0 0.0 0.0 0.0 0.0 0.0 0.0 -3.27680 -3.27680 -3.27680 -3.27680 -3.27680 -3.27680
227 2.439450 0.0 227.450 0.0 0.0960 0.1020 0.0 988.50 200.0 35.627450 505.0 196.0 35.627450 78.50 883111.0 1.50 255.0 827344323.160790 0.0 0.0 0.0 0.0 0.0 0.0 0.0 -3.27680 -3.27680 -3.27680 -3.27680 -3.27680 -3.27680
228 2.439450 0.0 228.450 0.0 0.0960 0.1020 0.0 986.0 200.0 31.0 500.0 196.0 31.0 74.50 883111.0 2.50 255.0 827344323.160790 0.0 0.0 0.0 0.0 0.0 0.0 0.0 -3.27680 -3.27680 -3.27680 -3.27680 -3.27680 -3.27680
229 2.439450 0.0 229.450 0.0 0.0960 0.10180 0.0 988.0 200.0 41.0 500.0 196.0 41.0 51.50 883110.50 1.50 255.0 827343387.480080 0.0 0.0 0.0 0.0 0.0 0.0 0.0 -3.27680 -3.27680 -3.27680 -3.27680 -3.27680 -3.27680
230 2.439450 0.0 230.450 0.0 0.0960 0.1020 0.0 987.0 200.0 35.0 500.0 196.0 35.0 32.0 883112.0 2.0 255.0 827346194.522210 0.0 0.0 0.0 0.0 0.0 0.0 0.0 -3.27680 -3.27680 -3.27680 -3.27680 -3.27680 -3.27680
231 2.439450 0.0 231.450 0.0 0.0960 0.10180 0.0 988.0 200.0 53.0 500.0 196.0 53.0 17.50 883109.0 1.50 255.0 827340580.452780 0.0 0.0 0.0 0.0 0.0 0.0 0.0 -3.27680 -3.27680 -3.27680 -3.27680 -3.27680 -3.27680
232 2.439450 0.0 232.450 0.0 0.0960 0.1020 0.0 988.0 200.0 30.0 500.0 196.0 30.0 81.50 883099.0 2.50 255.0 827321866.992070 0.0 0.0 0.0 0.0 0.0 0.0 0.0 -3.27680 -3.27680 -3.27680 -3.27680 -3.27680 -3.27680
233 2.439450 0.0 233.450 0.0 0.0960 0.1020 0.0 988.0 200.0 35.49020 505.0 196.0 35.49020 37.50 883078.50 2.0 255.0 827283505.08730 0.0 0.0 0.0 0.0 0.0 0.0 0.0 -3.27680 -3.27680 -3.27680 -3.27680 -3.27680 -3.27680
