~VERSION INFORMATION SECTION
VERS. 2.0 : CWLS LAS-VERSION 2.0
WRAP. NO : One line per depth step
~WELL INFORMATION SECTION
# MNEM.UNIT VALUE/NAME DESCRIPTION
#-------- -------------- ---------------------
STRT.Seconds 0 : Start
STOP.Seconds 565 : Stop
STEP.Seconds 1 : Step
NULL.  -999.25 :NULL VALUE
DATE. 2026-24-09 : DATE
~CURVE INFORMATION SECTION
DEPTH.Seconds : 0 Depth
Depth. : 1 Depth
Tension. : 2 Tension
Time. : 3 Time
Speed. : 4 Speed
Voltage. : 5 Voltage
Current. : 6 Current
WET. : 7 WET
Sig. : 8 Sig
Vth. : 9 Vth
GR.CPS : 10 GR
Timebase.ms : 11 Timebase
HeadVoltage.V : 12 Head Voltage
API.API : 13 API
Conductivity.uS : 14 Conductivity
PT100.Ohms : 15 PT100
Vmon.mV : 16 Vmon
Status. : 17 Status
Temperature.C : 18 Temperature
Incline.Deg : 19 Incline
Azimuth.Deg : 20 Azimuth
RelativeBearing.Deg : 21 Relative Bearing
MagneticToolFace.Deg : 22 Magnetic Tool Face
GravityMagnitude.G : 23 Gravity Magnitude
MagnetometerMagnitude.H : 24 Magnetometer Magnitude
Temperature.C : 25 Temperature
GX. : 26 GX
GY. : 27 GY
GZ. : 28 GZ
HX. : 29 HX
HY. : 30 HY
HZ. : 31 HZ
~PARAMETER INFORMATION SECTION
~OTHER
#-------------------------------------------------
#Produced By: GeoVista Logger - Version 7.1.107.0
Verticality Sonde - 9605
Temperature and Conductivity Sonde - Inline - 8974
Natural Gamma Sonde - 9931
WLIS - 10021
#-------------------------------------------------
~ASCII LOG DATA
# ...
390 2.439450 0.0 390.450 0.0 0.0960 0.1020 0.0 988.0 200.0 38.0 500.0 196.50 38.0 58.0 883487.0 2.0 255.0 828048104.258880 0.0 0.0 0.0 0.0 0.0 0.0 0.0 -3.27680 -3.27680 -3.27680 -3.27680 -3.27680 -3.27680
391 2.439450 0.0 391.450 0.0 0.0960 0.1020 0.0 989.0 200.0 36.470590 503.333330 196.0 36.470590 39.0 883491.0 2.0 255.0 828055592.899240 0.0 0.0 0.0 0.0 0.0 0.0 0.0 -3.27680 -3.27680 -3.27680 -3.27680 -3.27680 -3.27680
392 2.439450 0.0 392.450 0.0 0.0960 0.1020 0.0 988.0 200.0 34.0 500.0 196.0 34.0 89.50 883496.50 2.50 255.0 828065889.838870 0.0 0.0 0.0 0.0 0.0 0.0 0.0 -3.27680 -3.27680 -3.27680 -3.27680 -3.27680 -3.27680
393 2.439450 0.0 393.450 0.0 0.0960 0.1020 0.0 989.50 200.0 37.0 500.0 196.0 37.0 67.0 883502.0 2.50 255.0 828076186.838820 0.0 0.0 0.0 0.0 0.0 0.0 0.0 -3.27680 -3.27680 -3.27680 -3.27680 -3.27680 -3.27680
394 2.439450 0.0 394.450 0.0 0.0960 0.1020 0.0 987.0 200.0 35.0 500.0 196.0 35.0 52.0 883504.50 1.50 255.0 828080867.314310 0.0 0.0 0.0 0.0 0.0 0.0 0.0 -3.27680 -3.27680 -3.27680 -3.27680 -3.27680 -3.27680
395 2.439450 0.0 395.450 0.0 0.0960 0.10180 0.0 989.0 200.0 35.0 500.0 196.0 35.0 76.50 883502.0 1.50 255.0 828076186.841990 0.0 0.0 0.0 0.0 0.0 0.0 0.0 -3.27680 -3.27680 -3.27680 -3.27680 -3.27680 -3.27680
396 2.439450 0.0 396.450 0.0 0.0960 0.1020 0.0 988.0 200.0 37.529410 505.0 196.50 37.529410 71.50 883492.50 2.0 255.0 828058401.161470 0.0 0.0 0.0 0.0 0.0 0.0 0.0 -3.27680 -3.27680 -3.27680 -3.27680 -3.27680 -3.27680
397 2.439450 0.0 397.450 0.0 0.0960 0.10180 0.0 989.50 200.0 42.0 500.0 196.0 42.0 88.0 883482.50 2.0 255.0 828039679.589660 0.0 0.0 0.0 0.0 0.0 0.0 0.0 -3.27680 -3.27680 -3.27680 -3.27680 -3.27680 -3.27680
398 2.439450 0.0 398.450 0.0 0.0960 0.10180 0.0 987.0 200.0 36.0 500.0 196.0 36.0 49.50 883467.0 1.50 255.0 828010661.58510 0.0 0.0 0.0 0.0 0.0 0.0 0.0 -3.27680 -3.27680 -3.27680 -3.27680 -3.27680 -3.27680
399 2.439450 0.0 399.450 0.0 0.0960 0.10180 0.0 989.0 200.0 32.0 500.0 196.0 32.0 70.0 883452.0 1.50 255.0 827982580.106750 0.0 0.0 0.0 0.0 0.0 0.0 0.0 -3.27680 -3.27680 -3.27680 -3.27680 -3.27680 -3.27680
400 2.439450 0.0 400.450 0.0 0.0960 0.10180 0.0 988.50 200.0 40.0 500.0 196.0 40.0 55.50 883436.0 2.0 255.0 827952627.052170 0.0 0.0 0.0 0.0 0.0 0.0 0.0 -3.27680 -3.27680 -3.27680 -3.27680 -3.27680 -3.27680
401 2.439450 0.0 401.450 0.0 0.0960 0.10180 0.0 989.0 200.0 30.0 500.0 196.50 30.0 53.50 883427.0 1.50 255.0 827935778.704210 0.0 0.0 0.0 0.0 0.0 0.0 0.0 -3.27680 -3.27680 -3.27680 -3.27680 -3.27680 -3.27680
402 2.439450 0.0 402.450 0.0 0.0960 0.1020 0.0 987.0 200.0 26.803920 505.0 196.0 26.803920 64.50 883423.50 2.0 255.0 827929226.611220 0.0 0.0 0.0 0.0 0.0 0.0 0.0 -3.27680 -3.27680 -3.27680 -3.27680 -3.27680 -3.27680
403 2.439450 0.0 403.450 0.0 0.0960 0.1020 0.0 988.50 200.0 31.0 500.0 196.0 31.0 59.50 883424.50 1.50 255.0 827931098.634010 0.0 0.0 0.0 0.0 0.0 0.0 0.0 -3.27680 -3.27680 -3.27680 -3.27680 -3.27680 -3.27680
404 2.439450 0.0 404.450 0.0 0.0960 0.10180 0.0 988.50 200.0 24.0 500.0 196.0 24.0 97.50 883426.50 1.50 255.0 827934842.688050 0.0 0.0 0.0 0.0 0.0 0.0 0.0 -3.27680 -3.27680 -3.27680 -3.27680 -3.27680 -3.27680
405 2.439450 0.0 405.450 0.0 0.0960 0.10180 0.0 988.50 200.0 40.0 500.0 196.0 40.0 76.50 883430.50 2.0 255.0 827942330.821540 0.0 0.0 0.0 0.0 0.0 0.0 0.0 -3.27680 -3.27680 -3.27680 -3.27680 -3.27680 -3.27680
406 2.439450 0.0 406.450 0.0 0.0960 0.10180 0.0 988.0 200.0 33.0 500.0 196.0 33.0 27.50 883438.50 2.0 255.0 827957307.17740 0.0 0.0 0.0 0.0 0.0 0.0 0.0 -3.27680 -3.27680 -3.27680 -3.27680 -3.27680 -3.27680
407 2.439450 0.0 407.450 0.0 0.0960 0.1020 0.0 988.50 200.0 22.764710 505.0 196.50 22.764710 64.0 883443.50 2.0 255.0 827966667.475470 0.0 0.0 0.0 0.0 0.0 0.0 0.0 -3.27680 -3.27680 -3.27680 -3.27680 -3.27680 -3.27680
408 2.439450 0.0 408.450 0.0 0.0960 0.1020 0.0 989.0 200.0 38.0 500.0 196.0 38.0 76.50 883449.50 1.50 255.0 827977899.891580 0.0 0.0 0.0 0.0 0.0 0.0 0.0 -3.27680 -3.27680 -3.27680 -3.27680 -3.27680 -3.27680
409 2.439450 0.0 409.450 0.0 0.0960 0.10160 0.0 988.50 200.0 32.0 500.0 196.0 32.0 80.50 883455.50 2.0 255.0 827989132.392330 0.0 0.0 0.0 0.0 0.0 0.0 0.0 -3.27680 -3.27680 -3.27680 -3.27680 -3.27680 -3.27680
410 2.439450 0.0 410.450 0.0 0.0960 0.10180 0.0 988.0 200.0 39.0 500.0 196.0 39.0 20.50 883461.0 1.50 255.0 827999428.915030 0.0 0.0 0.0 0.0 0.0 0.0 0.0 -3.27680 -3.27680 -3.27680 -3.27680 -3.27680 -3.27680
411 2.439450 0.0 411.450 0.0 0.0960 0.10160 0.0 988.50 200.0 42.0 500.0 196.0 42.0 103.0 883465.0 2.0 255.0 828006917.336350 0.0 0.0 0.0 0.0 0.0 0.0 0.0 -3.27680 -3.27680 -3.27680 -3.27680 -3.27680 -3.27680
412 2.439450 0.0 412.450 0.0 0.0960 0.1020 0.0 989.0 200.0 37.0 500.0 196.50 37.0 65.0 883474.0 2.0 255.0 828023766.408120 0.0 0.0 0.0 0.0 0.0 0.0 0.0 -3.27680 -3.27680 -3.27680 -3.27680 -3.27680 -3.27680
413 2.439450 0.0 413.450 0.0 0.0960 0.1020 0.0 988.50 200.0 31.686270 505.0 196.50 31.686270 80.50 883479.50 1.50 255.0 828034063.153040 0.0 0.0 0.0 0.0 0.0 0.0 0.0 -3.27680 -3.27680 -3.27680 -3.27680 -3.27680 -3.27680
414 2.439450 0.0 414.450 0.0 0.0960 0.10180 0.0 987.50 200.0 30.0 500.0 196.0 30.0 26.0 883488.0 2.0 255.0 828049976.419240 0.0 0.0 0.0 0.0 0.0 0.0 0.0 -3.27680 -3.27680 -3.27680 -3.27680 -3.27680 -3.27680
415 2.439450 0.0 415.450 0.0 0.0960 0.10180 0.0 988.0 200.0 39.0 500.0 196.0 39.0 101.50 883494.50 2.0 255.0 828062145.494880 0.0 0.0 0.0 0.0 0.0 0.0 0.0 -3.27680 -3.27680 -3.27680 -3.27680 -3.27680 -3.27680
416 2.439450 0.0 416.450 0.0 0.0960 0.10180 0.0 989.0 200.0 33.0 500.0 196.0 33.0 81.0 883501.0 2.0 255.0 828074314.660470 0.0 0.0 0.0 0.0 0.0 0.0 0.0 -3.27680 -3.27680 -3.27680 -3.27680 -3.27680 -3.27680
417 2.439450 0.0 417.450 0.0 0.0960 0.1020 0.0 988.50 200.0 27.0 500.0 196.0 27.0 37.50 883505.0 1.50 255.0 828081803.411950 0.0 0.0 0.0 0.0 0.0 0.0 0.0 -3.27680 -3.27680 -3.27680 -3.27680 -3.27680 -3.27680
418 2.439450 0.0 418.450 0.0 0.0960 0.1020 0.0 989.50 200.0 37.0 500.0 196.50 37.0 63.50 883509.0 1.50 255.0 828089292.204690 0.0 0.0 0.0 0.0 0.0 0.0 0.0 -3.27680 -3.27680 -3.27680 -3.27680 -3.27680 -3.27680
419 2.439450 0.0 419.450 0.0 0.0960 0.10180 0.0 988.50 200.0 48.49020 505.0 196.0 48.49020 52.0 883515.50 1.50 255.0 828101461.569230 0.0 0.0 0.0 0.0 0.0 0.0 0.0 -3.27680 -3.27680 -3.27680 -3.27680 -3.27680 -3.27680
420 2.439450 0.0 420.450 0.0 0.0960 0.1020 0.0 989.0 200.0 35.0 500.0 196.0 35.0 66.50 883516.0 1.50 255.0 828102397.676390 0.0 0.0 0.0 0.0 0.0 0.0 0.0 -3.27680 -3.27680 -3.27680 -3.27680 -3.27680 -3.27680
421 2.439450 0.0 421.450 0.0 0.0960 0.1020 0.0 988.50 200.0 35.0 500.0 196.0 35.0 58.0 883514.50 1.50 255.0 828099589.351730 0.0 0.0 0.0 0.0 0.0 0.0 0.0 -3.27680 -3.27680 -3.27680 -3.27680 -3.27680 -3.27680
422 2.439450 0.0 422.450 0.0 0.0960 0.1020 0.0 989.50 200.0 32.0 500.0 196.0 32.0 63.0 883513.50 2.50 255.0 828097717.138460 0.0 0.0 0.0 0.0 0.0 0.0 0.0 -3.27680 -3.27680 -3.27680 -3.27680 -3.27680 -3.27680
423 2.439450 0.0 423.450 0.0 0.0960 0.1020 0.0 987.50 200.0 28.0 500.0 196.0 28.0 29.50 883515.0 2.0 255.0 828100525.458890 0.0 0.0 0.0 0.0 0.0 0.0 0.0 -3.27680 -3.27680 -3.27680 -3.27680 -3.27680 -3.27680
424 2.439450 0.0 424.450 0.0 0.0960 0.1020 0.0 989.0 200.0 31.686270 505.0 196.50 31.686270 77.0 883516.50 2.50 255.0 828103333.784610 0.0 0.0 0.0 0.0 0.0 0.0 0.0 -3.27680 -3.27680 -3.27680 -3.27680 -3.27680 -3.27680
425 2.439450 0.0 425.450 0.0 0.0960 0.10160 0.0 989.0 200.0 38.0 500.0 196.0 38.0 101.50 883515.50 2.0 255.0 828101461.567110 0.0 0.0 0.0 0.0 0.0 0.0 0.0 -3.27680 -3.27680 -3.27680 -3.27680 -3.27680 -3.27680
426 2.439450 0.0 426.450 0.0 0.0960 0.1020 0.0 989.50 200.0 42.0 500.0 196.0 42.0 84.50 883518.0 1.0 255.0 828106142.115620 0.0 0.0 0.0 0.0 0.0 0.0 0.0 -3.27680 -3.27680 -3.27680 -3.27680 -3.27680 -3.27680
427 2.439450 0.0 427.450 0.0 0.0960 0.10180 0.0 987.0 200.0 22.0 500.0 196.0 22.0 40.0 883518.50 2.0 255.0 828107078.225950 0.0 0.0 0.0 0.0 0.0 0.0 0.0 -3.27680 -3.27680 -3.27680 -3.27680 -3.27680 -3.27680
428 2.439450 0.0 428.450 0.0 0.0960 0.1020 0.0 989.0 200.0 40.0 500.0 196.0 40.0 70.0 883518.0 3.0 255.0 828106142.114560 0.0 0.0 0.0 0.0 0.0 0.0 0.0 -3.27680 -3.27680 -3.27680 -3.27680 -3.27680 -3.27680
