~VERSION INFORMATION SECTION
VERS. 2.0 : CWLS LAS-VERSION 2.0
WRAP. NO : One line per depth step
~WELL INFORMATION SECTION
# MNEM.UNIT VALUE/NAME DESCRIPTION
#-------- -------------- ---------------------
STRT.Seconds 0 : Start
STOP.Seconds 565 : Stop
STEP.Seconds 1 : Step
NULL.  -999.25 :NULL VALUE
DATE. 2026-24-09 : DATE
~CURVE INFORMATION SECTION
DEPTH.Seconds : 0 Depth
Depth. : 1 Depth
Tension. : 2 Tension
Time. : 3 Time
Speed. : 4 Speed
Voltage. : 5 Voltage
Current. : 6 Current
WET. : 7 WET
Sig. : 8 Sig
Vth. : 9 Vth
GR.CPS : 10 GR
Timebase.ms : 11 Timebase
HeadVoltage.V : 12 Head Voltage
API.API : 13 API
Conductivity.uS : 14 Conductivity
PT100.Ohms : 15 PT100
Vmon.mV : 16 Vmon
Status. : 17 Status
Temperature.C : 18 Temperature
Incline.Deg : 19 Incline
Azimuth.Deg : 20 Azimuth
RelativeBearing.Deg : 21 Relative Bearing
MagneticToolFace.Deg : 22 Magnetic Tool Face
GravityMagnitude.G : 23 Gravity Magnitude
MagnetometerMagnitude.H : 24 Magnetometer Magnitude
Temperature.C : 25 Temperature
GX. : 26 GX
GY. : 27 GY
GZ. : 28 GZ
HX. : 29 HX
HY. : 30 HY
HZ. : 31 HZ
~PARAMETER INFORMATION SECTION
~OTHER
#-------------------------------------------------
#Produced By: GeoVista Logger - Version 7.1.107.0
Verticality Sonde - 9605
Temperature and Conductivity Sonde - Inline - 8974
Natural Gamma Sonde - 9931
WLIS - 10021
#-------------------------------------------------
~ASCII LOG DATA
# ...
546 2.439450 0.0 546.450 0.0 0.0960 0.1020 0.0 989.50 200.0 36.0 500.0 196.0 36.0 58.50 883193.50 1.0 255.0 827498717.598120 0.0 0.0 0.0 0.0 0.0 0.0 0.0 -3.27680 -3.27680 -3.27680 -3.27680 -3.27680 -3.27680
547 2.439450 0.0 547.450 0.0 0.0960 0.10160 0.0 989.0 200.0 30.0 500.0 196.0 30.0 87.0 883206.50 2.0 255.0 827523047.731430 0.0 0.0 0.0 0.0 0.0 0.0 0.0 -3.27680 -3.27680 -3.27680 -3.27680 -3.27680 -3.27680
548 2.439450 0.0 548.450 0.0 0.0960 0.1020 0.0 989.0 200.0 45.0 500.0 197.0 45.0 95.50 883215.50 2.0 255.0 827539891.894210 0.0 0.0 0.0 0.0 0.0 0.0 0.0 -3.27680 -3.27680 -3.27680 -3.27680 -3.27680 -3.27680
549 2.439450 0.0 549.450 0.0 0.0960 0.1020 0.0 989.0 200.0 29.74510 505.0 196.0 29.74510 114.50 883228.0 2.50 255.0 827563286.816660 0.0 0.0 0.0 0.0 0.0 0.0 0.0 -3.27680 -3.27680 -3.27680 -3.27680 -3.27680 -3.27680
550 2.439450 0.0 550.450 0.0 0.0960 0.1020 0.0 989.50 200.0 34.0 500.0 196.0 34.0 60.0 883240.50 2.0 255.0 827586682.078780 0.0 0.0 0.0 0.0 0.0 0.0 0.0 -3.27680 -3.27680 -3.27680 -3.27680 -3.27680 -3.27680
551 2.439450 0.0 551.450 0.0 0.0960 0.1020 0.0 988.50 200.0 36.0 500.0 196.0 36.0 81.0 883250.50 2.0 255.0 827605398.535250 0.0 0.0 0.0 0.0 0.0 0.0 0.0 -3.27680 -3.27680 -3.27680 -3.27680 -3.27680 -3.27680
552 2.439450 0.0 552.450 0.0 0.0960 0.10180 0.0 989.0 200.0 39.0 500.0 196.0 39.0 37.0 883262.50 2.0 255.0 827627858.548410 0.0 0.0 0.0 0.0 0.0 0.0 0.0 -3.27680 -3.27680 -3.27680 -3.27680 -3.27680 -3.27680
553 2.439450 0.0 553.450 0.0 0.0960 0.1020 0.0 989.0 200.0 30.0 500.0 196.50 30.0 87.0 883274.50 2.50 255.0 827650318.872680 0.0 0.0 0.0 0.0 0.0 0.0 0.0 -3.27680 -3.27680 -3.27680 -3.27680 -3.27680 -3.27680
554 2.439450 0.0 554.450 0.0 0.0960 0.1020 0.0 989.0 200.0 28.686270 505.0 196.50 28.686270 54.0 883284.50 2.0 255.0 827669036.048730 0.0 0.0 0.0 0.0 0.0 0.0 0.0 -3.27680 -3.27680 -3.27680 -3.27680 -3.27680 -3.27680
555 2.439450 0.0 555.450 0.0 0.0960 0.1020 0.0 988.0 200.0 22.0 500.0 196.0 22.0 50.0 883293.50 1.0 255.0 827685881.676060 0.0 0.0 0.0 0.0 0.0 0.0 0.0 -3.27680 -3.27680 -3.27680 -3.27680 -3.27680 -3.27680
556 2.439450 0.0 556.450 0.0 0.0960 0.10160 0.0 988.50 200.0 34.0 500.0 196.0 34.0 115.50 883306.50 1.50 255.0 827710214.556460 0.0 0.0 0.0 0.0 0.0 0.0 0.0 -3.27680 -3.27680 -3.27680 -3.27680 -3.27680 -3.27680
557 2.439450 0.0 557.450 0.0 0.0960 0.10180 0.0 989.0 200.0 43.0 500.0 196.0 43.0 25.0 883315.50 2.0 255.0 827727060.607070 0.0 0.0 0.0 0.0 0.0 0.0 0.0 -3.27680 -3.27680 -3.27680 -3.27680 -3.27680 -3.27680
558 2.439450 0.0 558.450 0.0 0.0960 0.10160 0.0 989.0 200.0 37.0 500.0 196.0 37.0 66.0 883327.50 2.0 255.0 827749522.290070 0.0 0.0 0.0 0.0 0.0 0.0 0.0 -3.27680 -3.27680 -3.27680 -3.27680 -3.27680 -3.27680
559 2.439450 0.0 559.450 0.0 0.0960 0.1020 0.0 988.50 200.0 38.0 500.0 196.50 38.0 83.50 883339.50 1.50 255.0 827771984.258790 0.0 0.0 0.0 0.0 0.0 0.0 0.0 -3.27680 -3.27680 -3.27680 -3.27680 -3.27680 -3.27680
560 2.439450 0.0 560.450 0.0 0.0960 0.1020 0.0 988.50 200.0 36.588240 505.0 196.0 36.588240 92.50 883349.50 2.0 255.0 827790702.799910 0.0 0.0 0.0 0.0 0.0 0.0 0.0 -3.27680 -3.27680 -3.27680 -3.27680 -3.27680 -3.27680
561 2.439450 0.0 561.450 0.0 0.0960 0.1020 0.0 989.50 200.0 40.0 500.0 196.0 40.0 57.50 883357.50 2.0 255.0 827805677.788580 0.0 0.0 0.0 0.0 0.0 0.0 0.0 -3.27680 -3.27680 -3.27680 -3.27680 -3.27680 -3.27680
562 2.439450 0.0 562.450 0.0 0.0960 0.10180 0.0 989.0 200.0 28.0 500.0 196.0 28.0 75.50 883356.0 2.50 255.0 827802869.965510 0.0 0.0 0.0 0.0 0.0 0.0 0.0 -3.27680 -3.27680 -3.27680 -3.27680 -3.27680 -3.27680
563 2.439450 0.0 563.450 0.0 0.0960 0.1020 0.0 990.50 200.0 31.0 500.0 196.0 31.0 31.50 883354.0 1.50 255.0 827799126.216220 0.0 0.0 0.0 0.0 0.0 0.0 0.0 -3.27680 -3.27680 -3.27680 -3.27680 -3.27680 -3.27680
564 2.439450 0.0 564.450 0.0 0.0960 0.10160 0.0 988.50 200.0 32.0 500.0 196.0 32.0 63.50 883347.0 1.50 255.0 827786023.145580 0.0 0.0 0.0 0.0 0.0 0.0 0.0 -3.27680 -3.27680 -3.27680 -3.27680 -3.27680 -3.27680
565 2.439450 0.0 565.450 -999.25 0.0960 0.1020 0.0 989.0 200.0 -999.25 -999.25 -999.25 -999.25 -999.25 -999.25 -999.25 -999.25 -999.25 -999.25 -999.25 -999.25 -999.25 -999.25 -999.25 -999.25 -999.25 -999.25 -999.25 -999.25 -999.25 -999.25
